~VERSION INFORMATION
 VERS.                 2.0    : CWLS LOG ASCII STANDARD
 WRAP.                 NO     : ONE LINE PER DEPTH STEP
~WELL INFORMATION
 WELL.                 Bonaparte-2    : Well name
 FLD .                 Bonaparte Basin         : Field
 CTRY.                 Australia       : Country
 STRT.M                1800.0000 : START DEPTH
 STOP.M                3200.0000   : STOP DEPTH
 STEP.M                0.1524        : STEP
 NULL.                 -999.25          : NULL VALUE
 SRVC.                 SubsurfAI        : Service company
~CURVE INFORMATION
 DEPT.M                              : Depth
 GR  .GAPI                           : Gamma Ray
 RHOB.G/C3                           : Bulk Density
 NPHI.V/V                            : Neutron Porosity
 RT  .OHMM                           : True Resistivity
 DT  .US/F                           : Sonic
 CALI.IN                             : Caliper
~PARAMETER INFORMATION
 LAT .                 -12.5432   : Latitude
 LON .                 128.6781   : Longitude
 DESC.                 Bonaparte Basin — Triassic Plover Fm gas condensate
~A  DEPT        GR        RHOB      NPHI      RT        DT        CALI
# ...
 2902.1568    11.799    2.7288    0.0328  1078.226   200.000     8.514
 2902.3092    13.522    2.6966    0.0500   468.736   200.000     8.605
 2902.4616     4.964    2.5939    0.0452   274.554   200.000     8.515
 2902.6140    10.955    2.6055    0.0353   554.426   200.000     7.808
 2902.7664    12.102    2.6762    0.0440   556.339   200.000     8.204
 2902.9188    14.699    2.7388    0.0466   190.390   200.000     8.227
 2903.0712    14.618    2.7344    0.0475   278.963   200.000     8.324
 2903.2236    12.185    2.7012    0.0477   248.662   200.000     8.445
 2903.3760    16.103    2.6999    0.0388   271.758   200.000     9.181
 2903.5284    11.329    2.7733    0.0330   454.173   200.000     8.172
 2903.6808    10.041    2.7036    0.0455   190.086   200.000     8.370
 2903.8332    16.235    2.7458    0.0365   213.825   200.000     8.643
 2903.9856    15.001    2.7934    0.0361   119.854   200.000     8.391
 2904.1380     8.291    2.7577    0.0383   337.838   200.000     8.461
 2904.2904    11.513    2.6842    0.0388   431.248   200.000     7.998
 2904.4428     4.800    2.7217    0.0411   187.131   200.000     7.857
 2904.5952     7.149    2.7273    0.0395   244.009   200.000     7.988
 2904.7476    13.455    2.7415    0.0361   358.068   200.000     8.360
 2904.9000    10.736    2.8511    0.0388   351.757   200.000     8.960
 2905.0524     7.924    2.6604    0.0414   100.029   200.000     7.840
 2905.2048    11.196    2.6895    0.0445   564.587   200.000     8.738
 2905.3572    10.861    2.6513    0.0368   215.306   200.000     8.298
 2905.5096    11.597    2.7463    0.0442   255.788   200.000     8.294
 2905.6620    13.090    2.6822    0.0305   422.505   200.000     8.308
 2905.8144    13.682    2.7426    0.0440   317.432   200.000     8.525
 2905.9668    12.566    2.6988    0.0309   186.417   200.000     8.166
 2906.1192    12.013    2.7302    0.0410   284.074   200.000     8.623
 2906.2716    14.456    2.7680    0.0414   557.290   200.000     8.604
 2906.4240     8.547    2.7242    0.0435   225.836   200.000     8.011
 2906.5764     5.288    2.7438    0.0455   436.759   200.000     7.866
 2906.7288     4.188    2.6048    0.0368   564.162   200.000     8.175
 2906.8812     9.680    2.8280    0.0353   334.923   200.000     9.198
 2907.0336     6.358    2.7230    0.0426   199.293   200.000     8.810
 2907.1860     8.100    2.6437    0.0313   202.774   200.000     8.604
 2907.3384    11.242    2.6074    0.0372   293.315   200.000     9.300
 2907.4908    11.044    2.6966    0.0398   197.175   200.000     8.710
 2907.6432     9.191    2.6787    0.0467   241.262   200.000     8.305
 2907.7956     7.486    2.7045    0.0319   749.353   200.000     9.256
 2907.9480     7.282    2.7295    0.0323   375.916   200.000     8.520
 2908.1004    14.303    2.6736    0.0291   275.881   200.000     8.112
 2908.2528     7.418    2.7889    0.0340   216.152   200.000     8.923
 2908.4052     7.013    2.7261    0.0268   127.846   200.000     7.576
 2908.5576    11.119    2.7616    0.0303   416.498   200.000     8.555
 2908.7100    13.071    2.8361    0.0441   348.362   200.000     8.271
 2908.8624     9.954    2.7473    0.0358   559.198   200.000     9.144
 2909.0148    12.212    2.6375    0.0445   211.959   200.000     8.638
 2909.1672     9.959    2.7176    0.0400   423.405   200.000     9.421
 2909.3196     8.906    2.6937    0.0371   225.700   200.000     8.493
 2909.4720    15.006    2.6372    0.0399   266.441   200.000     9.194
 2909.6244    12.158    2.6245    0.0357   335.822   200.000     7.974
 2909.7768    11.291    2.6998    0.0470   173.536   200.000     8.101
 2909.9292     4.349    2.7437    0.0368   419.292   200.000     8.529
 2910.0816     5.512    2.7599    0.0416   293.782   200.000     8.354
 2910.2340    11.397    2.6481    0.0335   192.452   200.000     8.257
 2910.3864    10.230    2.6808    0.0419   178.211   200.000     8.768
 2910.5388    10.483    2.7664    0.0339   458.594   200.000     8.647
 2910.6912     8.790    2.7100    0.0355   996.623   200.000     8.003
 2910.8436     8.577    2.6901    0.0401   353.989   200.000     8.550
 2910.9960     7.622    2.7273    0.0289   284.873   200.000     8.767
 2911.1484     1.318    2.6836    0.0351   379.637   200.000     8.207
 2911.3008    11.776    2.7039    0.0422   202.152   200.000     8.613
 2911.4532     7.567    2.7273    0.0410   292.459   200.000     8.568
 2911.6056     8.305    2.7755    0.0402   299.403   200.000     8.951
 2911.7580     9.376    2.6954    0.0379   300.360   200.000     7.993
 2911.9104     7.782    2.7931    0.0376   124.070   200.000     9.105
 2912.0628     7.530    2.7585    0.0420   182.267   200.000     8.529
 2912.2152     3.657    2.7448    0.0421   303.334   200.000     8.374
 2912.3676    14.738    2.7164    0.0510   336.367   200.000     8.442
 2912.5200     9.744    2.7532    0.0320   169.128   200.000     8.067
 2912.6724     9.761    2.6866    0.0436   553.215   200.000     8.578
 2912.8248     9.774    2.7329    0.0399   463.124   200.000     8.566
 2912.9772     4.036    2.7946    0.0342   315.109   200.000     8.460
 2913.1296     9.582    2.7694    0.0419   290.726   200.000     9.177
 2913.2820     9.381    2.7849    0.0368   296.079   200.000     8.402
 2913.4344    14.151    2.6312    0.0446   955.874   200.000     7.869
 2913.5868    11.553    2.7494    0.0414   770.143   200.000     8.419
 2913.7392     6.989    2.7570    0.0377   751.266   200.000     8.703
 2913.8916    13.883    2.7514    0.0286   641.125   200.000     8.805
 2914.0440     6.360    2.7983    0.0416   656.275   200.000     8.259
 2914.1964     7.798    2.6606    0.0454   178.244   200.000     7.980
 2914.3488    13.220    2.6703    0.0378  1404.490   200.000     8.434
 2914.5012     3.509    2.7095    0.0306   398.360   200.000     9.010
 2914.6536     5.143    2.7621    0.0417   284.078   200.000     8.809
 2914.8060     4.171    2.7532    0.0389   103.116   200.000     8.594
 2914.9584    11.725    2.7701    0.0472   369.636   200.000     8.637
 2915.1108     6.163    2.6406    0.0407   342.243   200.000     8.123
 2915.2632     7.948    2.6293    0.0464   431.703   200.000     8.078
 2915.4156     6.513    2.7158    0.0421   141.658   200.000     8.492
 2915.5680     9.791    2.7737    0.0331   169.963   200.000     8.482
 2915.7204    12.835    2.7600    0.0393   431.585   200.000     8.821
 2915.8728     9.840    2.6645    0.0336   309.606   200.000     8.957
 2916.0252    11.008    2.7973    0.0340   244.929   200.000     8.364
 2916.1776    11.111    2.6836    0.0411   463.691   200.000     8.274
 2916.3300     7.623    2.7913    0.0423   481.108   200.000     8.463
 2916.4824     6.114    2.7809    0.0353   247.675   200.000     8.654
 2916.6348    14.601    2.6527    0.0400   179.380   200.000     8.441
 2916.7872     8.978    2.6810    0.0346   122.532   200.000     8.566
 2916.9396    15.058    2.7387    0.0337   390.973   200.000     8.798
 2917.0920     7.031    2.6845    0.0391   152.973   200.000     8.682
 2917.2444     2.702    2.6828    0.0405   220.408   200.000     9.030
 2917.3968    12.988    2.7499    0.0354   418.543   200.000     9.063
 2917.5492    11.592    2.7807    0.0380   208.400   200.000     8.247
 2917.7016    11.264    2.6621    0.0403   272.403   200.000     8.038
 2917.8540    12.144    2.7792    0.0407   222.101   200.000     8.966
 2918.0064     8.039    2.6046    0.0428   242.985   200.000     8.609
 2918.1588     6.772    2.7291    0.0395   218.976   200.000     9.330
 2918.3112     7.715    2.7478    0.0360   184.922   200.000     9.171
 2918.4636    13.805    2.7506    0.0353   744.346   200.000     8.795
 2918.6160    11.792    2.7474    0.0462   624.971   200.000     8.238
 2918.7684     6.191    2.7718    0.0402   123.831   200.000     7.981
 2918.9208     7.951    2.8180    0.0395   268.454   200.000     7.719
 2919.0732    13.573    2.6891    0.0421   150.583   200.000     8.078
 2919.2256    13.449    2.8170    0.0364   278.370   200.000     8.660
