~VERSION INFORMATION
 VERS.                 2.0    : CWLS LOG ASCII STANDARD
 WRAP.                 NO     : ONE LINE PER DEPTH STEP
~WELL INFORMATION
 WELL.                 Bonaparte-2    : Well name
 FLD .                 Bonaparte Basin         : Field
 CTRY.                 Australia       : Country
 STRT.M                1800.0000 : START DEPTH
 STOP.M                3200.0000   : STOP DEPTH
 STEP.M                0.1524        : STEP
 NULL.                 -999.25          : NULL VALUE
 SRVC.                 SubsurfAI        : Service company
~CURVE INFORMATION
 DEPT.M                              : Depth
 GR  .GAPI                           : Gamma Ray
 RHOB.G/C3                           : Bulk Density
 NPHI.V/V                            : Neutron Porosity
 RT  .OHMM                           : True Resistivity
 DT  .US/F                           : Sonic
 CALI.IN                             : Caliper
~PARAMETER INFORMATION
 LAT .                 -12.5432   : Latitude
 LON .                 128.6781   : Longitude
 DESC.                 Bonaparte Basin — Triassic Plover Fm gas condensate
~A  DEPT        GR        RHOB      NPHI      RT        DT        CALI
# ...
 1886.1060   107.414    2.5235    0.3186     3.383   167.752     9.296
 1886.2584    97.805    2.5222    0.3171     2.077   172.087     8.674
 1886.4108   117.740    2.4694    0.2866     0.865   186.623     8.355
 1886.5632   107.757    2.4652    0.3553     1.165   152.422     8.520
 1886.7156   112.366    2.4308    0.3055     1.317   184.194     8.518
 1886.8680    96.015    2.5868    0.3201     1.148   169.198     7.753
 1887.0204    97.278    2.3930    0.2874     1.649   200.000     8.664
 1887.1728    99.436    2.4970    0.2902     1.491   180.402     8.029
 1887.3252    99.488    2.4612    0.2798     0.694   195.582     8.714
 1887.4776   105.452    2.5325    0.2947     2.266   192.172     8.489
 1887.6300   105.283    2.5543    0.3139     1.310   164.140     8.574
 1887.7824    93.228    2.4876    0.2706     4.204   196.966     8.256
 1887.9348    87.233    2.5235    0.4083     2.106   138.637     9.111
 1888.0872    95.935    2.3975    0.3220     1.972   171.021     8.608
 1888.2396    79.439    2.5181    0.2927     3.495   180.789     8.552
 1888.3920    85.118    2.4579    0.3176     2.132   171.939     8.313
 1888.5444   102.539    2.4049    0.3072     6.310   189.575     8.599
 1888.6968    80.753    2.5018    0.3272     2.018   164.634     8.225
 1888.8492    90.035    2.5977    0.2741     0.691   197.474     8.195
 1889.0016   110.200    2.4740    0.3063     1.440   175.012     8.245
 1889.1540    89.836    2.4692    0.3765     2.579   147.767     7.951
 1889.3064   118.389    2.4096    0.2647     1.141   200.000     9.008
 1889.4588    96.621    2.4412    0.2992     2.141   183.399     8.929
 1889.6112   114.208    2.5136    0.3264     1.259   167.999     7.990
 1889.7636    80.341    2.4519    0.3494     2.945   153.806     7.777
 1889.9160    91.763    2.5111    0.3066     2.616   178.386     8.963
 1890.0684    94.265    2.4786    0.3278     3.222   176.924     9.134
 1890.2208    96.651    2.4633    0.3164     1.878   172.809     7.938
 1890.3732    94.228    2.4342    0.3002     1.623   176.522     8.724
 1890.5256    73.944    2.4628    0.3142     2.035   186.305     7.647
 1890.6780   113.553    2.4853    0.3398     0.732   158.882     8.522
 1890.8304    89.743    2.5241    0.3580     3.245   148.731     8.840
 1890.9828   102.302    2.5581    0.3545     3.858   163.569     8.477
 1891.1352    84.151    2.5623    0.3079     2.216   177.279     8.431
 1891.2876    95.667    2.4794    0.3342     1.461   161.391     8.795
 1891.4400   102.315    2.4900    0.3692     2.256   146.462     8.547
 1891.5924   124.460    2.4294    0.2963     1.314   181.826     9.068
 1891.7448    94.702    2.5065    0.2920     1.725   189.645     8.374
 1891.8972    93.872    2.4750    0.3091     9.680   174.525     8.187
 1892.0496   127.633    2.5071    0.3569     0.978   158.430     8.172
 1892.2020   109.427    2.4648    0.2407     1.824   200.000     7.976
 1892.3544    90.153    2.4840    0.2429     2.636   200.000     8.683
 1892.5068   102.834    2.4377    0.2989     1.681   183.305     9.098
 1892.6592   113.867    2.4282    0.3046     2.254   176.460     8.991
 1892.8116   101.104    2.4099    0.3496     3.430   156.506     8.623
 1892.9640    95.923    2.4474    0.3211     1.364   170.377     8.223
 1893.1164   107.078    2.5246    0.2235     1.409   200.000     8.387
 1893.2688    97.410    2.3705    0.3333     0.820   162.495     8.879
 1893.4212    86.175    2.5268    0.3036     2.757   181.287     9.153
 1893.5736   100.771    2.4409    0.2457     1.171   200.000     7.680
 1893.7260    75.228    2.4506    0.2950     3.094   187.375     8.311
 1893.8784    87.867    2.4335    0.3138     1.740   176.116     8.078
 1894.0308    88.512    2.5225    0.3407     2.612   161.616     8.895
 1894.1832    91.299    2.4838    0.3891     2.951   134.782     8.455
 1894.3356    97.954    2.4185    0.3259     2.121   163.367     8.493
 1894.4880    95.520    2.4662    0.3560     1.013   162.705     7.942
 1894.6404    87.615    2.4926    0.2751     1.661   200.000     8.300
 1894.7928    90.861    2.4879    0.3285     1.593   166.346     9.034
 1894.9452   110.124    2.4631    0.3567     1.465   166.438     8.277
 1895.0976   105.226    2.5279    0.2630     1.791   197.763     8.699
 1895.2500   109.901    2.4495    0.2892     2.207   185.945     7.868
 1895.4024   111.753    2.4800    0.3814     2.327   142.730     8.431
 1895.5548    80.603    2.4237    0.2649     1.837   195.961     8.360
 1895.7072   104.175    2.5270    0.3192     3.079   172.015     8.640
 1895.8596    98.953    2.5542    0.2214     1.344   200.000     7.652
 1896.0120    86.894    2.4517    0.3598     3.391   146.618     8.218
 1896.1644    76.797    2.4161    0.2690     1.119   200.000     8.503
 1896.3168    99.464    2.5104    0.3329     1.848   158.126     9.156
 1896.4692    85.799    2.4860    0.2835     1.005   195.042     8.805
 1896.6216    94.780    2.4944    0.3019     1.441   186.912     8.543
 1896.7740    89.248    2.5461    0.3074     4.909   178.616     8.232
 1896.9264   100.702    2.5265    0.2691     2.228   200.000     8.185
 1897.0788   113.406    2.4431    0.2965     2.387   179.550     8.383
 1897.2312    97.607    2.4202    0.3251     1.555   166.290     8.427
 1897.3836   101.154    2.5381    0.2543     1.488   200.000     8.382
 1897.5360    86.988    2.5324    0.1990     3.244   200.000     8.268
 1897.6884    94.627    2.4955    0.3123     2.207   183.973     8.859
 1897.8408   109.358    2.4470    0.1777     3.138   200.000     8.029
 1897.9932   102.490    2.4300    0.3362     1.608   154.065     8.120
 1898.1456    93.144    2.4669    0.3690     1.842   146.646     8.815
 1898.2980    83.881    2.4799    0.3699     0.675   149.473     8.260
 1898.4504   101.089    2.4686    0.2344     2.501   200.000     8.639
 1898.6028    87.749    2.4236    0.4145     6.773   137.186     7.615
 1898.7552    90.531    2.4481    0.2518     1.933   200.000     8.938
 1898.9076   130.933    2.3814    0.2895     2.268   190.174     7.920
 1899.0600    78.495    2.5055    0.2372     1.576   200.000     8.313
 1899.2124   120.933    2.4517    0.2599     3.290   200.000     8.697
 1899.3648    90.365    2.4300    0.2882     0.804   181.877     8.921
 1899.5172    95.479    2.4610    0.2411     5.740   200.000     7.689
 1899.6696    66.531    2.5128    0.2272     1.252   200.000     8.513
 1899.8220   102.548    2.5636    0.3187     1.268   169.176     8.985
 1899.9744   101.578    2.4899    0.3358     2.476   168.501     8.508
 1900.1268   109.271    2.4729    0.3479     1.410   158.693     8.451
 1900.2792    83.765    2.4415    0.2941     1.673   188.473     8.234
 1900.4316    97.165    2.3773    0.3239     2.268   172.127     9.132
 1900.5840    94.680    2.5018    0.2872     2.570   186.444     7.917
 1900.7364   103.942    2.5294    0.3326     3.113   163.982     8.528
 1900.8888   109.306    2.4255    0.3415     4.070   159.937     7.940
 1901.0412   107.869    2.4179    0.3502     1.682   153.790     8.676
 1901.1936   113.521    2.5749    0.3152     1.325   169.536     8.450
 1901.3460   117.198    2.5554    0.2995     2.159   187.669     8.934
 1901.4984   100.203    2.4951    0.3018     3.255   184.834     7.750
 1901.6508    99.464    2.5329    0.3343     1.673   159.195     8.451
 1901.8032    96.497    2.4242    0.2857     1.726   200.000     7.949
 1901.9556    93.346    2.5069    0.3964     1.247   127.655     8.810
 1902.1080   104.100    2.4674    0.3187     2.873   173.520     9.146
 1902.2604   116.961    2.3950    0.3510     4.633   160.938     7.906
 1902.4128    95.504    2.4537    0.2454     1.260   200.000     7.798
 1902.5652    91.588    2.6008    0.3071     1.249   185.837     8.249
 1902.7176    88.799    2.4763    0.3169     2.810   175.360     8.986
 1902.8700    85.518    2.4722    0.3497     2.300   150.902     8.527
 1903.0224    92.561    2.4715    0.2445     1.794   200.000     8.605
 1903.1748   103.793    2.4771    0.2182     2.387   200.000     8.339
