~VERSION INFORMATION
 VERS.                 2.0    : CWLS LOG ASCII STANDARD
 WRAP.                 NO     : ONE LINE PER DEPTH STEP
~WELL INFORMATION
 WELL.                 Bonaparte-2    : Well name
 FLD .                 Bonaparte Basin         : Field
 CTRY.                 Australia       : Country
 STRT.M                1800.0000 : START DEPTH
 STOP.M                3200.0000   : STOP DEPTH
 STEP.M                0.1524        : STEP
 NULL.                 -999.25          : NULL VALUE
 SRVC.                 SubsurfAI        : Service company
~CURVE INFORMATION
 DEPT.M                              : Depth
 GR  .GAPI                           : Gamma Ray
 RHOB.G/C3                           : Bulk Density
 NPHI.V/V                            : Neutron Porosity
 RT  .OHMM                           : True Resistivity
 DT  .US/F                           : Sonic
 CALI.IN                             : Caliper
~PARAMETER INFORMATION
 LAT .                 -12.5432   : Latitude
 LON .                 128.6781   : Longitude
 DESC.                 Bonaparte Basin — Triassic Plover Fm gas condensate
~A  DEPT        GR        RHOB      NPHI      RT        DT        CALI
# ...
 3091.5900    99.002    2.4962    0.2707     1.780   200.000     8.464
 3091.7424    89.685    2.4468    0.2937     3.599   184.679     9.170
 3091.8948    73.450    2.4027    0.2585     1.290   200.000     8.606
 3092.0472   106.552    2.5170    0.2902     1.165   192.588     8.407
 3092.1996   102.615    2.4615    0.2670     2.049   200.000     8.109
 3092.3520    94.149    2.4834    0.2360     1.531   200.000     8.745
 3092.5044    95.733    2.4278    0.3448     1.707   173.093     8.585
 3092.6568    76.033    2.4568    0.3051     0.978   176.770     8.188
 3092.8092    88.192    2.4852    0.2905     0.932   179.797     8.055
 3092.9616   116.741    2.4783    0.3410     4.736   157.941     8.185
 3093.1140    96.353    2.5220    0.3004     3.139   181.410     8.528
 3093.2664    84.988    2.4870    0.3062     1.126   179.745     8.749
 3093.4188    83.255    2.4440    0.3000     1.062   189.062     8.571
 3093.5712   105.704    2.4222    0.3108     1.987   173.987     7.883
 3093.7236    86.101    2.4061    0.3248     1.417   175.515     8.572
 3093.8760    93.733    2.4371    0.3116     2.059   180.815     7.868
 3094.0284    79.755    2.3733    0.2403     0.970   200.000     8.102
 3094.1808    80.199    2.4616    0.3010     2.318   190.926     8.067
 3094.3332   118.448    2.4789    0.2913     1.524   192.093     8.639
 3094.4856   113.723    2.5076    0.2583     2.280   200.000     8.615
 3094.6380    82.141    2.4143    0.2739     4.870   200.000     8.844
 3094.7904   111.340    2.4702    0.2546     1.645   200.000     7.882
 3094.9428   116.032    2.4344    0.3161     1.628   181.954     8.862
 3095.0952   100.777    2.4435    0.2521     3.360   200.000     8.629
 3095.2476   111.604    2.4681    0.2426     1.675   200.000     8.577
 3095.4000   107.792    2.5074    0.2406     1.367   200.000     9.142
 3095.5524    86.452    2.4481    0.2354     2.774   200.000     8.616
 3095.7048    80.942    2.4607    0.3139     1.646   165.787     8.209
 3095.8572    81.571    2.3413    0.3175     2.026   178.932     8.478
 3096.0096    92.478    2.4496    0.2617     1.009   200.000     8.331
 3096.1620    71.544    2.4340    0.2695     1.421   200.000     8.496
 3096.3144    98.789    2.4410    0.3445     1.490   159.706     8.628
 3096.4668    87.052    2.4369    0.2531     1.523   200.000     8.556
 3096.6192    71.682    2.4228    0.2558     3.123   200.000     8.579
 3096.7716    92.279    2.4421    0.2672     1.038   199.912     7.948
 3096.9240    89.767    2.4292    0.2797     2.641   200.000     9.069
 3097.0764    90.984    2.4048    0.2719     3.036   198.051     8.613
 3097.2288    75.546    2.4724    0.2438     1.993   200.000     8.775
 3097.3812    96.336    2.4790    0.3028     3.288   181.760     8.373
 3097.5336    94.561    2.4179    0.3063     1.382   180.064     8.152
 3097.6860    87.518    2.4306    0.2983     1.523   180.090     8.176
 3097.8384    97.539    2.4024    0.2582     3.741   200.000     8.554
 3097.9908    74.414    2.4922    0.2768     1.135   196.612     8.320
 3098.1432    90.871    2.4117    0.2837     3.107   193.197     8.405
 3098.2956    86.204    2.5399    0.2330     2.494   200.000     8.708
 3098.4480    96.868    2.4273    0.2713     3.327   200.000     8.377
 3098.6004   108.968    2.5154    0.2668     2.794   200.000     8.249
 3098.7528   104.950    2.5015    0.3459     3.896   148.667     9.202
 3098.9052   103.502    2.4028    0.2109     4.685   200.000     8.714
 3099.0576    79.685    2.4568    0.3305     3.085   171.227     8.193
 3099.2100    74.042    2.4933    0.3018     3.745   178.647     8.650
 3099.3624   101.627    2.4638    0.2530     2.347   200.000     9.100
 3099.5148   116.347    2.5116    0.2243     1.630   200.000     8.330
 3099.6672    93.355    2.4430    0.2778     3.238   194.481     8.407
 3099.8196    96.037    2.5074    0.2738     1.591   200.000     8.561
 3099.9720   124.362    2.3863    0.2805     2.043   196.155     8.765
 3100.1244    86.007    2.4204    0.2531     1.756   200.000     8.908
 3100.2768    90.645    2.4321    0.2729     0.413   200.000     8.498
 3100.4292    96.006    2.3691    0.2256     3.453   200.000     7.980
 3100.5816   102.326    2.5777    0.2987     3.716   187.004     8.291
 3100.7340    69.211    2.5021    0.3091     2.094   167.050     8.446
 3100.8864    79.112    2.4737    0.2879     2.221   193.410     9.000
 3101.0388    82.912    2.4773    0.2656     3.213   200.000     8.633
 3101.1912    87.281    2.4616    0.2309     3.845   200.000     8.956
 3101.3436    86.025    2.4037    0.2224     1.204   200.000     7.738
 3101.4960   106.056    2.3963    0.2498     2.303   200.000     7.678
 3101.6484    95.616    2.4751    0.3201     2.368   173.181     9.038
 3101.8008    93.744    2.4833    0.2736     1.696   200.000     8.457
 3101.9532    95.126    2.4601    0.2796     0.952   200.000     8.607
 3102.1056    66.758    2.4570    0.2490     1.204   200.000     8.721
 3102.2580    81.215    2.5000    0.2846     2.739   195.955     8.056
 3102.4104    89.404    2.5161    0.3147     1.163   176.947     7.900
 3102.5628    93.083    2.4950    0.2950     2.384   190.421     9.379
 3102.7152    87.853    2.4351    0.2755     1.237   200.000     9.164
 3102.8676   101.104    2.3803    0.3382     1.361   160.109     8.972
 3103.0200    91.382    2.4540    0.2994     1.963   186.701     8.973
 3103.1724   103.907    2.4295    0.2709     0.503   200.000     8.546
 3103.3248    85.195    2.4483    0.2940     1.177   183.389     8.485
 3103.4772    94.674    2.3714    0.3252     4.312   166.147     9.125
 3103.6296   105.872    2.3947    0.1771     3.733   200.000     7.913
 3103.7820    94.396    2.4337    0.3110     1.270   175.198     8.564
 3103.9344    87.841    2.5109    0.2870     0.680   182.721     8.199
 3104.0868   110.981    2.4559    0.2389     4.223   200.000     9.040
 3104.2392    94.192    2.4909    0.2802     1.239   196.853     8.668
 3104.3916   102.428    2.4106    0.2404     1.218   200.000     8.614
 3104.5440    92.698    2.4835    0.2931     1.877   176.696     8.396
 3104.6964    80.337    2.4036    0.2860     2.771   191.384     7.962
 3104.8488   110.038    2.4564    0.3139     0.893   184.053     8.171
 3105.0012   106.005    2.4504    0.2952     0.944   184.528     7.824
 3105.1536    91.797    2.4078    0.2984     1.453   178.450     7.969
 3105.3060    99.797    2.4515    0.3507     0.904   153.455     8.409
 3105.4584    96.727    2.5074    0.2430     1.955   200.000     7.726
 3105.6108    96.894    2.4900    0.2191     2.099   200.000     8.351
 3105.7632    84.627    2.5250    0.2623     2.671   200.000     8.447
 3105.9156   104.379    2.3912    0.2527     3.719   200.000     8.296
 3106.0680    89.096    2.4301    0.2702     1.103   193.023     8.340
 3106.2204   109.314    2.4693    0.3107     2.995   182.536     8.770
 3106.3728   100.168    2.4424    0.3212     2.262   170.467     8.670
 3106.5252    90.601    2.4783    0.2475     5.720   200.000     8.484
 3106.6776    76.231    2.4781    0.3633     1.259   156.086     8.406
 3106.8300   100.940    2.5021    0.3174     2.133   169.006     8.840
 3106.9824    88.574    2.4288    0.3084     1.283   178.029     8.578
 3107.1348    91.876    2.4113    0.2388     1.444   200.000     8.582
 3107.2872    85.242    2.4907    0.3312     1.971   160.154     8.472
 3107.4396    92.700    2.4759    0.2957     2.052   189.635     8.871
 3107.5920   110.439    2.5035    0.2652     3.278   200.000     8.179
 3107.7444   113.538    2.5124    0.2411     1.924   200.000     7.979
 3107.8968    88.896    2.4123    0.2573     1.400   200.000     9.024
 3108.0492    92.468    2.4783    0.2357     1.123   200.000     8.298
 3108.2016    77.403    2.5568    0.2938     3.238   183.180     7.820
 3108.3540    96.581    2.4372    0.2812     3.486   200.000     8.405
 3108.5064    80.116    2.4684    0.2688     2.935   199.142     8.048
 3108.6588   110.332    2.4167    0.3088     1.305   184.163     8.963
