~VERSION INFORMATION
 VERS.                 2.0    : CWLS LOG ASCII STANDARD
 WRAP.                 NO     : ONE LINE PER DEPTH STEP
~WELL INFORMATION
 WELL.                 Bonaparte-2    : Well name
 FLD .                 Bonaparte Basin         : Field
 CTRY.                 Australia       : Country
 STRT.M                1800.0000 : START DEPTH
 STOP.M                3200.0000   : STOP DEPTH
 STEP.M                0.1524        : STEP
 NULL.                 -999.25          : NULL VALUE
 SRVC.                 SubsurfAI        : Service company
~CURVE INFORMATION
 DEPT.M                              : Depth
 GR  .GAPI                           : Gamma Ray
 RHOB.G/C3                           : Bulk Density
 NPHI.V/V                            : Neutron Porosity
 RT  .OHMM                           : True Resistivity
 DT  .US/F                           : Sonic
 CALI.IN                             : Caliper
~PARAMETER INFORMATION
 LAT .                 -12.5432   : Latitude
 LON .                 128.6781   : Longitude
 DESC.                 Bonaparte Basin — Triassic Plover Fm gas condensate
~A  DEPT        GR        RHOB      NPHI      RT        DT        CALI
# ...
 2351.0784    28.923    2.3227    0.2072    73.190   200.000     8.603
 2351.2308    28.526    2.2496    0.1798    38.086   200.000     8.659
 2351.3832    29.403    2.2586    0.1443    32.263   200.000     8.349
 2351.5356    31.478    2.2796    0.1611    77.981   200.000     8.184
 2351.6880    33.342    2.2703    0.1292    34.478   200.000     7.420
 2351.8404    27.295    2.2745    0.1304    87.536   200.000     8.712
 2351.9928    37.112    2.2422    0.1574   103.564   200.000     8.332
 2352.1452    26.824    2.2208    0.1696    78.256   200.000     8.471
 2352.2976    27.484    2.2398    0.1672    38.559   200.000     7.641
 2352.4500    43.215    2.2648    0.1848    45.738   200.000     8.721
 2352.6024    31.174    2.2077    0.1665    69.286   200.000     9.139
 2352.7548    28.779    2.2403    0.1526   132.389   200.000     8.789
 2352.9072    28.796    2.2452    0.1602    50.098   200.000     8.337
 2353.0596    23.627    2.2847    0.1786    84.408   200.000     8.369
 2353.2120    34.745    2.2896    0.1434    66.028   200.000     8.815
 2353.3644    35.829    2.2061    0.1786    62.353   200.000     8.355
 2353.5168    36.135    2.1963    0.1501    68.093   200.000     8.035
 2353.6692    30.122    2.2615    0.1229    95.066   200.000     8.644
 2353.8216    28.869    2.3165    0.1682    30.139   200.000     7.953
 2353.9740    30.422    2.2561    0.1821   114.259   200.000     9.098
 2354.1264    36.249    2.1759    0.2004    43.175   200.000     7.763
 2354.2788    33.761    2.2314    0.1797   140.642   200.000     8.785
 2354.4312    24.938    2.2216    0.1536    76.030   200.000     9.205
 2354.5836    29.595    2.2592    0.1635   124.296   200.000     9.068
 2354.7360    28.392    2.2469    0.1825    38.482   200.000     8.410
 2354.8884    29.633    2.2217    0.1686   104.348   200.000     8.545
 2355.0408    36.967    2.2195    0.1742    87.836   200.000     8.433
 2355.1932    37.112    2.3106    0.1891    72.918   200.000     9.367
 2355.3456    36.912    2.3281    0.2222    17.034   200.000     8.571
 2355.4980    28.898    2.2472    0.2017   121.984   200.000     8.535
 2355.6504    33.801    2.1739    0.2034   100.804   200.000     8.171
 2355.8028    26.033    2.2849    0.1997   152.796   200.000     8.646
 2355.9552    29.024    2.2511    0.2164    42.520   200.000     8.310
 2356.1076    25.910    2.2891    0.1601    55.635   200.000     8.005
 2356.2600    30.164    2.2167    0.2291    94.530   200.000     9.118
 2356.4124    27.810    2.2475    0.1702    51.651   200.000     9.015
 2356.5648    21.855    2.2059    0.1452    51.887   200.000     8.884
 2356.7172    31.817    2.2671    0.2216    70.539   200.000     8.278
 2356.8696    29.549    2.1598    0.1879    79.446   200.000     8.912
 2357.0220    23.000    2.1684    0.1948    29.231   200.000     8.825
 2357.1744    35.304    2.2288    0.1862    57.203   200.000     9.296
 2357.3268    29.169    2.2435    0.1787   221.399   200.000     8.326
 2357.4792    19.613    2.2286    0.1548    53.225   200.000     8.149
 2357.6316    29.801    2.2582    0.1138    56.249   200.000     8.026
 2357.7840    31.811    2.3214    0.1687    85.917   200.000     8.401
 2357.9364    24.543    2.2959    0.1744   189.151   200.000     8.535
 2358.0888    27.997    2.2144    0.1461    69.638   200.000     8.545
 2358.2412    33.636    2.2214    0.1513    67.355   200.000     8.025
 2358.3936    37.341    2.1785    0.1932    67.320   200.000     8.725
 2358.5460    34.851    2.2654    0.1555    68.457   200.000     8.534
 2358.6984    25.276    2.2094    0.1915    85.318   200.000     8.070
 2358.8508    45.737    2.2376    0.1467   207.563   200.000     8.839
 2359.0032    34.939    2.2293    0.1676    52.216   200.000     8.764
 2359.1556    33.254    2.2335    0.2112    87.807   200.000     9.047
 2359.3080    29.063    2.1740    0.1632    63.022   200.000     8.098
 2359.4604    26.223    2.3359    0.1936   113.791   200.000     7.679
 2359.6128    33.182    2.2638    0.1925    49.461   200.000     9.110
 2359.7652    27.398    2.2415    0.1677    25.494   200.000     9.363
 2359.9176     7.954    2.7541    0.0476   177.400   200.000     8.780
 2360.0700     8.353    2.6383    0.0601   487.918   200.000     7.936
 2360.2224    10.063    2.6060    0.0549   306.535   200.000     8.292
 2360.3748    22.120    2.7399    0.0521   123.985   200.000     8.335
 2360.5272    12.481    2.6289    0.0483   152.579   200.000     8.535
 2360.6796    12.899    2.6005    0.0550   158.629   200.000     8.484
 2360.8320    19.707    2.6269    0.0616   338.383   200.000     8.557
 2360.9844    16.003    2.6828    0.0487   247.775   200.000     8.310
 2361.1368    11.366    2.6686    0.0537   265.009   200.000     8.752
 2361.2892    12.067    2.6268    0.0550   228.719   200.000     8.781
 2361.4416    15.379    2.7059    0.0691   107.057   200.000     8.667
 2361.5940    10.649    2.6170    0.0535   236.591   200.000     8.611
 2361.7464    14.556    2.6348    0.0596   304.068   200.000     8.726
 2361.8988    13.513    2.6981    0.0672   116.708   200.000     8.435
 2362.0512    16.281    2.6770    0.0582   192.084   200.000     8.659
 2362.2036    14.204    2.6281    0.0448   281.155   200.000     9.023
 2362.3560    13.384    2.6111    0.0544   111.102   200.000     7.853
 2362.5084    11.993    2.6416    0.0475   292.592   200.000     8.874
 2362.6608    15.834    2.7393    0.0596   139.904   200.000     8.613
 2362.8132    13.101    2.8256    0.0618    51.932   200.000     8.389
 2362.9656    14.534    2.6903    0.0572   180.535   200.000     8.492
 2363.1180    16.156    2.6486    0.0608   356.225   200.000     8.267
 2363.2704    13.860    2.6379    0.0623   168.713   200.000     8.174
 2363.4228    10.237    2.6723    0.0613   206.724   200.000     7.961
 2363.5752    14.131    2.5788    0.0374   216.007   200.000     8.491
 2363.7276    18.011    2.7254    0.0602   139.406   200.000     8.470
 2363.8800    17.308    2.6854    0.0779   608.648   200.000     9.004
 2364.0324    15.998    2.6504    0.0542   257.743   200.000     7.954
 2364.1848    16.463    2.6910    0.0635   201.402   200.000     8.345
 2364.3372    13.491    2.6501    0.0521   258.838   200.000     7.864
 2364.4896    16.235    2.6578    0.0686   330.561   200.000     8.556
 2364.6420    11.089    2.5654    0.0487   311.193   200.000     8.411
 2364.7944    14.662    2.7090    0.0727    45.591   200.000     9.355
 2364.9468    18.712    2.5959    0.0708   261.614   200.000     8.833
 2365.0992    14.902    2.6587    0.0361   126.108   200.000     8.375
 2365.2516    12.734    2.6415    0.0645    67.393   200.000     8.696
 2365.4040    15.212    2.6486    0.0578   157.348   200.000     8.527
 2365.5564    22.677    2.6563    0.0697   195.487   200.000     8.322
 2365.7088     9.440    2.6486    0.0720    91.132   200.000     8.773
 2365.8612    18.917    2.7091    0.0635   194.792   200.000     8.568
 2366.0136    12.003    2.6963    0.0760   217.959   200.000     8.129
 2366.1660    12.651    2.6168    0.0437   215.206   200.000     8.522
 2366.3184    18.152    2.6983    0.0509   114.159   200.000     8.778
 2366.4708     9.178    2.6650    0.0580   310.970   200.000     8.456
 2366.6232    12.618    2.6878    0.0713   598.841   200.000     8.384
 2366.7756    15.099    2.6663    0.0581   204.977   200.000     9.088
 2366.9280    12.232    2.6341    0.0540   154.491   200.000     8.300
 2367.0804     5.706    2.6720    0.0469   132.512   200.000     8.295
 2367.2328    16.631    2.6809    0.0535   345.025   200.000     9.033
 2367.3852    14.417    2.6796    0.0431   204.226   200.000     7.678
 2367.5376    11.363    2.6587    0.0550   284.168   200.000     7.871
 2367.6900    10.022    2.6435    0.0626   252.807   200.000     8.141
 2367.8424    11.293    2.6667    0.0557    83.952   200.000     8.305
 2367.9948    10.819    2.6345    0.0606   183.955   200.000     8.768
 2368.1472     6.818    2.6150    0.0764   125.017   200.000     9.275
