~VERSION INFORMATION
 VERS.                 2.0    : CWLS LOG ASCII STANDARD
 WRAP.                 NO     : ONE LINE PER DEPTH STEP
~WELL INFORMATION
 WELL.                 Bonaparte-2    : Well name
 FLD .                 Bonaparte Basin         : Field
 CTRY.                 Australia       : Country
 STRT.M                1800.0000 : START DEPTH
 STOP.M                3200.0000   : STOP DEPTH
 STEP.M                0.1524        : STEP
 NULL.                 -999.25          : NULL VALUE
 SRVC.                 SubsurfAI        : Service company
~CURVE INFORMATION
 DEPT.M                              : Depth
 GR  .GAPI                           : Gamma Ray
 RHOB.G/C3                           : Bulk Density
 NPHI.V/V                            : Neutron Porosity
 RT  .OHMM                           : True Resistivity
 DT  .US/F                           : Sonic
 CALI.IN                             : Caliper
~PARAMETER INFORMATION
 LAT .                 -12.5432   : Latitude
 LON .                 128.6781   : Longitude
 DESC.                 Bonaparte Basin — Triassic Plover Fm gas condensate
~A  DEPT        GR        RHOB      NPHI      RT        DT        CALI
# ...
 2540.5116    17.661    2.6640    0.0671   318.397   200.000     8.002
 2540.6640    11.400    2.6385    0.0793   309.862   200.000     8.651
 2540.8164    11.918    2.5953    0.0546   139.395   200.000     8.572
 2540.9688    15.828    2.7526    0.0692   143.956   200.000     8.482
 2541.1212    14.460    2.6743    0.0548   184.248   200.000     8.747
 2541.2736    17.271    2.7220    0.0568   299.506   200.000     8.599
 2541.4260    13.076    2.6867    0.0796   119.546   200.000     8.573
 2541.5784    14.611    2.7516    0.0623   113.253   200.000     8.561
 2541.7308     8.553    2.5999    0.0599   271.034   200.000     9.031
 2541.8832    13.914    2.7062    0.0653   410.211   200.000     9.125
 2542.0356    17.956    2.6030    0.0602   219.615   200.000     8.708
 2542.1880    17.119    2.7561    0.0450   260.639   200.000     8.356
 2542.3404    16.491    2.7020    0.0448   143.173   200.000     8.116
 2542.4928    10.341    2.6591    0.0618   119.271   200.000     8.078
 2542.6452    10.648    2.6933    0.0663   201.217   200.000     8.460
 2542.7976    13.296    2.7062    0.0710   151.083   200.000     8.621
 2542.9500    16.971    2.6422    0.0587   127.242   200.000     8.523
 2543.1024    11.218    2.6001    0.0653   277.752   200.000     8.625
 2543.2548     9.154    2.5991    0.0598   263.545   200.000     8.172
 2543.4072    16.776    2.6713    0.0771   206.553   200.000     8.759
 2543.5596    13.134    2.6527    0.0464   131.116   200.000     8.454
 2543.7120    18.853    2.7081    0.0682   145.298   200.000     8.254
 2543.8644     6.836    2.6801    0.0721   124.531   200.000     8.771
 2544.0168    14.093    2.6962    0.0611   113.060   200.000     8.460
 2544.1692    14.441    2.5986    0.0582   199.465   200.000     9.296
 2544.3216    16.094    2.6058    0.0442   210.729   200.000     8.549
 2544.4740    21.952    2.6530    0.0633   109.138   200.000     8.479
 2544.6264    15.666    2.6298    0.0517   470.135   200.000     8.294
 2544.7788     8.458    2.6961    0.0675   141.679   200.000     8.268
 2544.9312     9.862    2.7031    0.0570    60.957   200.000     7.815
 2545.0836    13.355    2.7006    0.0675   179.137   200.000     8.380
 2545.2360    14.217    2.5921    0.0716   144.935   200.000     8.467
 2545.3884    10.561    2.6533    0.0662   100.675   200.000     7.870
 2545.5408     2.255    2.7111    0.0427   300.868   200.000     8.064
 2545.6932     8.439    2.6108    0.0725    48.330   200.000     8.727
 2545.8456    12.075    2.6975    0.0472   168.722   200.000     8.906
 2545.9980    16.906    2.6730    0.0474   276.135   200.000     8.514
 2546.1504    16.528    2.6531    0.0618   197.642   200.000     8.465
 2546.3028    10.431    2.5627    0.0648   118.153   200.000     8.717
 2546.4552    21.719    2.7195    0.0738   324.634   200.000     8.885
 2546.6076    11.789    2.6199    0.0631   193.725   200.000     8.272
 2546.7600    11.327    2.6497    0.0534   102.704   200.000     9.072
 2546.9124     9.451    2.6601    0.0706   181.907   200.000     8.889
 2547.0648     8.480    2.6292    0.0626   265.582   200.000     8.116
 2547.2172    18.419    2.6055    0.0461    93.972   200.000     9.329
 2547.3696    15.731    2.6766    0.0658   190.378   200.000     8.086
 2547.5220    12.227    2.6442    0.0590   107.462   200.000     9.335
 2547.6744    15.761    2.6684    0.0656   115.193   200.000     8.894
 2547.8268    13.883    2.6720    0.0594   257.029   200.000     9.488
 2547.9792    17.956    2.6495    0.0615    74.316   200.000     9.040
 2548.1316    10.206    2.6719    0.0471    91.170   200.000     8.786
 2548.2840    14.830    2.7315    0.0677   142.635   200.000     8.838
 2548.4364    10.435    2.6807    0.0694   175.586   200.000     8.766
 2548.5888    15.913    2.6436    0.0545   220.912   200.000     8.885
 2548.7412    14.733    2.6118    0.0619   132.577   200.000     9.001
 2548.8936    10.846    2.6795    0.0629   266.562   200.000     7.925
 2549.0460     5.668    2.6894    0.0634   100.991   200.000     8.341
 2549.1984    13.105    2.7590    0.0483   296.956   200.000     8.775
 2549.3508    12.683    2.6240    0.0493   145.510   200.000     8.848
 2549.5032     6.157    2.7015    0.0652    74.794   200.000     8.436
 2549.6556    16.859    2.6573    0.0742   156.426   200.000     8.100
 2549.8080    15.980    2.7057    0.0605   183.705   200.000     8.003
 2549.9604    16.455    2.6672    0.0700   152.642   200.000     8.973
 2550.1128    21.303    2.6657    0.0645   168.598   200.000     8.197
 2550.2652    21.171    2.6634    0.0492   204.202   200.000     8.346
 2550.4176    20.744    2.6872    0.0542   121.837   200.000     8.686
 2550.5700    10.977    2.6313    0.0709   264.509   200.000     8.218
 2550.7224    19.203    2.7090    0.0698   232.096   200.000     8.741
 2550.8748    13.903    2.7148    0.0583   347.861   200.000     8.556
 2551.0272     8.941    2.6659    0.0622   163.656   200.000     8.819
 2551.1796    12.052    2.6249    0.0514   234.604   200.000     8.338
 2551.3320    14.199    2.6563    0.0443   252.381   200.000     8.465
 2551.4844    13.362    2.5642    0.0554   196.382   200.000     8.790
 2551.6368    17.015    2.6635    0.0594    61.979   200.000     8.553
 2551.7892    18.435    2.5389    0.0494   128.794   200.000     9.177
 2551.9416    15.491    2.6444    0.0872   130.596   200.000     8.688
 2552.0940    11.102    2.6305    0.0729   198.599   200.000     8.081
 2552.2464    12.445    2.6118    0.0714   183.400   200.000     8.338
 2552.3988    10.096    2.7172    0.0634   115.101   200.000     8.251
 2552.5512    13.349    2.7454    0.0650   136.039   200.000     8.374
 2552.7036    10.153    2.6629    0.0554  2105.412   200.000     8.655
 2552.8560    12.303    2.7248    0.0720   191.786   200.000     8.608
 2553.0084    10.742    2.6716    0.0477   472.554   200.000     8.619
 2553.1608    19.028    2.7095    0.0607   135.588   200.000     9.147
 2553.3132    10.283    2.6373    0.0555   236.751   200.000     8.014
 2553.4656    21.957    2.6450    0.0558   190.567   200.000     7.899
 2553.6180    15.229    2.7558    0.0685   196.970   200.000     7.982
 2553.7704    12.896    2.7328    0.0511   156.539   200.000     8.635
 2553.9228    10.925    2.6351    0.0696    82.616   200.000     8.853
 2554.0752    10.635    2.6854    0.0527   370.635   200.000     8.345
 2554.2276     5.991    2.6614    0.0791   285.216   200.000     8.685
 2554.3800    10.338    2.6769    0.0412   123.868   200.000     8.624
 2554.5324     8.244    2.7704    0.0639   119.098   200.000     8.922
 2554.6848    14.273    2.6634    0.0494    71.123   200.000     9.220
 2554.8372    11.401    2.7441    0.0750   320.129   200.000     8.267
 2554.9896    10.604    2.6326    0.0608   246.127   200.000     8.384
 2555.1420    15.930    2.8138    0.0585   208.950   200.000     8.609
 2555.2944    16.002    2.6978    0.0509   401.989   200.000     8.743
 2555.4468    15.908    2.6514    0.0590   141.709   200.000     8.710
 2555.5992    14.399    2.5660    0.0647    87.764   200.000     8.357
 2555.7516    15.246    2.5933    0.0510   440.348   200.000     8.069
 2555.9040    16.477    2.7258    0.0498    78.726   200.000     9.405
 2556.0564    13.183    2.5667    0.0557   195.239   200.000     8.298
 2556.2088    16.970    2.5493    0.0723   345.154   200.000     8.925
 2556.3612     9.020    2.5755    0.0703   117.607   200.000     9.371
 2556.5136    13.441    2.6294    0.0718   111.914   200.000     8.937
 2556.6660    14.070    2.6805    0.0740   235.213   200.000     8.248
 2556.8184     8.868    2.6630    0.0655   192.976   200.000     8.807
 2556.9708    11.987    2.6799    0.0519   346.990   200.000     8.035
 2557.1232    19.825    2.6669    0.0423   175.470   200.000     8.875
 2557.2756    16.351    2.7076    0.0440   227.954   200.000     8.747
 2557.4280    13.905    2.6085    0.0589   236.584   200.000     9.144
 2557.5804    13.891    2.7314    0.0451    29.693   200.000     7.843
