~VERSION INFORMATION
 VERS.                 2.0    : CWLS LOG ASCII STANDARD
 WRAP.                 NO     : ONE LINE PER DEPTH STEP
~WELL INFORMATION
 WELL.                 Bonaparte-2    : Well name
 FLD .                 Bonaparte Basin         : Field
 CTRY.                 Australia       : Country
 STRT.M                1800.0000 : START DEPTH
 STOP.M                3200.0000   : STOP DEPTH
 STEP.M                0.1524        : STEP
 NULL.                 -999.25          : NULL VALUE
 SRVC.                 SubsurfAI        : Service company
~CURVE INFORMATION
 DEPT.M                              : Depth
 GR  .GAPI                           : Gamma Ray
 RHOB.G/C3                           : Bulk Density
 NPHI.V/V                            : Neutron Porosity
 RT  .OHMM                           : True Resistivity
 DT  .US/F                           : Sonic
 CALI.IN                             : Caliper
~PARAMETER INFORMATION
 LAT .                 -12.5432   : Latitude
 LON .                 128.6781   : Longitude
 DESC.                 Bonaparte Basin — Triassic Plover Fm gas condensate
~A  DEPT        GR        RHOB      NPHI      RT        DT        CALI
# ...
 2626.6176    12.267    2.6561    0.0594   217.865   200.000     8.292
 2626.7700    15.773    2.6662    0.0521    64.764   200.000     8.704
 2626.9224    17.119    2.6983    0.0479   228.069   200.000     8.752
 2627.0748    11.901    2.6777    0.0642    85.448   200.000     8.217
 2627.2272    19.243    2.7133    0.0585   265.787   200.000     8.800
 2627.3796    19.559    2.6498    0.0724   581.485   200.000     9.137
 2627.5320    18.499    2.6857    0.0544   152.936   200.000     8.013
 2627.6844    10.405    2.6454    0.0464   129.575   200.000     8.544
 2627.8368    13.920    2.6402    0.0590   607.255   200.000     8.868
 2627.9892    14.132    2.7277    0.0557   138.743   200.000     9.270
 2628.1416    11.381    2.7247    0.0530   176.097   200.000     8.507
 2628.2940    15.709    2.6683    0.0710   199.984   200.000     7.824
 2628.4464    12.542    2.5947    0.0513    80.265   200.000     9.305
 2628.5988    14.122    2.6242    0.0557   152.325   200.000     8.958
 2628.7512    14.187    2.6687    0.0623   205.388   200.000     7.818
 2628.9036    12.365    2.7053    0.0444   155.692   200.000     8.731
 2629.0560    10.922    2.6933    0.0555   162.019   200.000     8.091
 2629.2084    18.225    2.7101    0.0594   207.692   200.000     8.633
 2629.3608    17.494    2.6241    0.0753   204.891   200.000     8.726
 2629.5132    11.975    2.6592    0.0619   165.259   200.000     8.635
 2629.6656    13.970    2.7790    0.0587   421.795   200.000     9.173
 2629.8180    12.633    2.7812    0.0696   176.839   200.000     8.847
 2629.9704    14.783    2.5918    0.0509    42.124   200.000     8.215
 2630.1228    11.110    2.6941    0.0697    82.940   200.000     8.652
 2630.2752    12.560    2.6439    0.0517   239.032   200.000     8.967
 2630.4276    15.124    2.6977    0.0729   192.621   200.000     9.431
 2630.5800     8.968    2.7431    0.0411   289.669   200.000     8.096
 2630.7324    16.343    2.6905    0.0498   176.310   200.000     8.897
 2630.8848    10.364    2.5947    0.0485   324.919   200.000     8.268
 2631.0372    17.744    2.7012    0.0754   242.983   200.000     7.918
 2631.1896    10.995    2.6871    0.0568   245.000   200.000     8.590
 2631.3420    10.600    2.5485    0.0682   143.794   200.000     8.160
 2631.4944    15.275    2.7060    0.0665   113.595   200.000     8.619
 2631.6468    11.712    2.7423    0.0356   135.631   200.000     8.724
 2631.7992    20.992    2.6667    0.0451   397.997   200.000     8.109
 2631.9516    19.173    2.6342    0.0734   149.114   200.000     7.819
 2632.1040    16.584    2.7284    0.0626   131.937   200.000     8.864
 2632.2564    12.487    2.7131    0.0492   166.515   200.000     8.518
 2632.4088    13.922    2.7023    0.0430   332.129   200.000     8.244
 2632.5612    19.236    2.6768    0.0488    94.451   200.000     8.303
 2632.7136    10.838    2.6618    0.0509   331.692   200.000     8.588
 2632.8660    15.241    2.6587    0.0701   122.842   200.000     8.036
 2633.0184    16.990    2.6710    0.0736   216.911   200.000     8.883
 2633.1708     4.818    2.6135    0.0669   267.507   200.000     8.922
 2633.3232    10.794    2.5899    0.0551   163.856   200.000     8.449
 2633.4756    13.103    2.6356    0.0410   286.715   200.000     8.339
 2633.6280    13.431    2.6960    0.0601   144.284   200.000     8.673
 2633.7804    12.638    2.5062    0.0481   194.021   200.000     8.505
 2633.9328    10.888    2.6855    0.0592   177.505   200.000     8.075
 2634.0852    17.492    2.7182    0.0601   193.360   200.000     8.387
 2634.2376    16.323    2.7481    0.0577   186.157   200.000     8.882
 2634.3900    13.896    2.7190    0.0546   241.020   200.000     8.646
 2634.5424    12.180    2.6296    0.0701   220.400   200.000     8.444
 2634.6948    15.563    2.5776    0.0546   114.547   200.000     8.271
 2634.8472    18.324    2.7191    0.0690   117.991   200.000     8.454
 2634.9996     9.290    2.5714    0.0573   100.097   200.000     9.046
 2635.1520    11.152    2.6929    0.0670   278.002   200.000     8.036
 2635.3044    12.809    2.6675    0.0575   283.262   200.000     8.328
 2635.4568    11.743    2.6004    0.0573   277.874   200.000     8.584
 2635.6092    16.843    2.7254    0.0643   254.060   200.000     7.899
 2635.7616    15.735    2.6540    0.0511   106.892   200.000     8.412
 2635.9140    14.631    2.6989    0.0620   214.687   200.000     8.195
 2636.0664    18.036    2.6502    0.0726   144.800   200.000     8.570
 2636.2188    13.198    2.6520    0.0609   261.654   200.000     9.047
 2636.3712    14.418    2.6869    0.0664   112.621   200.000     8.923
 2636.5236    15.808    2.7896    0.0451   122.731   200.000     8.773
 2636.6760    12.814    2.7387    0.0577   155.161   200.000     9.133
 2636.8284    13.992    2.7161    0.0532   239.049   200.000     8.216
 2636.9808    20.069    2.6114    0.0623   195.504   200.000     8.474
 2637.1332    22.232    2.6316    0.0581   228.681   200.000     7.623
 2637.2856    14.440    2.6478    0.0569   138.156   200.000     8.755
 2637.4380    18.636    2.7734    0.0471   103.903   200.000     9.121
 2637.5904    13.234    2.6805    0.0533   107.475   200.000     8.746
 2637.7428    20.378    2.5936    0.0573   107.381   200.000     8.564
 2637.8952    11.724    2.7175    0.0465   280.756   200.000     8.832
 2638.0476    10.606    2.6652    0.0726   622.055   200.000     8.619
 2638.2000    13.075    2.6113    0.0637   206.969   200.000     8.411
 2638.3524    17.874    2.7287    0.0638   214.335   200.000     8.770
 2638.5048    17.205    2.7004    0.0703   209.431   200.000     7.784
 2638.6572    14.121    2.6788    0.0559    95.064   200.000     8.538
 2638.8096     9.757    2.6086    0.0486   163.942   200.000     8.995
 2638.9620    20.077    2.6139    0.0576   257.405   200.000     8.571
 2639.1144     7.526    2.6577    0.0620   319.813   200.000     8.334
 2639.2668    13.760    2.5546    0.0598   243.083   200.000     8.644
 2639.4192    13.116    2.6376    0.0615   254.019   200.000     8.700
 2639.5716    14.373    2.6538    0.0591   124.643   200.000     8.017
 2639.7240    11.704    2.6672    0.0514    81.639   200.000     8.454
 2639.8764     8.921    2.7882    0.0381   306.775   200.000     8.412
 2640.0288     6.153    2.6571    0.0391   291.249   200.000     8.582
 2640.1812    11.063    2.7785    0.0435   243.335   200.000     8.607
 2640.3336     4.650    2.7697    0.0308   312.240   200.000     8.284
 2640.4860     7.895    2.6954    0.0359   329.374   200.000     8.138
 2640.6384     3.465    2.7999    0.0341   219.686   200.000     8.819
 2640.7908     9.437    2.7252    0.0484   264.967   200.000     8.389
 2640.9432    14.205    2.7875    0.0374   208.508   200.000     7.694
 2641.0956    15.094    2.7175    0.0301   420.183   200.000     8.646
 2641.2480     6.237    2.7099    0.0335   586.479   200.000     8.547
 2641.4004     9.083    2.7401    0.0452   254.333   200.000     8.408
 2641.5528     8.623    2.8266    0.0322   247.087   200.000     8.391
 2641.7052     7.805    2.7493    0.0291   370.864   200.000     8.976
 2641.8576     7.702    2.6619    0.0428   588.087   200.000     8.869
 2642.0100    11.630    2.7827    0.0413   347.951   200.000     8.778
 2642.1624    17.676    2.7279    0.0299   606.762   200.000     8.150
 2642.3148     6.356    2.7148    0.0406   820.888   200.000     8.709
 2642.4672     6.861    2.8314    0.0413   174.338   200.000     8.441
 2642.6196    10.667    2.7900    0.0368   215.980   200.000     8.836
 2642.7720     6.421    2.6645    0.0414   360.581   200.000     8.570
 2642.9244    10.727    2.7181    0.0375   213.714   200.000     8.630
 2643.0768    10.390    2.7776    0.0354   195.565   200.000     8.890
 2643.2292    11.887    2.7448    0.0426   240.303   200.000     8.400
 2643.3816    12.254    2.7613    0.0331   328.247   200.000     7.986
 2643.5340    12.038    2.8072    0.0436   129.059   200.000     8.694
 2643.6864     7.108    2.6818    0.0425   206.005   200.000     8.826
