~VERSION INFORMATION
 VERS.                 2.0    : CWLS LOG ASCII STANDARD
 WRAP.                 NO     : ONE LINE PER DEPTH STEP
~WELL INFORMATION
 WELL.                 Bonaparte-2    : Well name
 FLD .                 Bonaparte Basin         : Field
 CTRY.                 Australia       : Country
 STRT.M                1800.0000 : START DEPTH
 STOP.M                3200.0000   : STOP DEPTH
 STEP.M                0.1524        : STEP
 NULL.                 -999.25          : NULL VALUE
 SRVC.                 SubsurfAI        : Service company
~CURVE INFORMATION
 DEPT.M                              : Depth
 GR  .GAPI                           : Gamma Ray
 RHOB.G/C3                           : Bulk Density
 NPHI.V/V                            : Neutron Porosity
 RT  .OHMM                           : True Resistivity
 DT  .US/F                           : Sonic
 CALI.IN                             : Caliper
~PARAMETER INFORMATION
 LAT .                 -12.5432   : Latitude
 LON .                 128.6781   : Longitude
 DESC.                 Bonaparte Basin — Triassic Plover Fm gas condensate
~A  DEPT        GR        RHOB      NPHI      RT        DT        CALI
# ...
 3177.6960   114.779    2.4081    0.2790     1.347   196.245     8.224
 3177.8484    94.929    2.3732    0.3085     2.677   191.249     8.464
 3178.0008    91.430    2.4816    0.3254     1.047   171.699     8.065
 3178.1532   125.540    2.5412    0.2673     1.892   200.000     8.235
 3178.3056    84.870    2.4805    0.2959     2.522   191.416     7.953
 3178.4580    91.711    2.5329    0.2508     0.770   200.000     8.468
 3178.6104    97.665    2.4065    0.2500     1.164   200.000     8.833
 3178.7628   100.171    2.4136    0.3440     0.986   161.681     8.747
 3178.9152    95.256    2.4715    0.3182     3.627   171.531     8.911
 3179.0676    99.390    2.4535    0.2455     4.152   200.000     8.450
 3179.2200    93.378    2.4665    0.3050     3.707   181.001     8.459
 3179.3724   104.069    2.5113    0.2765     1.756   197.518     8.278
 3179.5248    83.794    2.4656    0.2677     1.985   200.000     8.617
 3179.6772    91.079    2.4822    0.2597     5.830   200.000     8.604
 3179.8296    82.400    2.4911    0.3314     3.148   164.065     8.427
 3179.9820    91.417    2.4169    0.3519     1.595   150.550     7.840
 3180.1344    98.066    2.5677    0.2060     2.615   200.000     9.076
 3180.2868   100.079    2.4497    0.3039     3.149   177.074     8.969
 3180.4392   117.613    2.4475    0.3204     1.892   172.333     8.131
 3180.5916    85.196    2.4166    0.2290     0.910   200.000     8.245
 3180.7440   110.824    2.4489    0.2943     2.188   178.248     8.857
 3180.8964    87.120    2.4154    0.2673     3.270   200.000     8.855
 3181.0488    83.217    2.4887    0.2243     0.662   200.000     8.814
 3181.2012    81.576    2.4868    0.2768     1.823   199.430     8.280
 3181.3536    95.871    2.4756    0.1996     5.445   200.000     8.650
 3181.5060    78.710    2.4637    0.2687     4.977   200.000     8.916
 3181.6584    79.359    2.4784    0.3315     3.102   169.385     8.602
 3181.8108    92.180    2.4500    0.3166     1.518   173.346     8.676
 3181.9632    97.250    2.5048    0.3239     1.411   165.778     8.440
 3182.1156    98.786    2.5654    0.2913     2.953   188.859     8.477
 3182.2680    81.892    2.4533    0.3450     3.932   157.987     8.999
 3182.4204   101.713    2.5607    0.2774     3.556   200.000     8.870
 3182.5728    88.250    2.4592    0.2341     2.238   200.000     8.475
 3182.7252   111.964    2.5520    0.3293     0.658   166.463     8.406
 3182.8776    91.915    2.4594    0.2820     0.935   192.309     7.455
 3183.0300    85.660    2.4279    0.3217     3.351   168.889     8.132
 3183.1824    84.114    2.4863    0.2149     2.929   200.000     7.535
 3183.3348   106.408    2.5163    0.2787     2.181   200.000     8.784
 3183.4872    97.618    2.4498    0.2056     0.733   200.000     8.577
 3183.6396   107.563    2.4856    0.2566     2.042   200.000     7.837
 3183.7920    99.208    2.5176    0.3874     2.327   140.052     8.598
 3183.9444   107.229    2.4485    0.3130     2.009   170.975     8.304
 3184.0968   107.856    2.4995    0.2147     5.279   200.000     9.056
 3184.2492    82.701    2.4614    0.2797     2.325   194.107     8.722
 3184.4016    93.521    2.4420    0.2330     2.341   200.000     8.538
 3184.5540    72.693    2.5096    0.3040     1.792   182.182     8.615
 3184.7064    80.231    2.3986    0.2430     1.375   200.000     8.563
 3184.8588    99.775    2.4392    0.3329     2.591   163.451     8.672
 3185.0112    85.504    2.3760    0.2692     3.737   200.000     9.118
 3185.1636    82.199    2.4058    0.3206     0.961   180.529     8.986
 3185.3160   114.258    2.4162    0.2834     2.595   189.648     8.979
 3185.4684    71.389    2.4481    0.3144     2.401   170.053     8.852
 3185.6208   108.015    2.4149    0.3368     6.248   164.078     8.155
 3185.7732    88.364    2.4202    0.2947     2.810   190.506     8.749
 3185.9256    62.623    2.4359    0.2746     1.985   200.000     8.211
 3186.0780    90.846    2.4678    0.3563     1.629   160.673     9.027
 3186.2304    88.665    2.4968    0.2245     2.355   200.000     8.732
 3186.3828    81.746    2.4476    0.3257     2.708   163.183     8.702
 3186.5352    73.465    2.4903    0.3073     2.082   182.232     8.317
 3186.6876    94.158    2.4642    0.3288     1.686   160.369     7.922
 3186.8400    81.515    2.4222    0.3094     1.359   186.517     8.925
 3186.9924    80.493    2.5140    0.2629     2.567   200.000     8.196
 3187.1448   104.681    2.3567    0.3700     1.555   158.145     8.513
 3187.2972   106.039    2.4800    0.3226     2.021   162.472     8.329
 3187.4496    80.913    2.3731    0.2281     2.979   200.000     9.535
 3187.6020    93.004    2.4861    0.3451     3.365   156.277     8.510
 3187.7544    85.065    2.4278    0.3573     0.776   156.993     8.377
 3187.9068    85.458    2.5052    0.2948     1.139   180.282     8.862
 3188.0592   109.213    2.4976    0.2764     1.986   200.000     8.412
 3188.2116    97.003    2.4000    0.3299     1.255   158.143     8.439
 3188.3640    88.383    2.4585    0.2939     2.179   194.404     8.323
 3188.5164    83.553    2.4465    0.2467     4.134   200.000     8.669
 3188.6688    89.079    2.4387    0.2796     1.109   192.348     8.792
 3188.8212   104.693    2.4592    0.2517     1.543   200.000     8.721
 3188.9736    95.211    2.3837    0.3232     1.877   166.154     8.560
 3189.1260    89.137    2.4593    0.1971     3.021   200.000     8.195
 3189.2784    89.813    2.4398    0.2561     1.572   200.000     9.002
 3189.4308    91.113    2.4873    0.2153     1.319   200.000     8.537
 3189.5832    95.257    2.4662    0.2560     3.200   200.000     7.797
 3189.7356   106.372    2.4926    0.2665     2.405   200.000     9.065
 3189.8880   105.903    2.4208    0.3328     2.544   156.637     8.818
 3190.0404    92.147    2.4318    0.2925     2.735   186.110     7.847
 3190.1928    87.018    2.4305    0.2740     2.063   200.000     8.664
 3190.3452    92.706    2.4703    0.3219     3.198   162.139     8.938
 3190.4976   116.480    2.4847    0.2283     1.327   200.000     8.579
 3190.6500    99.374    2.3727    0.2817     2.977   200.000     8.943
 3190.8024    93.907    2.4188    0.2644     1.175   200.000     8.589
 3190.9548    88.514    2.5054    0.2963     1.543   190.920     8.433
 3191.1072   111.515    2.4599    0.2320     1.585   200.000     8.627
 3191.2596    90.249    2.4362    0.3017     3.904   176.094     9.056
 3191.4120    95.652    2.3801    0.2843     1.313   194.122     8.184
 3191.5644   100.412    2.3985    0.3066     3.336   189.630     8.503
 3191.7168    86.621    2.4894    0.3295     3.042   161.012     8.418
 3191.8692    69.991    2.4845    0.2471     1.713   200.000     7.992
 3192.0216   100.035    2.4219    0.2478     1.531   200.000     8.783
 3192.1740    88.692    2.4094    0.2618     1.507   200.000     9.321
 3192.3264    76.616    2.3483    0.2836     2.449   200.000     8.455
 3192.4788    95.702    2.4773    0.2893     1.093   198.906     8.458
 3192.6312    89.080    2.4933    0.2971     1.643   186.674     8.655
 3192.7836    64.617    2.4499    0.2303     1.942   200.000     8.156
 3192.9360   107.842    2.4450    0.2394     1.153   200.000     8.563
 3193.0884    84.190    2.3857    0.2449     5.675   200.000     8.482
 3193.2408    90.749    2.5001    0.3073     1.822   190.966     8.662
 3193.3932    72.332    2.4921    0.2807     1.815   192.834     7.734
 3193.5456    99.514    2.3764    0.3023     3.620   185.197     8.300
 3193.6980    88.209    2.4422    0.3204     2.704   174.505     8.841
 3193.8504   110.501    2.4462    0.2566     2.973   200.000     7.840
 3194.0028    89.955    2.4508    0.2930     1.908   182.727     8.552
 3194.1552    82.157    2.4520    0.2562     1.162   200.000     7.991
 3194.3076   109.053    2.4204    0.2831     1.361   196.149     9.265
 3194.4600   101.126    2.4344    0.3087     1.115   182.626     8.524
 3194.6124    83.832    2.4955    0.2910     2.550   182.061     8.996
 3194.7648   107.773    2.3328    0.3239     1.566   175.464     8.588
