~VERSION INFORMATION
 VERS.                 2.0    : CWLS LOG ASCII STANDARD
 WRAP.                 NO     : ONE LINE PER DEPTH STEP
~WELL INFORMATION
 WELL.                 Bonaparte-2    : Well name
 FLD .                 Bonaparte Basin         : Field
 CTRY.                 Australia       : Country
 STRT.M                1800.0000 : START DEPTH
 STOP.M                3200.0000   : STOP DEPTH
 STEP.M                0.1524        : STEP
 NULL.                 -999.25          : NULL VALUE
 SRVC.                 SubsurfAI        : Service company
~CURVE INFORMATION
 DEPT.M                              : Depth
 GR  .GAPI                           : Gamma Ray
 RHOB.G/C3                           : Bulk Density
 NPHI.V/V                            : Neutron Porosity
 RT  .OHMM                           : True Resistivity
 DT  .US/F                           : Sonic
 CALI.IN                             : Caliper
~PARAMETER INFORMATION
 LAT .                 -12.5432   : Latitude
 LON .                 128.6781   : Longitude
 DESC.                 Bonaparte Basin — Triassic Plover Fm gas condensate
~A  DEPT        GR        RHOB      NPHI      RT        DT        CALI
# ...
 2712.7236    12.261    2.7583    0.0365   327.767   200.000     8.544
 2712.8760     7.898    2.7035    0.0438   361.488   200.000     8.676
 2713.0284     3.638    2.6902    0.0496   497.674   200.000     8.163
 2713.1808    12.147    2.7184    0.0490   380.989   200.000     7.774
 2713.3332    12.213    2.6804    0.0324   348.339   200.000     8.525
 2713.4856     4.954    2.7116    0.0390   172.300   200.000     9.317
 2713.6380    10.376    2.6921    0.0419   411.083   200.000     7.598
 2713.7904     9.819    2.7278    0.0431   263.440   200.000     8.219
 2713.9428    13.085    2.7964    0.0474  1067.779   200.000     8.384
 2714.0952     9.599    2.7652    0.0371   358.056   200.000     8.414
 2714.2476    15.186    2.6189    0.0347   244.306   200.000     8.321
 2714.4000    14.323    2.6003    0.0395    99.107   200.000     8.429
 2714.5524    13.764    2.7663    0.0362   215.208   200.000     8.055
 2714.7048    14.684    2.7393    0.0343   303.312   200.000     8.845
 2714.8572    11.985    2.6943    0.0426   206.499   200.000     8.520
 2715.0096    14.338    2.6667    0.0369   215.437   200.000     9.176
 2715.1620     9.598    2.7191    0.0351   497.786   200.000     8.219
 2715.3144     8.514    2.7774    0.0342   234.416   200.000     8.505
 2715.4668    10.246    2.8201    0.0372   445.004   200.000     8.842
 2715.6192     9.545    2.8503    0.0355   379.692   200.000     8.694
 2715.7716    15.447    2.8618    0.0254   215.080   200.000     8.462
 2715.9240     9.693    2.7090    0.0452   345.487   200.000     8.798
 2716.0764     9.321    2.7498    0.0434   321.285   200.000     7.680
 2716.2288    10.023    2.7175    0.0350   858.898   200.000     7.993
 2716.3812     4.958    2.7046    0.0481   172.771   200.000     8.200
 2716.5336    11.022    2.7913    0.0411   207.463   200.000     8.075
 2716.6860     8.523    2.8319    0.0402   316.143   200.000     8.076
 2716.8384    12.318    2.7155    0.0412   194.251   200.000     8.595
 2716.9908     6.734    2.7227    0.0386   508.653   200.000     8.242
 2717.1432    13.537    2.6989    0.0310   235.421   200.000     7.784
 2717.2956    13.608    2.6464    0.0337   207.900   200.000     9.160
 2717.4480     4.665    2.7498    0.0375   338.417   200.000     8.970
 2717.6004    14.210    2.7148    0.0311   157.790   200.000     8.362
 2717.7528    10.071    2.7389    0.0427   156.733   200.000     7.927
 2717.9052     7.082    2.6722    0.0437   622.639   200.000     9.290
 2718.0576    12.762    2.7183    0.0526   724.698   200.000     8.371
 2718.2100    10.582    2.7334    0.0440   427.120   200.000     8.642
 2718.3624     7.948    2.6564    0.0426   115.851   200.000     7.937
 2718.5148    10.869    2.6402    0.0401   149.089   200.000     8.190
 2718.6672    10.911    2.6588    0.0514   256.133   200.000     9.168
 2718.8196    15.801    2.6604    0.0469   425.941   200.000     8.648
 2718.9720     9.549    2.7820    0.0393   334.844   200.000     9.355
 2719.1244     4.517    2.7841    0.0299   197.158   200.000     8.398
 2719.2768     8.408    2.7033    0.0385   200.854   200.000     7.939
 2719.4292    10.907    2.6379    0.0355   192.330   200.000     8.249
 2719.5816     5.455    2.7364    0.0375   681.970   200.000     8.228
 2719.7340     9.330    2.6131    0.0434   787.503   200.000     7.982
 2719.8864     9.828    2.6901    0.0522   357.643   200.000     8.325
 2720.0388    11.008    2.7503    0.0269   344.420   200.000     8.082
 2720.1912     7.258    2.7123    0.0472   573.185   200.000     7.626
 2720.3436     8.675    2.6255    0.0370   293.498   200.000     8.590
 2720.4960    10.054    2.6250    0.0460   334.429   200.000     8.443
 2720.6484     5.679    2.7677    0.0347   333.665   200.000     9.068
 2720.8008     8.230    2.6373    0.0380   558.162   200.000     8.154
 2720.9532    12.105    2.6437    0.0347   244.175   200.000     8.063
 2721.1056    14.463    2.6517    0.0457   397.968   200.000     8.457
 2721.2580     8.970    2.7690    0.0421   380.433   200.000     8.382
 2721.4104    10.498    2.6246    0.0333   149.741   200.000     8.521
 2721.5628    11.584    2.7891    0.0381   127.607   200.000     8.124
 2721.7152     9.878    2.7049    0.0373   126.090   200.000     8.829
 2721.8676    13.824    2.6231    0.0381   238.885   200.000     8.878
 2722.0200    10.013    2.7697    0.0396   347.555   200.000     8.228
 2722.1724     9.231    2.7753    0.0464   255.834   200.000     8.416
 2722.3248    12.434    2.6705    0.0351   244.138   200.000     8.501
 2722.4772     6.352    2.6842    0.0324   555.075   200.000     8.891
 2722.6296    12.221    2.7638    0.0406   229.611   200.000     8.545
 2722.7820    11.288    2.7703    0.0476   161.958   200.000     7.778
 2722.9344    11.391    2.7576    0.0288   399.748   200.000     8.393
 2723.0868    11.051    2.7808    0.0445   195.973   200.000     8.665
 2723.2392     9.994    2.6533    0.0418   305.316   200.000     8.600
 2723.3916    11.658    2.7158    0.0457    80.026   200.000     8.577
 2723.5440     5.291    2.7629    0.0454   418.495   200.000     8.123
 2723.6964     7.436    2.6692    0.0432   486.848   200.000     8.537
 2723.8488     8.299    2.8423    0.0338   409.750   200.000     8.346
 2724.0012     9.604    2.7287    0.0498   563.952   200.000     8.421
 2724.1536    13.628    2.7030    0.0529   240.997   200.000     8.210
 2724.3060     8.125    2.8347    0.0299   241.110   200.000     8.730
 2724.4584    13.363    2.7244    0.0361   367.226   200.000     8.767
 2724.6108     6.325    2.5612    0.0316   508.963   200.000     8.637
 2724.7632     9.074    2.8422    0.0323   238.910   200.000     8.630
 2724.9156     9.020    2.7519    0.0539   549.876   200.000     9.122
 2725.0680    14.431    2.7440    0.0422   284.552   200.000     8.217
 2725.2204    13.175    2.6830    0.0305   350.911   200.000     8.095
 2725.3728     7.642    2.7358    0.0459   191.396   200.000     9.018
 2725.5252     6.171    2.7057    0.0372   302.524   200.000     9.165
 2725.6776    11.296    2.7129    0.0412   157.564   200.000     8.412
 2725.8300     5.802    2.6803    0.0413   309.020   200.000     8.454
 2725.9824    10.017    2.6629    0.0349   316.305   200.000     8.881
 2726.1348     7.542    2.7989    0.0351   222.206   200.000     8.589
 2726.2872    10.117    2.7450    0.0442   348.935   200.000     8.731
 2726.4396     7.428    2.7585    0.0366   358.685   200.000     8.581
 2726.5920    10.382    2.7639    0.0427   219.830   200.000     8.090
 2726.7444     8.635    2.6818    0.0354   557.686   200.000     8.737
 2726.8968    10.832    2.8001    0.0416   235.865   200.000     8.175
 2727.0492     7.162    2.7219    0.0352   823.652   200.000     8.314
 2727.2016    13.816    2.8196    0.0511   245.174   200.000     8.667
 2727.3540    12.500    2.7033    0.0457   539.737   200.000     8.894
 2727.5064     5.018    2.7504    0.0430   267.911   200.000     7.850
 2727.6588     7.074    2.7907    0.0408   231.370   200.000     8.530
 2727.8112     7.183    2.8010    0.0451   308.374   200.000     7.889
 2727.9636    10.193    2.6946    0.0436   261.414   200.000     8.325
 2728.1160    10.423    2.7759    0.0273   188.788   200.000     7.817
 2728.2684     8.767    2.7108    0.0517   204.696   200.000     8.768
 2728.4208     9.289    2.6908    0.0350   156.980   200.000     8.654
 2728.5732     7.003    2.8861    0.0288   376.514   200.000     8.006
 2728.7256    11.243    2.8012    0.0434   346.802   200.000     8.497
 2728.8780     7.743    2.7414    0.0375   230.146   200.000     8.063
 2729.0304    12.081    2.7345    0.0417   380.150   200.000     8.675
 2729.1828     7.297    2.7007    0.0478   410.135   200.000     8.371
 2729.3352    13.231    2.6989    0.0401   565.513   200.000     8.221
 2729.4876    10.693    2.7450    0.0387   405.673   200.000     8.510
 2729.6400     9.838    2.8066    0.0382   228.258   200.000     8.501
 2729.7924     4.456    2.8004    0.0445   728.380   200.000     8.563
