~VERSION INFORMATION
 VERS.                 2.0    : CWLS LOG ASCII STANDARD
 WRAP.                 NO     : ONE LINE PER DEPTH STEP
~WELL INFORMATION
 WELL.                 Bonaparte-2    : Well name
 FLD .                 Bonaparte Basin         : Field
 CTRY.                 Australia       : Country
 STRT.M                1800.0000 : START DEPTH
 STOP.M                3200.0000   : STOP DEPTH
 STEP.M                0.1524        : STEP
 NULL.                 -999.25          : NULL VALUE
 SRVC.                 SubsurfAI        : Service company
~CURVE INFORMATION
 DEPT.M                              : Depth
 GR  .GAPI                           : Gamma Ray
 RHOB.G/C3                           : Bulk Density
 NPHI.V/V                            : Neutron Porosity
 RT  .OHMM                           : True Resistivity
 DT  .US/F                           : Sonic
 CALI.IN                             : Caliper
~PARAMETER INFORMATION
 LAT .                 -12.5432   : Latitude
 LON .                 128.6781   : Longitude
 DESC.                 Bonaparte Basin — Triassic Plover Fm gas condensate
~A  DEPT        GR        RHOB      NPHI      RT        DT        CALI
# ...
 2816.0508     5.744    2.7465    0.0471   440.417   200.000     8.433
 2816.2032     8.763    2.6802    0.0270   299.961   200.000     8.464
 2816.3556    12.530    2.6649    0.0308   442.947   200.000     8.127
 2816.5080     7.089    2.7175    0.0483   324.097   200.000     8.819
 2816.6604     4.794    2.6833    0.0322   207.568   200.000     8.779
 2816.8128    13.538    2.7233    0.0529   284.176   200.000     8.151
 2816.9652    10.209    2.8060    0.0518   574.858   200.000     8.392
 2817.1176    12.410    2.6938    0.0285   517.852   200.000     8.864
 2817.2700    16.878    2.8357    0.0463   149.803   200.000     8.951
 2817.4224    14.619    2.6894    0.0447   221.487   200.000     9.281
 2817.5748    12.879    2.7313    0.0441   303.599   200.000     9.004
 2817.7272     6.618    2.8037    0.0496   251.082   200.000     8.282
 2817.8796     8.828    2.7507    0.0351   226.889   200.000     8.594
 2818.0320    13.763    2.6729    0.0333   493.364   200.000     9.004
 2818.1844     9.859    2.7843    0.0391   236.778   200.000     8.847
 2818.3368    14.696    2.7830    0.0443   214.663   200.000     8.775
 2818.4892     6.832    2.7680    0.0451   284.785   200.000     8.830
 2818.6416     7.495    2.7894    0.0438   558.251   200.000     7.881
 2818.7940     8.904    2.7471    0.0331   528.708   200.000     8.697
 2818.9464     9.259    2.6338    0.0459   150.391   200.000     9.064
 2819.0988     9.927    2.7759    0.0539   135.439   200.000     8.923
 2819.2512    13.394    2.6826    0.0443   324.564   200.000     8.981
 2819.4036     6.386    2.7640    0.0493   369.128   200.000     8.051
 2819.5560    12.641    2.6993    0.0422   169.956   200.000     8.141
 2819.7084     9.695    2.7329    0.0380   283.210   200.000     8.964
 2819.8608     6.209    2.7740    0.0456   294.062   200.000     8.287
 2820.0132    15.275    2.6340    0.0415   405.830   200.000     8.992
 2820.1656     9.013    2.7589    0.0374   347.389   200.000     8.733
 2820.3180    12.431    2.6781    0.0368   511.030   200.000     8.736
 2820.4704    10.512    2.6956    0.0361   378.847   200.000     8.766
 2820.6228     1.360    2.7618    0.0401   296.467   200.000     8.308
 2820.7752     9.821    2.6216    0.0357   332.501   200.000     8.318
 2820.9276     7.426    2.6731    0.0402   159.266   200.000     8.537
 2821.0800     9.866    2.7372    0.0426   567.239   200.000     8.725
 2821.2324     3.729    2.7633    0.0589   260.167   200.000     8.284
 2821.3848    11.256    2.8217    0.0390   273.890   200.000     8.754
 2821.5372     8.765    2.8444    0.0324   689.871   200.000     8.356
 2821.6896     8.745    2.7442    0.0472   283.165   200.000     8.343
 2821.8420     9.270    2.6909    0.0386   348.778   200.000     7.966
 2821.9944    10.398    2.7297    0.0346   149.801   200.000     8.904
 2822.1468    14.561    2.6327    0.0263   448.884   200.000     8.928
 2822.2992     6.785    2.7335    0.0409  1120.094   200.000     8.036
 2822.4516     7.990    2.6338    0.0320   230.097   200.000     8.757
 2822.6040     9.686    2.7583    0.0351   521.478   200.000     8.541
 2822.7564    16.053    2.6655    0.0507   265.280   200.000     8.271
 2822.9088    15.371    2.7510    0.0334   241.615   200.000     7.548
 2823.0612    13.128    2.7669    0.0448   208.159   200.000     7.991
 2823.2136    10.527    2.8146    0.0491   283.051   200.000     8.472
 2823.3660     9.814    2.7573    0.0398   373.647   200.000     8.287
 2823.5184    11.456    2.7539    0.0341   402.863   200.000     8.696
 2823.6708    10.695    2.7068    0.0354   368.037   200.000     9.040
 2823.8232     7.058    2.6524    0.0352   458.032   200.000     8.331
 2823.9756    20.953    2.7164    0.0405   154.323   200.000     9.522
 2824.1280    11.411    2.7083    0.0423   475.188   200.000     8.698
 2824.2804    15.201    2.7590    0.0392   316.825   200.000     8.769
 2824.4328     4.450    2.7029    0.0476    75.575   200.000     7.970
 2824.5852    11.411    2.6449    0.0402   402.279   200.000     8.574
 2824.7376    11.503    2.7234    0.0432   455.237   200.000     9.132
 2824.8900    11.249    2.7657    0.0348   465.493   200.000     8.038
 2825.0424     8.505    2.7289    0.0323   516.688   200.000     8.149
 2825.1948     9.009    2.7365    0.0255   603.227   200.000     8.918
 2825.3472     2.234    2.7183    0.0333   244.124   200.000     8.743
 2825.4996     5.322    2.7072    0.0455   197.997   200.000     8.792
 2825.6520    10.994    2.6890    0.0378   462.629   200.000     9.028
 2825.8044     7.053    2.8244    0.0423   304.175   200.000     8.819
 2825.9568    13.213    2.7847    0.0421   391.428   200.000     8.101
 2826.1092    12.075    2.7113    0.0382   136.618   200.000     8.697
 2826.2616     8.084    2.7366    0.0406   134.526   200.000     9.135
 2826.4140    13.718    2.6223    0.0365   485.207   200.000     8.062
 2826.5664     8.914    2.6869    0.0432   222.208   200.000     9.149
 2826.7188     8.685    2.7531    0.0435   395.212   200.000     8.642
 2826.8712     8.621    2.7310    0.0339   690.822   200.000     8.064
 2827.0236     4.384    2.8446    0.0462   154.209   200.000     8.788
 2827.1760    10.375    2.7308    0.0388   525.711   200.000     8.260
 2827.3284     7.824    2.7409    0.0390   211.367   200.000     8.408
 2827.4808     7.674    2.7272    0.0444   473.487   200.000     8.378
 2827.6332     4.809    2.7511    0.0410   218.891   200.000     8.145
 2827.7856    17.931    2.8533    0.0467   184.480   200.000     9.482
 2827.9380     6.045    2.7114    0.0426   606.801   200.000     8.517
 2828.0904     9.488    2.8035    0.0437   245.685   200.000     7.978
 2828.2428     9.053    2.7458    0.0346   267.690   200.000     8.367
 2828.3952     6.517    2.6617    0.0323   287.395   200.000     8.199
 2828.5476    12.354    2.7757    0.0299   349.145   200.000     8.204
 2828.7000    12.088    2.6466    0.0412   380.978   200.000     8.167
 2828.8524    10.699    2.7331    0.0392   311.486   200.000     8.369
 2829.0048    13.063    2.7312    0.0503  1003.542   200.000     8.209
 2829.1572    15.707    2.7677    0.0357   201.219   200.000     8.543
 2829.3096    11.177    2.6840    0.0407   487.903   200.000     8.301
 2829.4620     6.257    2.7369    0.0431   679.477   200.000     8.356
 2829.6144     9.723    2.7405    0.0369   262.356   200.000     9.047
 2829.7668     8.745    2.7386    0.0468   177.538   200.000     8.166
 2829.9192    11.150    2.7901    0.0263   307.388   200.000     9.014
 2830.0716     6.190    2.6981    0.0503   240.516   200.000     8.035
 2830.2240     8.933    2.7566    0.0319   550.476   200.000     8.098
 2830.3764    12.956    2.7094    0.0385   138.715   200.000     8.290
 2830.5288     7.314    2.7636    0.0451   306.609   200.000     8.150
 2830.6812     6.473    2.6666    0.0470   173.060   200.000     8.818
 2830.8336    10.913    2.7110    0.0323   261.950   200.000     8.803
 2830.9860    11.951    2.7196    0.0443   265.620   200.000     8.477
 2831.1384     9.310    2.7828    0.0369   145.085   200.000     8.537
 2831.2908    10.694    2.7825    0.0432   283.031   200.000     8.735
 2831.4432    10.110    2.7518    0.0349   148.133   200.000     8.220
 2831.5956    10.847    2.7208    0.0402   574.613   200.000     9.020
 2831.7480     8.676    2.7089    0.0380   282.637   200.000     8.007
 2831.9004    11.088    2.6253    0.0458   257.134   200.000     8.941
 2832.0528     7.765    2.7467    0.0386   441.656   200.000     9.005
 2832.2052     9.301    2.8007    0.0386   221.365   200.000     8.621
 2832.3576     4.945    2.7827    0.0466   458.669   200.000     8.740
 2832.5100    10.506    2.6909    0.0438   165.746   200.000     8.402
 2832.6624     8.701    2.7471    0.0340   335.973   200.000     9.283
 2832.8148     6.720    2.7158    0.0372   480.706   200.000     8.803
 2832.9672    11.896    2.6990    0.0307   352.706   200.000     8.344
 2833.1196    13.520    2.7638    0.0405  1096.162   200.000     8.466
