~VERSION INFORMATION
 VERS.                 2.0    : CWLS LOG ASCII STANDARD
 WRAP.                 NO     : ONE LINE PER DEPTH STEP
~WELL INFORMATION
 WELL.                 Bonaparte-2    : Well name
 FLD .                 Bonaparte Basin         : Field
 CTRY.                 Australia       : Country
 STRT.M                1800.0000 : START DEPTH
 STOP.M                3200.0000   : STOP DEPTH
 STEP.M                0.1524        : STEP
 NULL.                 -999.25          : NULL VALUE
 SRVC.                 SubsurfAI        : Service company
~CURVE INFORMATION
 DEPT.M                              : Depth
 GR  .GAPI                           : Gamma Ray
 RHOB.G/C3                           : Bulk Density
 NPHI.V/V                            : Neutron Porosity
 RT  .OHMM                           : True Resistivity
 DT  .US/F                           : Sonic
 CALI.IN                             : Caliper
~PARAMETER INFORMATION
 LAT .                 -12.5432   : Latitude
 LON .                 128.6781   : Longitude
 DESC.                 Bonaparte Basin — Triassic Plover Fm gas condensate
~A  DEPT        GR        RHOB      NPHI      RT        DT        CALI
# ...
 1989.4332    86.115    2.4636    0.3091     1.929   170.647     8.455
 1989.5856    93.803    2.4928    0.3634     2.553   149.904     8.175
 1989.7380    82.650    2.4790    0.2660     3.277   200.000     8.957
 1989.8904    91.921    2.4820    0.2813     1.295   193.415     8.380
 1990.0428    83.217    2.4863    0.3523     1.322   148.861     7.840
 1990.1952   114.025    2.4579    0.3277     0.785   166.840     8.278
 1990.3476   109.103    2.5649    0.2843     1.000   194.687     8.822
 1990.5000   103.671    2.4783    0.2696     0.849   200.000     8.293
 1990.6524    96.542    2.5085    0.3457     1.284   163.015     7.987
 1990.8048    89.298    2.5715    0.3120     1.518   173.869     8.578
 1990.9572    92.395    2.5398    0.3439     1.442   162.846     8.113
 1991.1096   103.876    2.4953    0.2935     0.704   194.621     8.628
 1991.2620    96.929    2.4822    0.3378     2.917   172.203     8.574
 1991.4144    93.786    2.4999    0.2170     2.191   200.000     8.951
 1991.5668    89.490    2.5108    0.3263     1.813   166.518     8.321
 1991.7192    84.798    2.4522    0.2627     1.103   200.000     8.493
 1991.8716   104.377    2.3958    0.3563     2.717   158.284     8.898
 1992.0240    99.741    2.4486    0.2837     2.650   200.000     8.560
 1992.1764   107.007    2.3957    0.2879     2.929   191.907     8.195
 1992.3288    85.984    2.4298    0.3216     1.620   170.351     8.631
 1992.4812   109.062    2.5696    0.3168     2.303   172.273     8.263
 1992.6336   104.022    2.5177    0.3495     1.657   158.642     8.894
 1992.7860   109.672    2.5224    0.2099     2.866   200.000     8.529
 1992.9384   113.124    2.4544    0.3889     1.258   139.360     8.598
 1993.0908    91.773    2.5133    0.2653     3.665   200.000     8.979
 1993.2432    87.333    2.4595    0.2778     2.383   200.000     8.715
 1993.3956   101.769    2.4063    0.2684     2.441   200.000     7.926
 1993.5480   103.780    2.5411    0.3340     1.294   164.065     8.391
 1993.7004   106.281    2.4629    0.3206     5.604   172.950     8.226
 1993.8528   101.990    2.4842    0.2081     1.800   200.000     8.001
 1994.0052   104.194    2.4947    0.3649     1.236   150.558     7.978
 1994.1576   102.900    2.5444    0.2662     2.151   200.000     8.571
 1994.3100    89.974    2.4351    0.3301     1.919   170.950     8.605
 1994.4624   112.839    2.4882    0.3400     2.932   167.995     8.597
 1994.6148    96.774    2.4863    0.2902     1.441   189.763     8.890
 1994.7672    99.620    2.3823    0.2501     1.652   200.000     7.749
 1994.9196    66.853    2.5335    0.2350     2.086   200.000     7.668
 1995.0720   116.195    2.4706    0.3619     2.371   149.122     8.845
 1995.2244   100.739    2.4535    0.2350     1.962   200.000     9.059
 1995.3768    93.359    2.5235    0.2916     0.346   192.712     8.871
 1995.5292    94.668    2.4553    0.2175     1.416   200.000     9.049
 1995.6816    77.766    2.4818    0.2375     4.009   200.000     7.953
 1995.8340    91.395    2.5308    0.3564     1.448   155.528     8.485
 1995.9864   106.898    2.5017    0.2989     1.146   182.984     8.721
 1996.1388   106.822    2.4817    0.3724     1.258   147.996     8.651
 1996.2912   113.025    2.4228    0.2579     3.586   200.000     8.193
 1996.4436   100.057    2.4638    0.2782     2.077   194.883     8.346
 1996.5960    99.989    2.4486    0.3605     4.383   156.024     8.208
 1996.7484    94.078    2.4420    0.2951     2.990   186.838     8.913
 1996.9008    88.012    2.4350    0.3216     1.192   175.336     8.195
 1997.0532    88.286    2.5289    0.2870     2.110   197.776     8.456
 1997.2056    95.830    2.4170    0.3703     4.767   149.125     7.959
 1997.3580   126.302    2.5130    0.3105     1.391   179.607     8.210
 1997.5104   125.120    2.4976    0.3089     2.869   179.628     8.915
 1997.6628    99.975    2.4808    0.2915     2.516   184.451     9.024
 1997.8152    94.596    2.5256    0.2768     0.893   190.703     8.321
 1997.9676   115.895    2.5598    0.3528     0.781   154.430     8.483
 1998.1200    96.280    2.4481    0.3186     2.155   167.109     8.865
 1998.2724    74.500    2.3830    0.3551     2.907   145.741     7.908
 1998.4248    92.439    2.5034    0.3383     2.006   162.016     8.902
 1998.5772    98.623    2.4902    0.2466     0.756   200.000     7.645
 1998.7296   111.618    2.4788    0.3046     1.188   180.529     8.493
 1998.8820   106.758    2.5477    0.3384     0.859   157.302     8.103
 1999.0344    87.151    2.4448    0.2627     1.186   200.000     8.738
 1999.1868    99.956    2.4768    0.3087     1.536   170.924     8.796
 1999.3392    78.043    2.5158    0.3636     0.979   141.187     8.773
 1999.4916    78.837    2.5241    0.2166     1.632   200.000     7.548
 1999.6440    88.143    2.4987    0.2662     1.496   200.000     9.065
 1999.7964    92.075    2.5033    0.2765     1.186   200.000     8.840
 1999.9488   106.840    2.6094    0.2449     2.980   200.000     8.353
 2000.1012   107.771    2.4819    0.2907     2.929   190.413     9.047
 2000.2536   118.300    2.4161    0.2956     2.729   194.271     7.935
 2000.4060   109.079    2.5541    0.2661     1.323   200.000     8.402
 2000.5584   107.565    2.4260    0.2469     2.107   200.000     9.157
 2000.7108   118.559    2.3802    0.3939     1.889   135.747     8.168
 2000.8632    95.316    2.4458    0.3219     3.031   163.808     8.477
 2001.0156    97.768    2.4518    0.3816     1.712   139.942     8.780
 2001.1680    84.897    2.5175    0.2587     2.699   200.000     8.555
 2001.3204    91.612    2.4571    0.2825     4.665   194.354     8.304
 2001.4728    91.596    2.4903    0.3205     1.132   178.051     8.024
 2001.6252    94.946    2.4691    0.3309     2.799   169.921     8.082
 2001.7776   106.316    2.5391    0.2728     2.230   200.000     9.027
 2001.9300   100.317    2.4338    0.2709     2.079   200.000     8.407
 2002.0824   102.424    2.4485    0.2534     0.962   200.000     8.071
 2002.2348    98.369    2.5186    0.2849     1.834   178.972     8.513
 2002.3872    90.515    2.4213    0.3447     1.499   164.905     8.337
 2002.5396    92.806    2.4519    0.3309     1.910   169.615     8.571
 2002.6920    77.973    2.4288    0.2939     1.129   185.237     8.925
 2002.8444   110.969    2.3942    0.3110     2.755   175.296     8.152
 2002.9968   105.918    2.5140    0.2614     0.783   198.924     8.206
 2003.1492    91.340    2.4527    0.2451     4.841   200.000     8.922
 2003.3016    88.530    2.5541    0.4168     1.090   129.919     8.787
 2003.4540   128.933    2.4848    0.3231     1.089   169.763     8.161
 2003.6064   104.994    2.5383    0.2311     1.429   200.000     8.656
 2003.7588   120.964    2.4774    0.2947     0.740   187.898     8.571
 2003.9112    96.633    2.5356    0.2438     4.634   200.000     8.755
 2004.0636    91.512    2.5903    0.2442     1.008   200.000     8.301
 2004.2160    98.705    2.5209    0.3193     1.162   172.378     8.448
 2004.3684   120.710    2.4941    0.3539     2.524   158.386     8.223
 2004.5208   122.795    2.5382    0.2403     5.076   200.000     8.755
 2004.6732    95.013    2.5464    0.3115     2.044   170.914     8.423
 2004.8256   107.946    2.4253    0.2400     1.005   200.000     8.611
 2004.9780    94.662    2.4777    0.3944     1.624   133.098     8.703
 2005.1304   100.476    2.4937    0.2936     0.911   180.535     8.786
 2005.2828    99.187    2.4539    0.2021     1.075   200.000     8.704
 2005.4352    81.250    2.4647    0.3000     2.143   186.281     8.147
 2005.5876   106.829    2.4927    0.3312     0.937   176.198     8.880
 2005.7400    96.763    2.4052    0.3038     0.937   179.436     8.080
 2005.8924   119.885    2.4213    0.2856     2.735   189.909     8.399
 2006.0448    90.753    2.4301    0.2977     1.734   185.013     8.347
 2006.1972    93.690    2.5114    0.2013     2.057   200.000     8.074
 2006.3496    82.085    2.4029    0.2772     2.687   195.319     9.265
 2006.5020   107.431    2.5029    0.3667     2.647   143.089     8.987
