~VERSION INFORMATION
 VERS.                 2.0    : CWLS LOG ASCII STANDARD
 WRAP.                 NO     : ONE LINE PER DEPTH STEP
~WELL INFORMATION
 WELL.                 Bonaparte-2    : Well name
 FLD .                 Bonaparte Basin         : Field
 CTRY.                 Australia       : Country
 STRT.M                1800.0000 : START DEPTH
 STOP.M                3200.0000   : STOP DEPTH
 STEP.M                0.1524        : STEP
 NULL.                 -999.25          : NULL VALUE
 SRVC.                 SubsurfAI        : Service company
~CURVE INFORMATION
 DEPT.M                              : Depth
 GR  .GAPI                           : Gamma Ray
 RHOB.G/C3                           : Bulk Density
 NPHI.V/V                            : Neutron Porosity
 RT  .OHMM                           : True Resistivity
 DT  .US/F                           : Sonic
 CALI.IN                             : Caliper
~PARAMETER INFORMATION
 LAT .                 -12.5432   : Latitude
 LON .                 128.6781   : Longitude
 DESC.                 Bonaparte Basin — Triassic Plover Fm gas condensate
~A  DEPT        GR        RHOB      NPHI      RT        DT        CALI
# ...
 2264.9724    29.137    2.2955    0.1457    79.950   200.000     8.808
 2265.1248    32.649    2.1674    0.1780    59.006   200.000     7.858
 2265.2772    22.092    2.3109    0.1341    29.057   200.000     8.776
 2265.4296    19.177    2.2479    0.1510    71.508   200.000     8.515
 2265.5820    26.890    2.2261    0.1751    61.033   200.000     7.895
 2265.7344    28.907    2.2988    0.1640    79.870   200.000     8.527
 2265.8868    34.940    2.3195    0.1823    63.988   200.000     8.611
 2266.0392    19.434    2.2284    0.1572    60.843   200.000     7.971
 2266.1916    28.000    2.2640    0.1876    77.733   200.000     7.805
 2266.3440    23.686    2.2116    0.1693    58.757   200.000     8.898
 2266.4964    32.534    2.2956    0.1786    74.696   200.000     8.738
 2266.6488    24.862    2.2477    0.1744    34.762   200.000     8.347
 2266.8012    28.406    2.1942    0.1550    80.856   200.000     9.226
 2266.9536    25.741    2.3378    0.2128    61.662   200.000     8.486
 2267.1060    30.743    2.2916    0.1749    24.545   200.000     7.698
 2267.2584    32.830    2.2737    0.1734    87.691   200.000     8.261
 2267.4108    27.038    2.3236    0.2017   112.950   200.000     9.150
 2267.5632    35.910    2.2326    0.1581    47.527   200.000     8.840
 2267.7156    37.539    2.2942    0.1745   162.789   200.000     8.125
 2267.8680    28.168    2.3305    0.1828    35.513   200.000     9.414
 2268.0204    29.456    2.2821    0.1519    97.055   200.000     8.251
 2268.1728    26.772    2.3316    0.1604    81.666   200.000     8.396
 2268.3252    28.460    2.2458    0.1691    77.775   200.000     8.557
 2268.4776    26.701    2.2492    0.1169   117.399   200.000     7.461
 2268.6300    29.665    2.2727    0.1075    85.778   200.000     8.765
 2268.7824    34.206    2.2429    0.1931    46.995   200.000     8.446
 2268.9348    36.335    2.3030    0.1655   124.745   200.000     8.367
 2269.0872    33.732    2.2541    0.2042   104.957   200.000     8.658
 2269.2396    28.734    2.2411    0.1995    33.196   200.000     8.145
 2269.3920    30.813    2.2825    0.1478    84.768   200.000     8.258
 2269.5444    43.149    2.3150    0.2248    91.721   200.000     9.032
 2269.6968    27.152    2.2153    0.1821    43.042   200.000     9.288
 2269.8492    31.176    2.2676    0.1839    56.105   200.000     8.225
 2270.0016    32.866    2.2383    0.2047   118.855   200.000     8.955
 2270.1540    24.847    2.2507    0.1806    74.789   200.000     8.005
 2270.3064    24.841    2.1835    0.1514    83.339   200.000     8.014
 2270.4588    26.089    2.2531    0.1654    47.217   200.000     8.758
 2270.6112    29.343    2.3312    0.1616    53.522   200.000     7.922
 2270.7636    28.992    2.2311    0.1986    96.827   200.000     8.425
 2270.9160    24.375    2.2823    0.1162    59.212   200.000     8.271
 2271.0684    27.270    2.2780    0.1802    89.126   200.000     7.904
 2271.2208    31.583    2.2849    0.1522   128.133   200.000     8.501
 2271.3732    29.136    2.2645    0.1895    51.252   200.000     9.165
 2271.5256    31.118    2.3212    0.1684    37.201   200.000     8.126
 2271.6780    28.329    2.2159    0.1242   112.198   200.000     8.524
 2271.8304    28.181    2.3031    0.1640    74.370   200.000     8.408
 2271.9828    31.715    2.2681    0.1987   130.673   200.000     8.792
 2272.1352    33.478    2.2958    0.1569   107.906   200.000     8.510
 2272.2876    26.013    2.3134    0.1855    54.492   200.000     8.801
 2272.4400    28.370    2.2120    0.1506    43.034   200.000     8.736
 2272.5924    31.943    2.2172    0.1711   111.748   200.000     8.206
 2272.7448    36.457    2.2889    0.1938    83.458   200.000     9.261
 2272.8972    28.938    2.3271    0.1760    82.240   200.000     8.129
 2273.0496    32.611    2.2416    0.1712   105.692   200.000     8.721
 2273.2020    24.890    2.2638    0.1731    79.401   200.000     8.394
 2273.3544    32.760    2.1981    0.1738    85.782   200.000     8.683
 2273.5068    29.753    2.3485    0.1894    79.792   200.000     7.973
 2273.6592    30.823    2.3094    0.1686   108.692   200.000     8.806
 2273.8116    30.224    2.3220    0.1735   144.483   200.000     8.596
 2273.9640    23.488    2.2708    0.1410    64.829   200.000     8.990
 2274.1164    27.603    2.2491    0.1172   117.502   200.000     8.204
 2274.2688    33.239    2.2950    0.1879    76.153   200.000     8.488
 2274.4212    26.569    2.2579    0.1663    41.746   200.000     8.389
 2274.5736    29.966    2.2627    0.1800    29.991   200.000     8.697
 2274.7260    36.386    2.3210    0.1759    59.285   200.000     8.675
 2274.8784    38.584    2.2055    0.1675   284.926   200.000     8.351
 2275.0308    33.057    2.3000    0.1428   122.205   200.000     9.132
 2275.1832    27.221    2.2698    0.1753    33.159   200.000     8.418
 2275.3356    36.057    2.1982    0.1903    26.353   200.000     8.584
 2275.4880    16.106    2.2182    0.1664    59.758   200.000     8.517
 2275.6404    31.849    2.3158    0.1472    46.005   200.000     8.776
 2275.7928    37.783    2.2383    0.1754    44.935   200.000     8.173
 2275.9452    28.565    2.2666    0.1432   172.153   200.000     9.170
 2276.0976    17.231    2.2132    0.1798   253.207   200.000     9.123
 2276.2500    29.626    2.2168    0.1857   115.643   200.000     9.301
 2276.4024    29.488    2.2702    0.1754   155.075   200.000     8.725
 2276.5548    25.386    2.2642    0.1886    18.436   200.000     8.819
 2276.7072    30.496    2.2431    0.1682    82.086   200.000     8.231
 2276.8596    25.576    2.2539    0.1660    85.997   200.000     8.387
 2277.0120    18.595    2.2284    0.1949    72.993   200.000     8.913
 2277.1644    28.174    2.3574    0.1623   107.307   200.000     8.801
 2277.3168    31.621    2.2397    0.1687    44.832   200.000     8.677
 2277.4692    29.969    2.2451    0.1671   143.988   200.000     8.394
 2277.6216    36.584    2.2338    0.1980    40.561   200.000     7.673
 2277.7740    33.933    2.1716    0.1788   135.652   200.000     8.901
 2277.9264    31.607    2.1840    0.1773    99.935   200.000     7.821
 2278.0788    35.637    2.2868    0.1473    43.941   200.000     8.191
 2278.2312    30.253    2.2784    0.2108    49.756   200.000     8.129
 2278.3836    30.231    2.3074    0.2044    60.549   200.000     8.583
 2278.5360    36.168    2.2229    0.1307    27.811   200.000     8.660
 2278.6884    33.474    2.2219    0.1569    78.778   200.000     9.102
 2278.8408    39.250    2.3479    0.1764    92.430   200.000     8.593
 2278.9932    25.634    2.2539    0.1743    87.145   200.000     7.988
 2279.1456    27.810    2.2596    0.1442    47.028   200.000     9.023
 2279.2980    34.048    2.3182    0.1489    26.768   200.000     8.483
 2279.4504    28.265    2.3168    0.1678    42.314   200.000     9.367
 2279.6028    36.732    2.2578    0.1781    83.877   200.000     8.771
 2279.7552    20.690    2.2966    0.2094   139.044   200.000     8.167
 2279.9076    31.985    2.2705    0.1795    50.261   200.000     8.374
 2280.0600    31.657    2.2934    0.1903    91.705   200.000     8.937
 2280.2124    26.968    2.1488    0.1343    62.348   200.000     8.086
 2280.3648    32.054    2.1978    0.1653    56.144   200.000     8.671
 2280.5172    34.493    2.3334    0.1800    56.252   200.000     8.646
 2280.6696    26.742    2.2618    0.1699    76.463   200.000     8.628
 2280.8220    33.307    2.2940    0.2023    57.669   200.000     8.117
 2280.9744    32.898    2.2533    0.1614    97.721   200.000     8.692
 2281.1268    39.861    2.2365    0.1429    54.775   200.000     8.003
 2281.2792    36.690    2.2992    0.2077    25.213   200.000     8.651
 2281.4316    30.590    2.2382    0.2096    50.561   200.000     7.549
 2281.5840    21.931    2.3486    0.1524    63.492   200.000     9.073
 2281.7364    23.073    2.2080    0.1840    59.160   200.000     8.486
 2281.8888    32.972    2.2176    0.1431    87.935   200.000     8.656
 2282.0412    33.556    2.2894    0.1390    63.485   200.000     9.072
