~VERSION INFORMATION
 VERS.                 2.0    : CWLS LOG ASCII STANDARD
 WRAP.                 NO     : ONE LINE PER DEPTH STEP
~WELL INFORMATION
 WELL.                 Bonaparte-2    : Well name
 FLD .                 Bonaparte Basin         : Field
 CTRY.                 Australia       : Country
 STRT.M                1800.0000 : START DEPTH
 STOP.M                3200.0000   : STOP DEPTH
 STEP.M                0.1524        : STEP
 NULL.                 -999.25          : NULL VALUE
 SRVC.                 SubsurfAI        : Service company
~CURVE INFORMATION
 DEPT.M                              : Depth
 GR  .GAPI                           : Gamma Ray
 RHOB.G/C3                           : Bulk Density
 NPHI.V/V                            : Neutron Porosity
 RT  .OHMM                           : True Resistivity
 DT  .US/F                           : Sonic
 CALI.IN                             : Caliper
~PARAMETER INFORMATION
 LAT .                 -12.5432   : Latitude
 LON .                 128.6781   : Longitude
 DESC.                 Bonaparte Basin — Triassic Plover Fm gas condensate
~A  DEPT        GR        RHOB      NPHI      RT        DT        CALI
# ...
 2437.1844    19.154    2.6807    0.0649   136.571   200.000     9.270
 2437.3368    12.440    2.8132    0.0569   173.164   200.000     8.917
 2437.4892    15.791    2.7460    0.0496   193.157   200.000     8.714
 2437.6416    10.372    2.7162    0.0687   301.357   200.000     7.839
 2437.7940    13.311    2.6000    0.0453    92.736   200.000     7.692
 2437.9464    19.522    2.6371    0.0613    72.499   200.000     7.970
 2438.0988    14.475    2.6186    0.0594   125.670   200.000     8.144
 2438.2512    13.432    2.6792    0.0679   158.262   200.000     9.139
 2438.4036    16.017    2.7930    0.0619   133.930   200.000     8.508
 2438.5560    15.600    2.6687    0.0647   192.321   200.000     9.034
 2438.7084    17.476    2.7401    0.0724   238.060   200.000     8.347
 2438.8608    18.647    2.7681    0.0707   153.974   200.000     8.679
 2439.0132    16.956    2.6062    0.0472   163.234   200.000     8.587
 2439.1656    11.919    2.6958    0.0824   322.000   200.000     8.182
 2439.3180    16.824    2.6514    0.0512   158.059   200.000     8.435
 2439.4704     9.063    2.6641    0.0501   781.277   200.000     8.805
 2439.6228    18.940    2.6946    0.0629   165.231   200.000     9.119
 2439.7752    14.655    2.6689    0.0694   136.471   200.000     7.693
 2439.9276     7.178    2.7152    0.0699    91.730   200.000     8.160
 2440.0800    12.545    2.6763    0.0524   248.864   200.000     8.275
 2440.2324     9.466    2.6001    0.0698   119.429   200.000     8.267
 2440.3848    19.345    2.7309    0.0557   209.747   200.000     8.792
 2440.5372    15.991    2.6705    0.0683   306.732   200.000     8.721
 2440.6896    13.764    2.6640    0.0638   158.292   200.000     8.280
 2440.8420    17.037    2.7084    0.0573   256.782   200.000     8.615
 2440.9944    17.183    2.5905    0.0476   195.928   200.000     8.541
 2441.1468    15.432    2.5996    0.0554   228.341   200.000     8.545
 2441.2992    13.308    2.6687    0.0454   652.760   200.000     8.153
 2441.4516    19.338    2.6566    0.0673   172.232   200.000     8.387
 2441.6040    12.387    2.6378    0.0562   147.700   200.000     8.146
 2441.7564    11.881    2.6762    0.0607   180.809   200.000     8.680
 2441.9088    15.454    2.6291    0.0767   297.434   200.000     8.347
 2442.0612    15.447    2.6800    0.0562   244.897   200.000     7.602
 2442.2136    10.225    2.7787    0.0497   188.851   200.000     8.472
 2442.3660    15.364    2.6852    0.0441   146.858   200.000     9.232
 2442.5184    22.551    2.6554    0.0684   144.466   200.000     8.512
 2442.6708    11.747    2.6649    0.0667   107.266   200.000     8.211
 2442.8232    12.410    2.6976    0.0501   123.775   200.000     9.018
 2442.9756    12.933    2.6675    0.0560   102.090   200.000     8.124
 2443.1280    12.226    2.7046    0.0490   117.513   200.000     8.297
 2443.2804    12.407    2.6509    0.0645   298.369   200.000     8.424
 2443.4328     2.740    2.6811    0.0751   233.730   200.000     7.947
 2443.5852    15.054    2.6574    0.0579   103.456   200.000     8.326
 2443.7376    17.247    2.7361    0.0565   233.625   200.000     8.490
 2443.8900    12.829    2.6989    0.0556   169.508   200.000     8.997
 2444.0424    12.891    2.7400    0.0464   164.513   200.000     8.126
 2444.1948    13.933    2.6901    0.0662   274.685   200.000     8.599
 2444.3472    14.785    2.6332    0.0625   305.350   200.000     8.509
 2444.4996    10.963    2.7562    0.0548    66.506   200.000     8.358
 2444.6520    12.150    2.6392    0.0649    85.673   200.000     7.963
 2444.8044    13.552    2.7325    0.0495   167.444   200.000     8.324
 2444.9568    10.483    2.7052    0.0537    87.352   200.000     8.746
 2445.1092    15.152    2.8175    0.0528   106.515   200.000     9.064
 2445.2616    19.518    2.6920    0.0522   198.233   200.000     9.590
 2445.4140    15.773    2.6820    0.0552   186.682   200.000     8.309
 2445.5664    13.203    2.7484    0.0624    75.391   200.000     9.074
 2445.7188     7.928    2.6363    0.0746   105.485   200.000     8.050
 2445.8712    17.907    2.6582    0.0662   133.436   200.000     8.712
 2446.0236    11.398    2.6446    0.0512    91.037   200.000     8.730
 2446.1760    12.481    2.7058    0.0583   294.188   200.000     8.655
 2446.3284    19.759    2.6927    0.0665   303.762   200.000     8.142
 2446.4808    16.388    2.5677    0.0661   174.864   200.000     9.030
 2446.6332    14.496    2.7050    0.0653   438.345   200.000     8.420
 2446.7856    11.643    2.6762    0.0696   305.007   200.000     8.350
 2446.9380    16.577    2.7212    0.0543    98.310   200.000     8.865
 2447.0904    19.022    2.6717    0.0676   209.542   200.000     8.785
 2447.2428    15.036    2.6027    0.0655   155.116   200.000     8.508
 2447.3952    16.682    2.6356    0.0485   190.151   200.000     7.816
 2447.5476    15.024    2.6047    0.0411   238.212   200.000     8.051
 2447.7000    16.128    2.6120    0.0663   102.473   200.000     7.877
 2447.8524    13.515    2.5041    0.0564   289.942   200.000     8.144
 2448.0048    14.687    2.7104    0.0540   112.243   200.000     8.630
 2448.1572    19.455    2.6779    0.0675   262.391   200.000     8.637
 2448.3096    16.804    2.5624    0.0607   352.936   200.000     8.823
 2448.4620    19.362    2.6241    0.0747   198.079   200.000     8.595
 2448.6144    14.963    2.6535    0.0522    74.327   200.000     8.831
 2448.7668    22.093    2.5308    0.0661   131.669   200.000     8.020
 2448.9192    10.567    2.7358    0.0493    98.322   200.000     8.465
 2449.0716    15.375    2.7520    0.0683   423.503   200.000     8.373
 2449.2240    16.636    2.6285    0.0675   391.434   200.000     8.297
 2449.3764    17.838    2.6924    0.0617   555.866   200.000     8.760
 2449.5288    12.537    2.6801    0.0665   154.900   200.000     8.332
 2449.6812    10.741    2.5896    0.0664   190.671   200.000     8.489
 2449.8336    12.849    2.7127    0.0521   351.160   200.000     8.089
 2449.9860    19.168    2.7048    0.0556   284.785   200.000     8.465
 2450.1384     7.059    2.6089    0.0694   203.743   200.000     9.455
 2450.2908    16.079    2.7363    0.0772   205.632   200.000     8.923
 2450.4432    11.790    2.6799    0.0706    84.695   200.000     8.615
 2450.5956     9.038    2.6526    0.0554   265.122   200.000     8.869
 2450.7480    11.706    2.5945    0.0578   169.857   200.000     8.617
 2450.9004    11.866    2.6972    0.0452   463.746   200.000     8.927
 2451.0528    15.753    2.7270    0.0561   188.130   200.000     8.600
 2451.2052    12.726    2.6318    0.0626   162.679   200.000     8.683
 2451.3576    13.336    2.7078    0.0459   172.927   200.000     8.223
 2451.5100    16.082    2.7573    0.0569    56.320   200.000     8.277
 2451.6624     8.860    2.7009    0.0570   129.641   200.000     8.340
 2451.8148    13.157    2.6426    0.0753   168.053   200.000     7.783
 2451.9672    19.265    2.6791    0.0502   114.398   200.000     8.167
 2452.1196    15.661    2.7542    0.0726   324.155   200.000     8.301
 2452.2720    10.280    2.7191    0.0427   137.362   200.000     7.964
 2452.4244    10.832    2.6689    0.0580   214.830   200.000     8.352
 2452.5768    12.855    2.6282    0.0701   130.934   200.000     8.188
 2452.7292    13.541    2.6553    0.0701   156.188   200.000     8.267
 2452.8816    13.745    2.6834    0.0669   159.758   200.000     8.665
 2453.0340    17.571    2.6655    0.0666   169.504   200.000     9.007
 2453.1864    15.354    2.7080    0.0631   443.564   200.000     8.146
 2453.3388    11.745    2.5941    0.0658   145.696   200.000     8.391
 2453.4912    13.646    2.7166    0.0595   127.618   200.000     8.293
 2453.6436    15.844    2.6907    0.0659   258.947   200.000     8.121
 2453.7960    12.766    2.7020    0.0524   169.451   200.000     8.163
 2453.9484    16.913    2.6423    0.0569   207.781   200.000     9.460
 2454.1008    15.179    2.5830    0.0598   152.744   200.000     8.992
 2454.2532    13.545    2.6339    0.0670   106.841   200.000     8.146
