~VERSION INFORMATION
 VERS.                 2.0    : CWLS LOG ASCII STANDARD
 WRAP.                 NO     : ONE LINE PER DEPTH STEP
~WELL INFORMATION
 WELL.                 Bonaparte-2    : Well name
 FLD .                 Bonaparte Basin         : Field
 CTRY.                 Australia       : Country
 STRT.M                1800.0000 : START DEPTH
 STOP.M                3200.0000   : STOP DEPTH
 STEP.M                0.1524        : STEP
 NULL.                 -999.25          : NULL VALUE
 SRVC.                 SubsurfAI        : Service company
~CURVE INFORMATION
 DEPT.M                              : Depth
 GR  .GAPI                           : Gamma Ray
 RHOB.G/C3                           : Bulk Density
 NPHI.V/V                            : Neutron Porosity
 RT  .OHMM                           : True Resistivity
 DT  .US/F                           : Sonic
 CALI.IN                             : Caliper
~PARAMETER INFORMATION
 LAT .                 -12.5432   : Latitude
 LON .                 128.6781   : Longitude
 DESC.                 Bonaparte Basin — Triassic Plover Fm gas condensate
~A  DEPT        GR        RHOB      NPHI      RT        DT        CALI
# ...
 2075.5392    99.831    2.3494    0.2999     1.029   181.528     8.436
 2075.6916   101.859    2.5160    0.2631     2.310   200.000     8.778
 2075.8440    99.947    2.5065    0.2867     2.865   195.775     8.863
 2075.9964    81.766    2.5270    0.3135     0.531   175.861     8.565
 2076.1488    92.560    2.4919    0.3475     0.847   154.964     8.055
 2076.3012   102.643    2.4979    0.2810     1.894   196.904     8.552
 2076.4536   123.300    2.4695    0.3504     0.968   151.359     8.308
 2076.6060    86.340    2.5070    0.2755     1.607   200.000     7.963
 2076.7584   114.864    2.4876    0.3213     1.886   172.643     8.212
 2076.9108    96.006    2.5843    0.2761     1.092   189.300     8.244
 2077.0632    96.641    2.4017    0.1971     1.606   200.000     8.356
 2077.2156   118.520    2.4248    0.2592     4.405   200.000     8.109
 2077.3680    93.703    2.5078    0.2390     0.903   200.000     7.923
 2077.5204    75.685    2.5412    0.2916     6.797   195.700     8.423
 2077.6728    91.802    2.4479    0.2711     1.619   200.000     8.487
 2077.8252    81.058    2.5425    0.2785     2.638   195.367     8.042
 2077.9776   101.613    2.5247    0.2777     2.830   198.018     8.419
 2078.1300    97.951    2.4717    0.4117     0.889   133.404     8.050
 2078.2824   104.757    2.5227    0.2395     1.783   200.000     9.029
 2078.4348    99.769    2.4708    0.3502     1.456   155.002     8.655
 2078.5872   117.544    2.4770    0.2652     1.352   200.000     8.391
 2078.7396   109.018    2.4926    0.3236     3.608   164.630     8.600
 2078.8920   132.208    2.5814    0.3722     3.079   143.868     8.838
 2079.0444    90.889    2.4422    0.2592     4.366   200.000     8.004
 2079.1968   100.884    2.5353    0.2366     1.514   200.000     8.278
 2079.3492    98.214    2.4899    0.2645     4.165   200.000     8.616
 2079.5016   119.489    2.5842    0.2750     1.050   200.000     9.121
 2079.6540    56.064    2.4665    0.3171     1.582   177.109     8.138
 2079.8064   108.387    2.4880    0.3782     2.161   147.414     9.089
 2079.9588    26.150    2.2779    0.1463    72.152   200.000     8.146
 2080.1112    27.094    2.2276    0.1440    51.003   200.000     9.116
 2080.2636    26.824    2.1563    0.1409    79.686   200.000     8.855
 2080.4160    45.309    2.2908    0.1965   140.774   200.000     9.197
 2080.5684    32.767    2.2559    0.1666    74.074   200.000     8.371
 2080.7208    25.148    2.2839    0.1920   121.354   200.000     8.297
 2080.8732    28.772    2.2587    0.1364   106.586   200.000     7.904
 2081.0256    36.785    2.2548    0.1833    27.344   200.000     7.664
 2081.1780    34.854    2.3292    0.1205    71.227   200.000     8.408
 2081.3304    36.386    2.2726    0.1981    38.610   200.000     8.308
 2081.4828    32.373    2.2525    0.1553    27.424   200.000     8.912
 2081.6352    30.041    2.1838    0.1621   122.152   200.000     9.018
 2081.7876    31.590    2.2408    0.1300    50.279   200.000     8.619
 2081.9400    23.830    2.2652    0.1765    77.443   200.000     8.222
 2082.0924    34.103    2.2604    0.1720    65.367   200.000     9.001
 2082.2448    28.189    2.1867    0.2080    60.123   200.000     8.110
 2082.3972    25.249    2.3210    0.1898    67.155   200.000     8.634
 2082.5496    35.212    2.2739    0.1598    32.714   200.000     9.042
 2082.7020    31.285    2.2266    0.2014    44.077   200.000     7.980
 2082.8544    30.385    2.2030    0.1620   157.452   200.000     8.301
 2083.0068    28.725    2.1820    0.1628    37.031   200.000     8.401
 2083.1592    33.960    2.3468    0.1583    79.084   200.000     8.092
 2083.3116    23.701    2.2740    0.1918    47.549   200.000     8.645
 2083.4640    26.865    2.2597    0.1815   115.236   200.000     8.432
 2083.6164    33.399    2.2677    0.1786    55.216   200.000     9.449
 2083.7688    30.933    2.2519    0.1769    35.396   200.000     8.840
 2083.9212    24.275    2.2114    0.1691    95.158   200.000     8.522
 2084.0736    22.332    2.2061    0.1587    31.452   200.000     8.413
 2084.2260    30.977    2.2243    0.1699   100.170   200.000     8.596
 2084.3784    25.139    2.2767    0.1600    82.504   200.000     8.851
 2084.5308    29.949    2.1945    0.1306    80.082   200.000     7.935
 2084.6832    35.653    2.1292    0.1608   112.126   200.000     8.066
 2084.8356    31.834    2.2015    0.1402    55.253   200.000     8.999
 2084.9880    31.469    2.2648    0.1346    37.192   200.000     8.674
 2085.1404    29.549    2.2048    0.2119   106.625   200.000     8.818
 2085.2928    25.231    2.2040    0.1425    86.178   200.000     8.033
 2085.4452    27.243    2.1907    0.1524    51.636   200.000     8.539
 2085.5976    24.683    2.2530    0.1865    50.812   200.000     7.612
 2085.7500    36.258    2.2422    0.1630    30.164   200.000     8.609
 2085.9024    30.565    2.2159    0.1523    68.268   200.000     8.318
 2086.0548    27.637    2.2762    0.2284   117.732   200.000     7.973
 2086.2072    25.894    2.2297    0.1683    36.752   200.000     8.708
 2086.3596    30.827    2.2204    0.1721   154.462   200.000     8.051
 2086.5120    32.295    2.3563    0.1356    68.101   200.000     9.053
 2086.6644    20.037    2.1719    0.1823    87.034   200.000     8.704
 2086.8168    33.114    2.2601    0.1531   144.522   200.000     7.894
 2086.9692    29.252    2.2512    0.1236    53.710   200.000     8.924
 2087.1216    24.531    2.2655    0.1637    31.541   200.000     8.281
 2087.2740    31.828    2.2087    0.1860    81.490   200.000     8.152
 2087.4264    34.488    2.2571    0.1601    50.920   200.000     8.370
 2087.5788    30.295    2.2668    0.1449   104.371   200.000     7.876
 2087.7312    30.175    2.3028    0.2075   127.376   200.000     8.214
 2087.8836    30.958    2.2877    0.1420    68.954   200.000     8.237
 2088.0360    34.423    2.2532    0.1764    74.508   200.000     8.713
 2088.1884    23.444    2.2384    0.1901    55.996   200.000     8.909
 2088.3408    33.742    2.2632    0.1451   150.848   200.000     8.667
 2088.4932    19.521    2.1822    0.1581    69.924   200.000     8.058
 2088.6456    28.703    2.2237    0.1535    80.113   200.000     8.702
 2088.7980    33.133    2.3179    0.1864    46.795   200.000     8.473
 2088.9504    27.924    2.1940    0.2207    51.408   200.000     8.630
 2089.1028    29.613    2.2289    0.2199    79.250   200.000     9.033
 2089.2552    32.842    2.3108    0.1634    83.661   200.000     8.973
 2089.4076    24.031    2.2922    0.1686    63.295   200.000     8.374
 2089.5600    30.055    2.2636    0.1812    16.212   200.000     8.877
 2089.7124    32.781    2.2632    0.1436    69.590   200.000     8.895
 2089.8648    27.769    2.2396    0.1144    53.697   200.000     8.275
 2090.0172    33.097    2.2730    0.1657    89.689   200.000     8.262
 2090.1696    27.917    2.2004    0.1963   128.018   200.000     9.011
 2090.3220    26.109    2.2459    0.1264    41.756   200.000     8.616
 2090.4744    33.365    2.2699    0.1604    62.957   200.000     9.219
 2090.6268    36.531    2.1923    0.1884   119.607   200.000     8.086
 2090.7792    30.814    2.3066    0.2167   109.424   200.000     8.778
 2090.9316    30.880    2.3414    0.1940   175.269   200.000     8.438
 2091.0840    35.010    2.3904    0.1666    82.782   200.000     7.733
 2091.2364    35.869    2.2746    0.1822    52.669   200.000     8.121
 2091.3888    26.295    2.3159    0.1630    50.946   200.000     7.818
 2091.5412    27.343    2.2393    0.1615    41.979   200.000     8.621
 2091.6936    33.464    2.2592    0.1750    32.407   200.000     8.516
 2091.8460    27.830    2.3125    0.2128    45.193   200.000     7.734
 2091.9984    31.900    2.2025    0.1319    89.180   200.000     8.035
 2092.1508    32.367    2.2723    0.1414    57.295   200.000     8.803
 2092.3032    30.521    2.2595    0.1666    44.567   200.000     7.937
 2092.4556    21.918    2.2400    0.1536    54.791   200.000     8.355
 2092.6080    33.945    2.2676    0.1515    28.929   200.000     9.008
