~VERSION INFORMATION
 VERS.                 2.0    : CWLS LOG ASCII STANDARD
 WRAP.                 NO     : ONE LINE PER DEPTH STEP
~WELL INFORMATION
 WELL.                 Bonaparte-2    : Well name
 FLD .                 Bonaparte Basin         : Field
 CTRY.                 Australia       : Country
 STRT.M                1800.0000 : START DEPTH
 STOP.M                3200.0000   : STOP DEPTH
 STEP.M                0.1524        : STEP
 NULL.                 -999.25          : NULL VALUE
 SRVC.                 SubsurfAI        : Service company
~CURVE INFORMATION
 DEPT.M                              : Depth
 GR  .GAPI                           : Gamma Ray
 RHOB.G/C3                           : Bulk Density
 NPHI.V/V                            : Neutron Porosity
 RT  .OHMM                           : True Resistivity
 DT  .US/F                           : Sonic
 CALI.IN                             : Caliper
~PARAMETER INFORMATION
 LAT .                 -12.5432   : Latitude
 LON .                 128.6781   : Longitude
 DESC.                 Bonaparte Basin — Triassic Plover Fm gas condensate
~A  DEPT        GR        RHOB      NPHI      RT        DT        CALI
 1800.0000   100.086    2.4203    0.3205     1.972   172.526     8.223
 1800.1524   123.544    2.4803    0.2278     4.067   200.000     8.356
 1800.3048    93.263    2.4505    0.2821     3.306   192.497     8.744
 1800.4572    88.278    2.4710    0.3182     0.636   169.362     8.304
 1800.6096   117.292    2.5062    0.2649     2.335   200.000     9.014
 1800.7620   115.431    2.4328    0.3676     5.510   150.122     7.839
 1800.9144   126.347    2.4746    0.3166     3.241   168.404     8.986
 1801.0668    94.184    2.5329    0.2855     1.008   198.638     8.268
 1801.2192    89.446    2.4759    0.2438     1.565   200.000     8.995
 1801.3716    91.953    2.4079    0.3392     2.817   155.439     8.364
 1801.5240    95.602    2.4670    0.3103     3.048   185.052     7.876
 1801.6764   109.005    2.5223    0.3164     1.659   169.808     8.673
 1801.8288   120.685    2.5113    0.2579     1.418   200.000     8.136
 1801.9812   102.776    2.5384    0.3304     1.856   162.968     8.218
 1802.1336   101.343    2.4892    0.3333     1.094   171.916     8.281
 1802.2860    96.083    2.4844    0.2772     2.992   200.000     8.958
 1802.4384    88.090    2.4006    0.3355     0.930   159.232     8.498
 1802.5908    74.247    2.4383    0.2842     0.666   185.128     9.167
 1802.7432    83.927    2.4597    0.3481     3.010   160.792     8.110
 1802.8956    84.360    2.5262    0.2634     0.910   200.000     8.328
 1803.0480   102.039    2.4849    0.2545     1.459   200.000     8.018
 1803.2004   118.442    2.4609    0.2842     2.077   191.918     8.885
 1803.3528    72.683    2.5916    0.3306     6.541   164.381     8.465
 1803.5052   127.376    2.4664    0.3659     2.390   143.838     8.776
 1803.6576    89.642    2.4975    0.3660     1.405   155.827     8.085
 1803.8100    96.265    2.4923    0.3336     0.760   162.769     9.066
 1803.9624    89.371    2.4049    0.3104     1.411   170.712     9.128
 1804.1148   109.853    2.4721    0.2341     3.657   200.000     8.356
 1804.2672    88.575    2.4746    0.3967     6.304   143.251     8.674
 1804.4196    88.221    2.4381    0.2123     0.564   200.000     8.715
 1804.5720   100.809    2.4950    0.2712     1.900   200.000     7.860
 1804.7244    99.370    2.4360    0.3091     2.361   177.521     8.314
 1804.8768    91.037    2.4666    0.2566     1.724   200.000     8.746
 1805.0292   101.388    2.5309    0.2597     0.613   200.000     8.195
 1805.1816    98.221    2.4336    0.2394     0.614   200.000     9.733
 1805.3340   122.005    2.4294    0.3449     2.190   162.166     8.681
 1805.4864   107.625    2.5019    0.3034     2.883   178.611     8.432
 1805.6388    86.010    2.4553    0.2753     1.147   199.101     8.053
 1805.7912    86.883    2.5543    0.2708     2.205   200.000     8.289
 1805.9436    92.279    2.4046    0.2912     0.988   191.310     8.694
 1806.0960    83.869    2.4785    0.2932     2.199   192.825     8.150
 1806.2484    82.213    2.4524    0.2745     2.528   200.000     8.944
 1806.4008    98.167    2.5247    0.3523     3.132   158.592     8.855
 1806.5532    92.704    2.4504    0.2465     2.093   200.000     8.766
 1806.7056   103.413    2.4482    0.3641     1.789   155.160     7.880
 1806.8580    94.185    2.5615    0.2941     1.116   186.741     8.012
 1807.0104   106.840    2.4690    0.2635     3.349   200.000     7.594
 1807.1628    71.344    2.4457    0.2665     2.532   198.057     8.926
 1807.3152   101.716    2.3940    0.3213     1.485   169.015     9.008
 1807.4676    85.112    2.4296    0.3467     0.903   154.805     8.320
 1807.6200   103.389    2.4472    0.3362     1.546   161.236     8.139
 1807.7724   105.830    2.4434    0.2688     2.901   200.000     8.056
 1807.9248    74.292    2.5461    0.2905     0.587   184.606     8.395
 1808.0772   103.981    2.4944    0.2815     2.620   186.234     8.159
 1808.2296    80.726    2.5014    0.2574     3.662   200.000     8.507
 1808.3820   112.347    2.4942    0.2944     4.226   188.632    10.084
 1808.5344   109.996    2.4221    0.3429     1.725   156.761     7.968
 1808.6868    96.835    2.4628    0.2963     0.716   188.366     8.163
 1808.8392    81.767    2.4780    0.2930     1.137   183.739     8.637
 1808.9916    92.143    2.4624    0.2677     1.486   200.000     8.438
 1809.1440    80.393    2.4499    0.2379     3.595   200.000     8.085
 1809.2964   101.015    2.4944    0.3621     1.237   146.419     7.848
 1809.4488   108.192    2.5952    0.3170     2.033   166.877     8.247
 1809.6012   134.099    2.4946    0.2939     0.831   186.945     8.346
 1809.7536   106.457    2.4192    0.3235     1.362   163.694     8.659
 1809.9060    96.241    2.6025    0.3530     1.043   149.409     7.923
 1810.0584    87.575    2.5165    0.2309     1.061   200.000     9.222
 1810.2108    79.744    2.4573    0.3104     3.345   174.799     7.791
 1810.3632    97.099    2.5102    0.2729     0.835   199.655     7.851
 1810.5156   105.115    2.4018    0.2906     3.913   188.371     8.575
 1810.6680   119.909    2.5599    0.2217     1.665   200.000     8.738
 1810.8204   110.412    2.5679    0.4262     1.470   139.724     8.149
 1810.9728    94.181    2.4459    0.2780     1.081   193.925     8.758
 1811.1252    94.734    2.4830    0.2854     2.252   193.011     8.082
 1811.2776    95.063    2.5171    0.2830     2.358   199.762     8.901
 1811.4300    88.346    2.5399    0.2695     1.711   199.550     8.273
 1811.5824   116.861    2.4938    0.2305     1.520   200.000     8.102
 1811.7348    92.928    2.5006    0.3661     3.137   141.776     7.972
 1811.8872    76.742    2.3551    0.2985     2.778   183.197     8.692
 1812.0396    94.030    2.5416    0.3392     1.622   160.816     9.085
 1812.1920    94.162    2.5516    0.2905     1.341   181.294     8.778
 1812.3444    91.255    2.4996    0.3202     2.207   165.880     8.196
 1812.4968    91.769    2.5508    0.3284     1.355   168.500     8.249
 1812.6492   112.014    2.5466    0.2725     2.605   200.000     8.159
 1812.8016    97.255    2.4671    0.2311     1.773   200.000     8.652
 1812.9540   102.099    2.5171    0.2669     0.860   195.816     7.856
 1813.1064    92.642    2.4487    0.2172     0.804   200.000     8.349
 1813.2588    87.066    2.5328    0.2910     1.565   190.715     8.854
 1813.4112    97.611    2.4473    0.2935     2.090   189.590     8.267
 1813.5636   129.110    2.5313    0.2662     1.086   200.000     8.688
 1813.7160    81.291    2.5489    0.3058     0.999   172.193     9.074
 1813.8684    95.179    2.5041    0.2215     1.443   200.000     8.475
 1814.0208    96.186    2.5212    0.2656     0.568   200.000     8.814
 1814.1732    87.581    2.4775    0.2389     2.018   200.000     8.666
 1814.3256    95.571    2.4368    0.3332     1.678   162.907     8.165
 1814.4780    98.287    2.5278    0.3051     3.087   179.448     8.954
 1814.6304   104.030    2.4894    0.2777     2.264   200.000     8.093
 1814.7828   107.431    2.5121    0.3142     0.864   183.256     8.831
 1814.9352    81.602    2.4692    0.2725     1.399   199.414     9.477
 1815.0876   109.356    2.5324    0.3870     1.128   139.714     8.391
 1815.2400   107.079    2.4975    0.3427     2.132   157.991     9.134
 1815.3924   118.939    2.5150    0.3284     2.501   172.428     8.809
 1815.5448   110.113    2.4306    0.2755     0.840   200.000     7.978
 1815.6972   113.003    2.5437    0.2518     1.884   200.000     8.291
 1815.8496   109.765    2.4550    0.2966     1.506   180.733     8.605
 1816.0020    94.520    2.4982    0.2594     1.413   200.000     7.922
 1816.1544    95.514    2.5557    0.2971     1.562   176.576     8.204
 1816.3068   105.463    2.4672    0.3157     1.574   175.390     8.805
 1816.4592    94.484    2.5019    0.3201     2.572   168.649     8.601
 1816.6116    90.349    2.4418    0.3417     1.540   157.903     7.899
 1816.7640    95.294    2.4497    0.3062     1.330   180.786     8.655
 1816.9164    84.937    2.4596    0.3762     1.443   146.386     8.556
 1817.0688    75.628    2.5261    0.2613     1.848   200.000     8.600
