~VERSION INFORMATION
 VERS.                 2.0    : CWLS LOG ASCII STANDARD
 WRAP.                 NO     : ONE LINE PER DEPTH STEP
~WELL INFORMATION
 WELL.                 Bonaparte-2    : Well name
 FLD .                 Bonaparte Basin         : Field
 CTRY.                 Australia       : Country
 STRT.M                1800.0000 : START DEPTH
 STOP.M                3200.0000   : STOP DEPTH
 STEP.M                0.1524        : STEP
 NULL.                 -999.25          : NULL VALUE
 SRVC.                 SubsurfAI        : Service company
~CURVE INFORMATION
 DEPT.M                              : Depth
 GR  .GAPI                           : Gamma Ray
 RHOB.G/C3                           : Bulk Density
 NPHI.V/V                            : Neutron Porosity
 RT  .OHMM                           : True Resistivity
 DT  .US/F                           : Sonic
 CALI.IN                             : Caliper
~PARAMETER INFORMATION
 LAT .                 -12.5432   : Latitude
 LON .                 128.6781   : Longitude
 DESC.                 Bonaparte Basin — Triassic Plover Fm gas condensate
~A  DEPT        GR        RHOB      NPHI      RT        DT        CALI
# ...
 2988.2628   107.651    2.5216    0.2595     1.845   200.000     8.722
 2988.4152    95.340    2.5258    0.2802     4.410   195.347     8.905
 2988.5676   104.146    2.4784    0.2792     1.396   187.611     8.196
 2988.7200   107.056    2.4231    0.2248     4.223   200.000     8.469
 2988.8724    91.604    2.4785    0.3014     2.559   187.356     8.543
 2989.0248    93.482    2.5118    0.3353     0.612   159.294     9.318
 2989.1772    94.710    2.5004    0.2794     1.993   194.947     8.177
 2989.3296   110.943    2.5539    0.2412     2.946   200.000     8.461
 2989.4820   109.952    2.4184    0.2474     1.745   200.000     8.421
 2989.6344   109.748    2.4757    0.2517     2.832   200.000     8.317
 2989.7868    94.359    2.4284    0.2712     0.877   200.000     8.323
 2989.9392   108.178    2.4665    0.3297     1.851   166.788     7.581
 2990.0916    91.567    2.4565    0.2457     1.818   200.000     8.668
 2990.2440    97.675    2.5201    0.2849     2.073   192.710     8.160
 2990.3964    87.062    2.4225    0.2189     3.995   200.000     8.513
 2990.5488    95.319    2.4157    0.2500     2.614   200.000     8.089
 2990.7012    97.381    2.4588    0.3168     1.708   170.816     8.951
 2990.8536    81.958    2.5374    0.2776     1.004   200.000     8.317
 2991.0060   100.617    2.4430    0.2667     2.012   200.000     9.009
 2991.1584   107.736    2.4368    0.3098     1.012   166.717     8.322
 2991.3108   100.966    2.4135    0.2228     1.971   200.000     8.753
 2991.4632    87.061    2.5259    0.2619     1.302   200.000     8.892
 2991.6156    94.487    2.4440    0.2723     1.165   197.132     8.754
 2991.7680   102.228    2.4958    0.2948     1.322   180.948     8.800
 2991.9204    91.152    2.4629    0.2950     2.084   193.266     8.279
 2992.0728    86.250    2.5023    0.2868     1.272   195.156     8.168
 2992.2252    91.533    2.4420    0.2838     3.677   184.507     8.470
 2992.3776   110.876    2.5278    0.2930     3.001   184.158     8.577
 2992.5300    68.894    2.4347    0.2287     1.151   200.000     8.148
 2992.6824    79.423    2.5056    0.2493     0.870   200.000     8.519
 2992.8348    80.581    2.3998    0.2629     1.924   200.000     8.995
 2992.9872    84.435    2.3273    0.3733     1.733   150.041     8.348
 2993.1396   103.545    2.4581    0.2731     4.721   192.021     8.969
 2993.2920    83.570    2.4565    0.2706     4.794   200.000     8.337
 2993.4444   108.771    2.4617    0.3310     2.393   166.593     7.649
 2993.5968   109.575    2.4667    0.2805     2.233   200.000     8.335
 2993.7492   112.150    2.4843    0.2400     1.155   200.000     8.440
 2993.9016    94.886    2.5004    0.2958     0.628   191.817     9.074
 2994.0540   109.418    2.4205    0.2307     1.386   200.000     8.377
 2994.2064   102.150    2.5533    0.2882     3.221   188.746     8.950
 2994.3588    87.362    2.4581    0.2883     1.783   184.648     9.205
 2994.5112    88.739    2.5377    0.2957     2.462   184.887     8.293
 2994.6636    81.618    2.4581    0.2687     1.077   200.000     8.261
 2994.8160    91.631    2.3916    0.2609     3.070   200.000     9.110
 2994.9684    90.546    2.4285    0.2914     3.515   182.937     8.913
 2995.1208    97.714    2.5359    0.2999     5.402   190.044     8.778
 2995.2732    93.662    2.4802    0.3439     4.093   153.440     8.713
 2995.4256   105.060    2.4381    0.2523     2.496   200.000     9.013
 2995.5780    73.836    2.4794    0.3329     1.139   169.362     9.149
 2995.7304    85.325    2.4639    0.2921     3.496   191.851     8.352
 2995.8828    94.658    2.4826    0.2410     5.183   200.000     7.528
 2996.0352    63.657    2.5033    0.2543     0.918   200.000     8.686
 2996.1876    95.047    2.4226    0.2296     2.229   200.000     9.264
 2996.3400    75.729    2.5128    0.3421     2.171   175.160     7.815
 2996.4924    93.290    2.4290    0.2963     0.774   187.039     8.250
 2996.6448    78.957    2.3947    0.2048     3.007   200.000     7.969
 2996.7972    95.656    2.4290    0.2392     1.090   200.000     7.735
 2996.9496    86.890    2.4124    0.2377     1.128   200.000     8.267
 2997.1020   114.051    2.3955    0.2988     2.097   181.492     8.249
 2997.2544   106.804    2.4756    0.2879     1.833   188.193     8.412
 2997.4068    92.092    2.4480    0.2253     1.994   200.000     9.275
 2997.5592    99.420    2.4716    0.2433     3.322   200.000     8.866
 2997.7116    83.962    2.3874    0.3167     1.707   171.025     8.648
 2997.8640    92.823    2.5348    0.3002     1.433   183.442     8.589
 2998.0164    89.301    2.4123    0.3073     1.319   179.301     8.476
 2998.1688    95.658    2.4658    0.2662     2.067   199.943     8.226
 2998.3212   101.269    2.4480    0.2007     0.981   200.000     8.772
 2998.4736    98.591    2.4763    0.2514     1.649   200.000     8.336
 2998.6260    96.679    2.5636    0.1981     3.069   200.000     8.225
 2998.7784    98.053    2.3984    0.2505     1.881   200.000     8.267
 2998.9308    84.281    2.4781    0.3158     2.596   166.207     8.512
 2999.0832    88.996    2.4695    0.3044     1.427   182.510     8.091
 2999.2356    92.493    2.4061    0.2935     1.842   186.756     9.218
 2999.3880   116.501    2.5215    0.2175     2.710   200.000     8.789
 2999.5404    84.466    2.4827    0.2502     1.955   200.000     8.314
 2999.6928   105.218    2.5266    0.2722     2.636   200.000     8.751
 2999.8452    96.917    2.4598    0.2896     1.571   181.550     8.625
 2999.9976   102.513    2.5058    0.2370     2.176   200.000     7.594
 3000.1500    80.490    2.4516    0.1876     1.719   200.000     9.070
 3000.3024    69.322    2.4189    0.2806     2.886   200.000     8.605
 3000.4548    72.161    2.3788    0.3134     2.538   178.084     8.430
 3000.6072    73.557    2.4787    0.2783     1.376   200.000     9.098
 3000.7596    74.365    2.4520    0.3246     1.541   168.913     8.777
 3000.9120   108.726    2.4637    0.2733     2.017   198.700     8.079
 3001.0644    93.601    2.4696    0.2823     2.864   195.104     8.271
 3001.2168    98.843    2.4252    0.2203     2.133   200.000     8.430
 3001.3692    92.141    2.3934    0.2161     2.151   200.000     8.659
 3001.5216    93.690    2.4529    0.3293     1.429   162.959     8.505
 3001.6740   101.351    2.4363    0.2845     0.831   192.551     8.042
 3001.8264   100.852    2.4946    0.2738     3.660   200.000     8.973
 3001.9788    98.345    2.4000    0.2474     1.317   200.000     8.653
 3002.1312    95.596    2.4533    0.3187     1.657   179.152     9.037
 3002.2836    98.120    2.4057    0.3107     0.823   172.046     8.149
 3002.4360   108.162    2.5187    0.2912     2.864   183.801     8.743
 3002.5884   137.939    2.4229    0.2790     0.485   200.000     8.851
 3002.7408    85.742    2.3980    0.3734     2.175   148.616     8.700
 3002.8932    85.719    2.4542    0.2620     1.962   192.704     8.337
 3003.0456   103.043    2.3635    0.3092     1.252   173.372     8.406
 3003.1980    82.717    2.4021    0.3276     0.797   173.377     8.373
 3003.3504   117.475    2.5029    0.2417     1.046   200.000     8.215
 3003.5028    86.130    2.4372    0.3370     1.929   161.271     7.658
 3003.6552    88.940    2.6017    0.2962     1.896   183.903     8.267
 3003.8076   105.089    2.4203    0.2517     1.304   200.000     8.183
 3003.9600    81.399    2.4861    0.2526     4.210   200.000     8.518
 3004.1124    86.426    2.3990    0.2999     4.253   183.332     8.617
 3004.2648    86.055    2.4131    0.3104     1.560   183.357     8.405
 3004.4172   101.439    2.4380    0.2905     1.907   190.072     8.370
 3004.5696    68.582    2.4654    0.2854     2.264   193.335     8.949
 3004.7220    90.933    2.4670    0.2371     1.808   200.000     8.177
 3004.8744    80.176    2.4336    0.3872     0.747   139.843     8.581
 3005.0268   100.459    2.4720    0.2764     1.861   200.000     8.467
 3005.1792    97.584    2.4689    0.3724     0.681   141.130     8.639
 3005.3316    96.656    2.4602    0.2016     2.269   200.000     8.515
