~VERSION INFORMATION
 VERS.                 2.0    : CWLS LOG ASCII STANDARD
 WRAP.                 NO     : ONE LINE PER DEPTH STEP
~WELL INFORMATION
 WELL.                 Bonaparte-2    : Well name
 FLD .                 Bonaparte Basin         : Field
 CTRY.                 Australia       : Country
 STRT.M                1800.0000 : START DEPTH
 STOP.M                3200.0000   : STOP DEPTH
 STEP.M                0.1524        : STEP
 NULL.                 -999.25          : NULL VALUE
 SRVC.                 SubsurfAI        : Service company
~CURVE INFORMATION
 DEPT.M                              : Depth
 GR  .GAPI                           : Gamma Ray
 RHOB.G/C3                           : Bulk Density
 NPHI.V/V                            : Neutron Porosity
 RT  .OHMM                           : True Resistivity
 DT  .US/F                           : Sonic
 CALI.IN                             : Caliper
~PARAMETER INFORMATION
 LAT .                 -12.5432   : Latitude
 LON .                 128.6781   : Longitude
 DESC.                 Bonaparte Basin — Triassic Plover Fm gas condensate
~A  DEPT        GR        RHOB      NPHI      RT        DT        CALI
# ...
 2161.6452    33.857    2.2331    0.1531    66.877   200.000     8.413
 2161.7976    27.288    2.2560    0.1362    44.473   200.000     8.645
 2161.9500    31.276    2.1803    0.1830    80.010   200.000     8.709
 2162.1024    33.688    2.2936    0.1814   137.828   200.000     7.775
 2162.2548    24.678    2.2731    0.1290    76.327   200.000     8.296
 2162.4072    34.460    2.2749    0.1609    82.747   200.000     8.149
 2162.5596    36.423    2.3213    0.2015    50.072   200.000     8.457
 2162.7120    30.124    2.2739    0.1792    40.786   200.000     9.032
 2162.8644    32.070    2.3545    0.1760    39.604   200.000     8.730
 2163.0168    30.124    2.2747    0.1689    51.233   200.000     7.933
 2163.1692    25.428    2.2828    0.1825    63.893   200.000     8.987
 2163.3216    30.504    2.2493    0.1573    47.167   200.000     8.956
 2163.4740    24.238    2.3058    0.1650   112.309   200.000     9.096
 2163.6264    23.591    2.2820    0.1469   217.064   200.000     8.321
 2163.7788    26.340    2.1963    0.1723    46.297   200.000     9.474
 2163.9312    36.618    2.2461    0.1150    55.592   200.000     7.949
 2164.0836    28.822    2.2886    0.2190    58.649   200.000     8.803
 2164.2360    39.625    2.2486    0.1991    61.367   200.000     7.813
 2164.3884    26.145    2.2736    0.1814   101.977   200.000     8.880
 2164.5408    30.013    2.2190    0.1675    69.965   200.000     8.049
 2164.6932    32.453    2.3073    0.1491    97.688   200.000     8.901
 2164.8456    31.332    2.3037    0.1464    53.730   200.000     8.427
 2164.9980    27.289    2.2546    0.1246    37.948   200.000     8.423
 2165.1504    33.894    2.2130    0.1816    45.781   200.000     8.917
 2165.3028    34.031    2.1568    0.1846    71.182   200.000     8.551
 2165.4552    34.957    2.2458    0.1709    64.954   200.000     8.837
 2165.6076    34.542    2.2625    0.1658    55.275   200.000     8.528
 2165.7600    39.323    2.2274    0.1928    61.596   200.000     9.169
 2165.9124    29.097    2.2276    0.1930    35.160   200.000     8.518
 2166.0648    21.057    2.3022    0.1564    16.438   200.000     8.197
 2166.2172    29.797    2.2495    0.2015    90.112   200.000     8.929
 2166.3696    30.453    2.2098    0.1240    53.619   200.000     8.170
 2166.5220    39.439    2.3644    0.1635    56.053   200.000     9.259
 2166.6744    33.436    2.2873    0.1936   113.304   200.000     8.656
 2166.8268    33.865    2.2534    0.1892    67.766   200.000     8.297
 2166.9792    32.485    2.2401    0.1327   146.799   200.000     8.407
 2167.1316    36.558    2.2832    0.1553    73.396   200.000     9.459
 2167.2840    31.821    2.2821    0.1531   108.407   200.000     8.964
 2167.4364    27.135    2.2972    0.1697   130.669   200.000     8.591
 2167.5888    17.672    2.2619    0.1357   136.484   200.000     8.500
 2167.7412    21.271    2.2903    0.1432    92.577   200.000     8.431
 2167.8936    23.497    2.3514    0.1776    36.046   200.000     8.758
 2168.0460    31.377    2.2458    0.1847    91.583   200.000     8.232
 2168.1984    20.891    2.2449    0.2004    68.386   200.000     8.549
 2168.3508    36.461    2.1789    0.1664   101.637   200.000     8.288
 2168.5032    32.542    2.2769    0.1836   101.313   200.000     9.284
 2168.6556    30.749    2.2629    0.1613    39.746   200.000     9.115
 2168.8080    27.899    2.3470    0.1534    53.565   200.000     9.011
 2168.9604    35.178    2.3085    0.1610   148.736   200.000     7.817
 2169.1128    22.784    2.2549    0.1755   117.612   200.000     7.925
 2169.2652    21.375    2.2792    0.1888    91.462   200.000     8.468
 2169.4176    30.872    2.2678    0.1380    90.673   200.000     9.206
 2169.5700    22.102    2.3668    0.1470    89.429   200.000     8.061
 2169.7224    33.858    2.2121    0.2004    26.576   200.000     9.070
 2169.8748    29.197    2.3011    0.1742   119.224   200.000     8.365
 2170.0272    35.743    2.2705    0.1946    50.253   200.000     7.857
 2170.1796    27.401    2.2794    0.1412    62.200   200.000     9.436
 2170.3320    27.237    2.2238    0.1928    76.877   200.000     8.860
 2170.4844    31.386    2.2941    0.1564   100.015   200.000     9.385
 2170.6368    28.838    2.2827    0.2051    92.731   200.000     9.042
 2170.7892    32.786    2.2544    0.1463    43.004   200.000     8.154
 2170.9416    37.574    2.2631    0.1977    43.402   200.000     8.368
 2171.0940    27.750    2.0463    0.1788    92.029   200.000     8.454
 2171.2464    29.630    2.3221    0.1755    66.363   200.000     8.749
 2171.3988    27.905    2.1662    0.2147    39.832   200.000     7.840
 2171.5512    27.249    2.3785    0.1496    58.505   200.000     8.158
 2171.7036    26.709    2.2969    0.1595   108.201   200.000     8.377
 2171.8560    29.346    2.2732    0.1469    50.457   200.000     8.105
 2172.0084    24.836    2.3106    0.1953    47.238   200.000     8.129
 2172.1608    29.404    2.3773    0.1641   117.633   200.000     9.317
 2172.3132    30.255    2.2257    0.1880    82.771   200.000     8.307
 2172.4656    28.832    2.2905    0.1725    24.058   200.000     8.546
 2172.6180    19.873    2.2509    0.1933    44.832   200.000     7.964
 2172.7704    23.103    2.2516    0.1729   127.007   200.000     8.135
 2172.9228    26.627    2.3114    0.1531    50.156   200.000     8.051
 2173.0752    19.633    2.3063    0.1886    60.697   200.000     9.066
 2173.2276    31.395    2.1769    0.1818    57.884   200.000     8.050
 2173.3800    34.660    2.2956    0.1913    72.172   200.000     8.495
 2173.5324    33.600    2.3038    0.1163    64.854   200.000     8.511
 2173.6848    31.161    2.3246    0.2055    82.562   200.000     8.980
 2173.8372    16.001    2.2400    0.1857    84.571   200.000     8.370
 2173.9896    31.961    2.2229    0.1911   144.785   200.000     8.089
 2174.1420    32.211    2.2551    0.1745   126.827   200.000     8.291
 2174.2944    33.295    2.2700    0.1662    60.467   200.000     8.476
 2174.4468    24.423    2.2210    0.2046    94.028   200.000     7.921
 2174.5992    21.433    2.2429    0.2156   158.783   200.000     8.898
 2174.7516    32.944    2.3443    0.1293    33.228   200.000     8.972
 2174.9040    33.483    2.2245    0.1672    64.457   200.000     9.223
 2175.0564    29.946    2.2142    0.1850    40.058   200.000     8.426
 2175.2088    29.300    2.2379    0.1835   133.683   200.000     8.860
 2175.3612    38.281    2.2927    0.1715   101.000   200.000     8.640
 2175.5136    33.990    2.2578    0.1780    69.816   200.000     8.629
 2175.6660    24.093    2.1820    0.1604    77.002   200.000     8.005
 2175.8184    27.912    2.3738    0.2454   189.514   200.000     8.149
 2175.9708    23.656    2.2720    0.1664   102.253   200.000     8.866
 2176.1232    27.788    2.3173    0.1796   109.696   200.000     9.282
 2176.2756    26.132    2.3143    0.1557   122.752   200.000     9.080
 2176.4280    28.084    2.2906    0.1398    53.483   200.000     8.722
 2176.5804    28.292    2.2964    0.1660    60.213   200.000     8.062
 2176.7328    26.800    2.2470    0.1644    51.889   200.000     8.568
 2176.8852    30.979    2.2980    0.1701    60.775   200.000     8.831
 2177.0376    30.662    2.2734    0.1858    39.715   200.000     9.051
 2177.1900    31.252    2.2353    0.1475    62.103   200.000     8.657
 2177.3424    35.035    2.2732    0.1931    62.913   200.000     8.981
 2177.4948    29.700    2.2193    0.2067    62.613   200.000     7.510
 2177.6472    35.442    2.3081    0.1333    82.036   200.000     9.209
 2177.7996    30.918    2.2227    0.1499   182.082   200.000     7.551
 2177.9520    27.237    2.2901    0.1430    66.404   200.000     7.893
 2178.1044    35.816    2.2544    0.1915    40.555   200.000     8.559
 2178.2568    31.845    2.2907    0.1597    48.126   200.000     8.612
 2178.4092    33.393    2.2331    0.1898    53.685   200.000     8.679
 2178.5616    27.754    2.2954    0.2038    70.702   200.000     8.851
 2178.7140    34.965    2.3015    0.1633    57.566   200.000     8.779
