~VERSION INFORMATION
 VERS.                 2.0    : CWLS LOG ASCII STANDARD
 WRAP.                 NO     : ONE LINE PER DEPTH STEP
~WELL INFORMATION
 WELL.                 Carnarvon-1    : Well name
 FLD .                 Carnarvon Basin         : Field
 CTRY.                 Australia       : Country
 STRT.M                2500.0000 : START DEPTH
 STOP.M                4000.0000   : STOP DEPTH
 STEP.M                0.1524        : STEP
 NULL.                 -999.25          : NULL VALUE
 SRVC.                 SubsurfAI        : Service company
~CURVE INFORMATION
 DEPT.M                              : Depth
 GR  .GAPI                           : Gamma Ray
 RHOB.G/C3                           : Bulk Density
 NPHI.V/V                            : Neutron Porosity
 RT  .OHMM                           : True Resistivity
 DT  .US/F                           : Sonic
 CALI.IN                             : Caliper
~PARAMETER INFORMATION
 LAT .                 -22.3241   : Latitude
 LON .                 114.1234   : Longitude
 DESC.                 Carnarvon Basin — Jurassic Mungaroo Fm gas
~A  DEPT        GR        RHOB      NPHI      RT        DT        CALI
 2500.0000    75.716    2.5467    0.1770     1.682   200.000     8.660
 2500.1524    91.693    2.4327    0.3020     3.192   168.538     9.137
 2500.3048   103.050    2.4811    0.2514     0.939   200.000     8.932
 2500.4572   110.696    2.4409    0.2394     1.966   200.000     8.011
 2500.6096   125.622    2.5126    0.2396     3.731   200.000     8.394
 2500.7620    93.630    2.4115    0.2727     1.026   198.205     8.048
 2500.9144    76.008    2.5928    0.2985     2.407   170.432     8.821
 2501.0668    88.135    2.5233    0.2781     2.255   194.295     8.962
 2501.2192   100.806    2.4431    0.3067     2.282   172.456     8.100
 2501.3716    93.773    2.5182    0.3348     4.238   164.845     8.898
 2501.5240    99.552    2.5024    0.3879     2.437   141.667     8.377
 2501.6764    92.866    2.5401    0.2469     2.182   200.000     8.526
 2501.8288    87.113    2.4884    0.3076     0.778   169.555     7.936
 2501.9812    97.050    2.4453    0.3147     3.145   164.083     8.390
 2502.1336    90.436    2.5497    0.3624     2.246   157.133     8.401
 2502.2860    89.169    2.5318    0.3154     1.343   178.152     9.412
 2502.4384   103.894    2.4209    0.3261     3.985   169.243     8.583
 2502.5908   107.169    2.4902    0.2370     0.482   200.000     8.005
 2502.7432   107.091    2.4660    0.3003     3.147   185.770     8.259
 2502.8956    96.676    2.4690    0.3764     2.450   150.402     8.457
 2503.0480    94.592    2.4276    0.2478     1.671   200.000     9.118
 2503.2004    96.468    2.5054    0.3280     2.225   162.926     9.352
 2503.3528    75.839    2.4040    0.3057     1.559   182.735     8.154
 2503.5052    95.581    2.4945    0.3488     3.798   170.188     8.395
 2503.6576    88.495    2.5149    0.3017     1.987   182.739     8.210
 2503.8100    74.265    2.4803    0.2793     1.976   193.847     8.675
 2503.9624    91.263    2.4233    0.3052     1.092   182.252     8.306
 2504.1148    81.060    2.5190    0.3090     1.514   179.105     8.916
 2504.2672    95.280    2.4898    0.3788     1.375   137.378     8.300
 2504.4196    89.728    2.4518    0.3011     2.740   181.709     9.351
 2504.5720    92.098    2.4737    0.2587     2.874   200.000     8.273
 2504.7244    94.917    2.4736    0.2345     2.025   200.000     9.078
 2504.8768   105.113    2.4551    0.2565     3.131   200.000     8.665
 2505.0292    92.977    2.4216    0.2862     2.638   187.061     8.901
 2505.1816    91.611    2.5074    0.2986     0.981   181.147     8.565
 2505.3340    94.115    2.4599    0.2717     2.294   200.000     8.128
 2505.4864    77.695    2.5202    0.3075     1.158   182.061     8.694
 2505.6388   100.509    2.4486    0.3624     1.584   155.192     8.149
 2505.7912   103.600    2.3892    0.2805     1.692   188.314     7.941
 2505.9436    95.398    2.5195    0.2367     1.707   200.000     8.321
 2506.0960   116.002    2.4857    0.3062     1.210   175.949     8.816
 2506.2484    89.082    2.5359    0.2383     1.402   200.000     8.676
 2506.4008    76.642    2.4287    0.2848     1.581   200.000     8.621
 2506.5532    88.698    2.4237    0.3060     2.942   178.491     8.178
 2506.7056   102.892    2.4815    0.2860     2.902   192.266     8.928
 2506.8580    99.152    2.4333    0.3048     1.621   188.801     8.442
 2507.0104    67.018    2.4414    0.2345     1.640   200.000     9.069
 2507.1628    94.756    2.4019    0.3882     2.112   126.738     8.485
 2507.3152   118.308    2.5967    0.2824     1.542   200.000     8.208
 2507.4676   105.947    2.5266    0.3629     4.388   154.017     8.558
 2507.6200    92.591    2.4842    0.3399     1.247   167.009     8.248
 2507.7724    97.291    2.5009    0.2187     3.188   200.000     8.164
 2507.9248   110.939    2.4681    0.3442     2.614   164.769     8.365
 2508.0772   108.358    2.5259    0.2598     1.980   200.000     8.000
 2508.2296   109.065    2.4182    0.2425     1.507   200.000     8.462
 2508.3820    95.695    2.4867    0.3267     1.237   168.183     7.571
 2508.5344   102.018    2.4824    0.2838     3.369   196.442     7.840
 2508.6868    88.748    2.5196    0.2761     1.511   193.023     8.288
 2508.8392    94.283    2.4342    0.3110     8.364   175.961     8.640
 2508.9916    88.663    2.3756    0.3196     1.607   181.778     9.005
 2509.1440   115.511    2.4833    0.3293     2.652   157.807     8.458
 2509.2964   105.285    2.4399    0.3304     4.449   166.598     8.598
 2509.4488    87.817    2.5007    0.3241     4.534   174.631     8.704
 2509.6012   114.378    2.5366    0.2167     3.828   200.000     8.664
 2509.7536    86.105    2.3657    0.3088     2.661   172.724     8.672
 2509.9060    96.088    2.4720    0.3188     1.326   177.181     8.763
 2510.0584    88.277    2.5344    0.2882     0.992   191.174     8.911
 2510.2108    94.097    2.4617    0.3019     1.731   182.520     8.099
 2510.3632    92.727    2.4744    0.2790     1.141   200.000     8.979
 2510.5156    94.030    2.4144    0.3071     3.344   178.772     9.125
 2510.6680   107.446    2.4743    0.2746     2.688   200.000     8.746
 2510.8204   105.358    2.3830    0.2334     1.345   200.000     8.568
 2510.9728   101.787    2.4681    0.2668     1.438   200.000     8.386
 2511.1252    91.952    2.5117    0.1786     1.465   200.000     8.121
 2511.2776   102.058    2.4887    0.2564     1.422   200.000     8.452
 2511.4300   110.071    2.5422    0.3159     1.804   172.124     8.475
 2511.5824   108.085    2.4413    0.3421     1.524   158.956     8.316
 2511.7348   113.441    2.5153    0.2457     5.293   200.000     8.891
 2511.8872   100.737    2.5372    0.3678     1.011   148.381     8.886
 2512.0396    98.392    2.4267    0.2888     1.494   199.818     8.744
 2512.1920   112.978    2.5068    0.3180     1.759   179.917     8.585
 2512.3444   102.250    2.4538    0.2125     1.216   200.000     8.514
 2512.4968    85.294    2.4294    0.2822     1.853   195.049     8.628
 2512.6492   107.233    2.3856    0.2868     1.198   192.462     8.420
 2512.8016    87.429    2.4852    0.2568     5.493   200.000     8.482
 2512.9540    87.613    2.4690    0.2387     2.255   200.000     8.492
 2513.1064   109.004    2.4586    0.2674     2.218   199.099     8.043
 2513.2588    74.479    2.4269    0.2770     0.833   195.167     8.353
 2513.4112   104.836    2.5222    0.2868     0.640   191.155     8.460
 2513.5636    80.528    2.4771    0.2556     2.656   200.000     8.664
 2513.7160    94.257    2.5083    0.2691     2.714   200.000     9.377
 2513.8684   111.370    2.4874    0.2781     1.956   194.353     8.480
 2514.0208    85.784    2.4177    0.2765     0.961   199.943     8.573
 2514.1732    80.368    2.4929    0.2567     2.772   200.000     8.173
 2514.3256    99.765    2.4324    0.2353     4.492   200.000     8.358
 2514.4780    90.553    2.4990    0.2295     1.881   200.000     8.650
 2514.6304    93.479    2.4777    0.2531     2.131   200.000     8.113
 2514.7828    86.806    2.5637    0.2628     1.986   200.000     8.730
 2514.9352   112.243    2.5160    0.3286     3.207   170.195     8.915
 2515.0876    80.594    2.4834    0.2453     4.529   200.000     8.418
 2515.2400   112.536    2.5129    0.3506     1.584   156.829     8.965
 2515.3924    88.372    2.5072    0.3096     1.382   171.799     8.442
 2515.5448   101.318    2.4480    0.3163     1.947   177.706     8.142
 2515.6972    89.720    2.4319    0.3206     1.248   161.745     8.953
 2515.8496    98.765    2.4839    0.3503     2.435   161.247     8.234
 2516.0020   123.845    2.4453    0.3074     1.787   189.090     8.476
 2516.1544   119.377    2.4253    0.3332     2.441   167.872     8.383
 2516.3068    86.710    2.4271    0.3319     3.194   174.937     8.238
 2516.4592    81.284    2.4376    0.3355     1.768   171.702     8.238
 2516.6116   100.396    2.4541    0.3715     2.961   151.048     8.702
 2516.7640    74.161    2.5128    0.2595     1.473   200.000     8.401
 2516.9164    96.559    2.4944    0.2951     2.222   191.035     8.281
 2517.0688   100.525    2.4227    0.3185     1.497   170.808     8.654
