~VERSION INFORMATION
 VERS.                 2.0    : CWLS LOG ASCII STANDARD
 WRAP.                 NO     : ONE LINE PER DEPTH STEP
~WELL INFORMATION
 WELL.                 Carnarvon-1    : Well name
 FLD .                 Carnarvon Basin         : Field
 CTRY.                 Australia       : Country
 STRT.M                2500.0000 : START DEPTH
 STOP.M                4000.0000   : STOP DEPTH
 STEP.M                0.1524        : STEP
 NULL.                 -999.25          : NULL VALUE
 SRVC.                 SubsurfAI        : Service company
~CURVE INFORMATION
 DEPT.M                              : Depth
 GR  .GAPI                           : Gamma Ray
 RHOB.G/C3                           : Bulk Density
 NPHI.V/V                            : Neutron Porosity
 RT  .OHMM                           : True Resistivity
 DT  .US/F                           : Sonic
 CALI.IN                             : Caliper
~PARAMETER INFORMATION
 LAT .                 -22.3241   : Latitude
 LON .                 114.1234   : Longitude
 DESC.                 Carnarvon Basin — Jurassic Mungaroo Fm gas
~A  DEPT        GR        RHOB      NPHI      RT        DT        CALI
# ...
 2896.0876    22.709    2.2694    0.1456    42.652   200.000     8.410
 2896.2400    23.880    2.2163    0.2519    27.556   200.000     8.155
 2896.3924    28.473    2.2532    0.1811    38.834   200.000     8.777
 2896.5448    29.325    2.2409    0.1479    90.011   200.000     8.575
 2896.6972    27.677    2.2823    0.2213   133.452   200.000     8.547
 2896.8496    24.539    2.1742    0.1685    53.876   200.000     8.248
 2897.0020    28.798    2.2018    0.1691    56.019   200.000     8.620
 2897.1544    35.460    2.1120    0.1812    64.447   200.000     8.188
 2897.3068    32.399    2.2651    0.1931    75.586   200.000     8.384
 2897.4592    30.907    2.2800    0.2422    49.063   200.000     8.816
 2897.6116    36.361    2.2265    0.2231   143.586   200.000     8.513
 2897.7640    29.958    2.2066    0.1815    74.477   200.000     8.608
 2897.9164    22.821    2.1925    0.1331   142.730   200.000     8.261
 2898.0688    21.852    2.2487    0.1771    70.128   200.000     8.691
 2898.2212    21.602    2.2925    0.1833   158.153   200.000     8.113
 2898.3736    35.750    2.2412    0.1670   176.355   200.000     8.729
 2898.5260    29.551    2.2082    0.2037    77.716   200.000     8.551
 2898.6784    20.154    2.2282    0.2066    47.570   200.000     7.723
 2898.8308    21.216    2.1961    0.1993    87.952   200.000     9.043
 2898.9832    26.654    2.2811    0.2045    89.940   200.000     8.640
 2899.1356    28.012    2.3372    0.1984   275.914   200.000     8.392
 2899.2880    31.951    2.2401    0.1891   156.240   200.000     8.064
 2899.4404    28.139    2.2904    0.1674    57.199   200.000     9.124
 2899.5928    36.501    2.2461    0.2027    33.578   200.000     8.171
 2899.7452    24.344    2.2775    0.2097   109.943   200.000     8.806
 2899.8976    28.518    2.1880    0.2056    44.707   200.000     8.419
 2900.0500    28.259    2.1742    0.2090    40.799   200.000     7.501
 2900.2024    31.665    2.2265    0.1672   118.567   200.000     8.395
 2900.3548    26.303    2.2564    0.1938    51.310   200.000     8.034
 2900.5072    28.735    2.2134    0.1897   235.556   200.000     9.044
 2900.6596    18.773    2.2440    0.1268    77.147   200.000     8.588
 2900.8120    32.382    2.2019    0.1826   111.850   200.000     9.466
 2900.9644    32.315    2.2613    0.1751   152.375   200.000     8.292
 2901.1168    28.078    2.2328    0.1840   114.875   200.000     8.010
 2901.2692    22.692    2.2294    0.1758   102.196   200.000     8.482
 2901.4216    22.271    2.2674    0.2018    62.156   200.000     7.994
 2901.5740    22.551    2.2579    0.1990    48.077   200.000     8.415
 2901.7264    33.026    2.2457    0.1849    25.394   200.000     9.129
 2901.8788    27.956    2.2490    0.1901    27.968   200.000     8.187
 2902.0312    22.876    2.2493    0.1810    58.497   200.000     8.821
 2902.1836    35.146    2.1963    0.1769   193.565   200.000     8.314
 2902.3360    29.645    2.3120    0.1943    65.247   200.000     8.617
 2902.4884    23.834    2.2736    0.1638    46.868   200.000     7.984
 2902.6408    22.447    2.2730    0.1724   111.393   200.000     8.159
 2902.7932    26.252    2.1785    0.2214   130.995   200.000     8.602
 2902.9456    25.848    2.2645    0.2225    61.014   200.000     8.256
 2903.0980    29.714    2.2223    0.1826   140.886   200.000     8.750
 2903.2504    24.015    2.2349    0.1280    82.638   200.000     8.697
 2903.4028    27.437    2.2115    0.1783    87.760   200.000     7.998
 2903.5552    25.334    2.2465    0.1856    91.956   200.000     8.478
 2903.7076    31.276    2.2235    0.2026   102.783   200.000     8.860
 2903.8600    22.637    2.3070    0.1963   121.662   200.000     8.575
 2904.0124    34.992    2.2008    0.1974    91.796   200.000     8.051
 2904.1648    31.647    2.1366    0.1900    48.526   200.000     8.416
 2904.3172    27.048    2.2754    0.1753   102.732   200.000     8.873
 2904.4696    20.632    2.2599    0.1952    65.935   200.000     8.372
 2904.6220    30.891    2.1903    0.1821   145.706   200.000     8.431
 2904.7744    32.040    2.2023    0.1498   107.911   200.000     8.156
 2904.9268    31.959    2.2401    0.2238    34.961   200.000     8.772
 2905.0792    26.022    2.3337    0.1791   122.773   200.000     9.012
 2905.2316    26.446    2.2729    0.1824    33.683   200.000     8.179
 2905.3840    16.283    2.2257    0.1704    46.851   200.000     8.011
 2905.5364    30.636    2.1794    0.1859    67.787   200.000     8.360
 2905.6888    29.384    2.2525    0.1591   105.255   200.000     8.280
 2905.8412    31.058    2.2147    0.1828    55.714   200.000     8.641
 2905.9936    25.294    2.2794    0.2083   157.517   200.000     9.163
 2906.1460    19.167    2.2782    0.1891   130.037   200.000     9.288
 2906.2984    21.692    2.2437    0.1674    63.036   200.000     8.971
 2906.4508    30.323    2.2378    0.1806   118.921   200.000     8.932
 2906.6032    26.397    2.2446    0.1974   165.879   200.000     8.935
 2906.7556    33.971    2.2236    0.1842    76.612   200.000     8.642
 2906.9080    32.223    2.1918    0.1931    49.475   200.000     8.911
 2907.0604    24.093    2.2079    0.1221   179.862   200.000     8.391
 2907.2128    35.169    2.1859    0.2052   111.197   200.000     8.100
 2907.3652    28.681    2.3359    0.2099    62.951   200.000     8.234
 2907.5176    31.142    2.2620    0.2205   167.897   200.000     8.563
 2907.6700    28.773    2.2120    0.1941   148.656   200.000     8.454
 2907.8224    38.610    2.1838    0.2341    58.419   200.000     9.111
 2907.9748    26.650    2.2234    0.1912   101.399   200.000     8.411
 2908.1272    26.109    2.1881    0.1720   138.963   200.000     7.922
 2908.2796    31.125    2.2471    0.2007   165.373   200.000     7.990
 2908.4320    25.766    2.2295    0.1799    86.958   200.000     8.686
 2908.5844    32.148    2.2741    0.2192    71.747   200.000     8.722
 2908.7368    26.455    2.2272    0.1822   101.378   200.000     8.289
 2908.8892    28.145    2.2016    0.2069    52.564   200.000     8.342
 2909.0416    24.996    2.1694    0.1306    67.821   200.000     8.352
 2909.1940    25.263    2.2486    0.1574   140.261   200.000     8.568
 2909.3464    34.085    2.1790    0.1877   217.173   200.000     8.150
 2909.4988    39.065    2.2764    0.1791    97.134   200.000     8.421
 2909.6512    25.888    2.2375    0.1869   107.179   200.000     8.059
 2909.8036    34.643    2.2205    0.1407   101.917   200.000     7.954
 2909.9560    31.012    2.2267    0.1366    49.036   200.000     8.866
 2910.1084    31.073    2.2040    0.2144    80.283   200.000     8.423
 2910.2608    27.633    2.2149    0.2116   136.269   200.000     8.687
 2910.4132    25.363    2.3248    0.2168   183.690   200.000     8.157
 2910.5656    27.510    2.2660    0.1703    62.784   200.000     9.144
 2910.7180    27.178    2.1574    0.1870    73.668   200.000     8.269
 2910.8704    26.158    2.2449    0.1627   111.152   200.000     8.631
 2911.0228    25.720    2.2435    0.2009   116.297   200.000     8.342
 2911.1752    25.409    2.2549    0.1871    52.786   200.000     8.759
 2911.3276    27.216    2.2061    0.1873    65.503   200.000     8.413
 2911.4800    18.961    2.2370    0.1932    73.997   200.000     8.770
 2911.6324    36.502    2.1521    0.2317    65.919   200.000     8.672
 2911.7848    30.614    2.2599    0.1914   134.204   200.000     9.633
 2911.9372    29.982    2.2618    0.1643   172.910   200.000     8.773
 2912.0896    38.711    2.2566    0.2085    40.062   200.000     8.390
 2912.2420    32.451    2.2871    0.2153    61.721   200.000     8.679
 2912.3944    29.699    2.2352    0.1227    79.050   200.000     8.673
 2912.5468    31.083    2.2386    0.1644    90.740   200.000     8.161
 2912.6992    30.978    2.2321    0.1165    24.599   200.000     8.401
 2912.8516    23.723    2.2457    0.1531    91.707   200.000     8.993
 2913.0040    23.931    2.2442    0.1752    82.760   200.000     8.895
 2913.1564    26.025    2.2692    0.1915   167.205   200.000     8.873
