~VERSION INFORMATION
 VERS.                 2.0    : CWLS LOG ASCII STANDARD
 WRAP.                 NO     : ONE LINE PER DEPTH STEP
~WELL INFORMATION
 WELL.                 Carnarvon-1    : Well name
 FLD .                 Carnarvon Basin         : Field
 CTRY.                 Australia       : Country
 STRT.M                2500.0000 : START DEPTH
 STOP.M                4000.0000   : STOP DEPTH
 STEP.M                0.1524        : STEP
 NULL.                 -999.25          : NULL VALUE
 SRVC.                 SubsurfAI        : Service company
~CURVE INFORMATION
 DEPT.M                              : Depth
 GR  .GAPI                           : Gamma Ray
 RHOB.G/C3                           : Bulk Density
 NPHI.V/V                            : Neutron Porosity
 RT  .OHMM                           : True Resistivity
 DT  .US/F                           : Sonic
 CALI.IN                             : Caliper
~PARAMETER INFORMATION
 LAT .                 -22.3241   : Latitude
 LON .                 114.1234   : Longitude
 DESC.                 Carnarvon Basin — Jurassic Mungaroo Fm gas
~A  DEPT        GR        RHOB      NPHI      RT        DT        CALI
# ...
 3395.5024    16.403    2.6571    0.0669   160.788   200.000     7.581
 3395.6548     6.890    2.6808    0.0908   342.428   200.000     8.392
 3395.8072    10.158    2.6390    0.0843   119.346   200.000     8.716
 3395.9596    10.889    2.6804    0.0530   148.113   200.000     8.257
 3396.1120    10.558    2.4986    0.0742   244.567   200.000     9.210
 3396.2644     7.005    2.6901    0.0665   285.518   200.000     8.314
 3396.4168    12.465    2.6843    0.0682   154.157   200.000     7.851
 3396.5692    13.638    2.7473    0.0821    93.899   200.000     8.834
 3396.7216     4.342    2.6207    0.0722   138.228   200.000     8.866
 3396.8740     7.087    2.6934    0.0636   114.402   200.000     9.379
 3397.0264    10.006    2.5905    0.0474   112.254   200.000     8.744
 3397.1788    15.110    2.7513    0.0884   492.588   200.000     8.309
 3397.3312    13.022    2.6304    0.0777   125.339   200.000     8.820
 3397.4836    14.335    2.6366    0.0622   293.074   200.000     8.579
 3397.6360     8.572    2.6438    0.0660   164.002   200.000     9.035
 3397.7884    13.345    2.6968    0.0656   253.919   200.000     8.969
 3397.9408     9.597    2.6647    0.0889   187.255   200.000     8.813
 3398.0932     7.407    2.7548    0.0747   130.980   200.000     8.568
 3398.2456     9.826    2.6169    0.0591   104.834   200.000     8.489
 3398.3980     7.633    2.6969    0.0693   228.650   200.000     9.201
 3398.5504     8.581    2.6311    0.0735   103.551   200.000     7.898
 3398.7028    10.284    2.6008    0.0672   261.058   200.000     8.201
 3398.8552     6.968    2.6678    0.0851    90.930   200.000     8.901
 3399.0076    16.569    2.6296    0.0772   342.252   200.000     8.760
 3399.1600    16.872    2.6121    0.0649   117.278   200.000     9.317
 3399.3124     7.586    2.6685    0.0713   223.645   200.000     8.583
 3399.4648    14.317    2.6460    0.0650   153.673   200.000     8.841
 3399.6172    12.230    2.6792    0.0722   450.496   200.000     8.960
 3399.7696    30.251    2.3211    0.1823    41.623   200.000     7.836
 3399.9220    31.841    2.2715    0.2371    57.146   200.000     8.477
 3400.0744    25.356    2.2600    0.2383    48.755   200.000     8.132
 3400.2268    34.361    2.2202    0.2476    41.026   200.000     8.342
 3400.3792    33.818    2.2983    0.1686    76.968   200.000     7.861
 3400.5316    33.085    2.2716    0.2173    22.986   200.000     8.254
 3400.6840    29.307    2.2819    0.1854    53.805   200.000     8.453
 3400.8364    29.142    2.2236    0.1895    50.647   200.000     8.659
 3400.9888    50.175    2.2238    0.2267    67.171   200.000     8.546
 3401.1412    39.179    2.3230    0.2247    63.759   200.000     8.277
 3401.2936    35.764    2.3316    0.2170    72.988   200.000     8.968
 3401.4460    37.301    2.3248    0.2308    21.840   200.000     8.383
 3401.5984    41.206    2.2899    0.2259    18.161   200.000     8.617
 3401.7508    30.961    2.2309    0.1816    61.333   200.000     8.384
 3401.9032    35.642    2.3203    0.2099    28.765   200.000     9.182
 3402.0556    25.592    2.3069    0.1507   115.245   200.000     7.542
 3402.2080    32.086    2.3085    0.2264    43.398   200.000     8.211
 3402.3604    31.231    2.3081    0.1879    51.521   200.000     8.243
 3402.5128    28.795    2.2296    0.1777    41.169   200.000     8.897
 3402.6652    32.022    2.3065    0.1785    52.086   200.000     8.289
 3402.8176    35.035    2.2443    0.1892   171.907   200.000     8.625
 3402.9700    35.524    2.2404    0.1749    32.023   200.000     7.518
 3403.1224    26.400    2.2700    0.2536    64.026   200.000     8.009
 3403.2748    37.292    2.2527    0.1748    58.442   200.000     8.098
 3403.4272    37.257    2.3007    0.2399    61.893   200.000     8.704
 3403.5796    29.003    2.3242    0.2200   164.963   200.000     8.471
 3403.7320    30.237    2.2316    0.1766    31.709   200.000     9.276
 3403.8844    33.246    2.2698    0.2084   113.115   200.000     8.253
 3404.0368    29.588    2.2373    0.2442    78.080   200.000     8.281
 3404.1892    34.809    2.2032    0.2064    61.537   200.000     8.739
 3404.3416    23.240    2.2467    0.1597    16.825   200.000     8.112
 3404.4940    34.393    2.2972    0.1824    67.315   200.000     8.472
 3404.6464    31.928    2.2536    0.1720    71.858   200.000     9.131
 3404.7988    28.402    2.2355    0.1361    38.496   200.000     8.225
 3404.9512    31.670    2.2670    0.1963    48.413   200.000     7.974
 3405.1036    42.207    2.3294    0.2209    37.588   200.000     8.900
 3405.2560    30.002    2.2411    0.2335    82.929   200.000     9.391
 3405.4084    30.628    2.1953    0.2239    51.159   200.000     9.086
 3405.5608    36.516    2.2631    0.1707    18.123   200.000     8.547
 3405.7132    33.857    2.2400    0.1802    22.328   200.000     8.303
 3405.8656    34.461    2.3399    0.1967    94.242   200.000     8.298
 3406.0180    37.004    2.2622    0.2141    38.387   200.000     8.687
 3406.1704    33.458    2.2298    0.2477    89.591   200.000     7.971
 3406.3228    35.761    2.2893    0.2339   125.804   200.000     8.525
 3406.4752    31.947    2.2707    0.1946    45.897   200.000     8.275
 3406.6276    31.085    2.2620    0.1818    72.725   200.000     9.220
 3406.7800    30.243    2.2418    0.1514    45.352   200.000     8.522
 3406.9324    36.172    2.3030    0.2053    36.186   200.000     9.294
 3407.0848    27.448    2.3091    0.2259    47.965   200.000     9.055
 3407.2372    30.340    2.2940    0.2511    78.741   200.000     8.703
 3407.3896    30.827    2.2842    0.2447    26.086   200.000     7.946
 3407.5420    29.416    2.2102    0.2448    52.491   200.000     8.230
 3407.6944    31.529    2.2596    0.1765    47.609   200.000     8.402
 3407.8468    27.170    2.2604    0.2080    35.633   200.000     8.622
 3407.9992    35.807    2.2725    0.1949   118.087   200.000     9.144
 3408.1516    27.822    2.2307    0.1751    40.469   200.000     8.297
 3408.3040    27.387    2.3301    0.1812    78.927   200.000     8.424
 3408.4564    27.423    2.2458    0.1950    29.685   200.000     9.111
 3408.6088    27.873    2.2696    0.2033    48.735   200.000     7.700
 3408.7612    32.418    2.2433    0.2032    55.290   200.000     8.423
 3408.9136    37.850    2.2587    0.2143    66.978   200.000     7.814
 3409.0660    33.182    2.2069    0.1433    53.827   200.000     8.512
 3409.2184    33.463    2.2328    0.1585    30.364   200.000     8.314
 3409.3708    34.011    2.2362    0.1973   141.487   200.000     8.187
 3409.5232    32.897    2.2299    0.2104    12.460   200.000     8.651
 3409.6756    33.557    2.2657    0.2052    31.986   200.000     7.867
 3409.8280    21.635    2.3156    0.2013    22.739   200.000     8.538
 3409.9804    34.270    2.2490    0.2034   105.348   200.000     8.798
 3410.1328    30.463    2.2698    0.2043    83.114   200.000     9.315
 3410.2852    36.594    2.2763    0.2621    56.553   200.000     8.333
 3410.4376    29.408    2.2459    0.1999    82.330   200.000     8.543
 3410.5900    31.170    2.2147    0.2241    83.208   200.000     7.878
 3410.7424    28.882    2.2916    0.1937    28.960   200.000     8.537
 3410.8948    22.224    2.2905    0.1970    31.300   200.000     8.866
 3411.0472    27.469    2.3451    0.1587    53.401   200.000     8.443
 3411.1996    42.203    2.3400    0.1997    39.149   200.000     8.226
 3411.3520    34.248    2.3444    0.2460   131.862   200.000     7.173
 3411.5044    33.761    2.3160    0.2235    34.845   200.000     8.604
 3411.6568    33.374    2.2726    0.1779    67.736   200.000     8.566
 3411.8092    31.471    2.2464    0.1296    50.076   200.000     8.486
 3411.9616    28.563    2.2791    0.2395    83.991   200.000     8.398
 3412.1140    35.463    2.2338    0.2133    76.028   200.000     9.046
 3412.2664    36.448    2.3570    0.1500    37.942   200.000     8.349
 3412.4188    24.784    2.1996    0.1610    19.319   200.000     8.135
 3412.5712    32.670    2.2490    0.2025    38.031   200.000     8.149
