~VERSION INFORMATION
 VERS.                 2.0    : CWLS LOG ASCII STANDARD
 WRAP.                 NO     : ONE LINE PER DEPTH STEP
~WELL INFORMATION
 WELL.                 Carnarvon-1    : Well name
 FLD .                 Carnarvon Basin         : Field
 CTRY.                 Australia       : Country
 STRT.M                2500.0000 : START DEPTH
 STOP.M                4000.0000   : STOP DEPTH
 STEP.M                0.1524        : STEP
 NULL.                 -999.25          : NULL VALUE
 SRVC.                 SubsurfAI        : Service company
~CURVE INFORMATION
 DEPT.M                              : Depth
 GR  .GAPI                           : Gamma Ray
 RHOB.G/C3                           : Bulk Density
 NPHI.V/V                            : Neutron Porosity
 RT  .OHMM                           : True Resistivity
 DT  .US/F                           : Sonic
 CALI.IN                             : Caliper
~PARAMETER INFORMATION
 LAT .                 -22.3241   : Latitude
 LON .                 114.1234   : Longitude
 DESC.                 Carnarvon Basin — Jurassic Mungaroo Fm gas
~A  DEPT        GR        RHOB      NPHI      RT        DT        CALI
# ...
 3877.6960    69.934    2.4339    0.3213     2.481   167.353     8.478
 3877.8484    93.278    2.4288    0.3089     2.094   175.694     8.861
 3878.0008    83.076    2.4981    0.3017     2.681   181.874     8.490
 3878.1532    90.711    2.4691    0.3148     4.574   171.425     8.194
 3878.3056    99.174    2.4312    0.2677     2.184   200.000     8.280
 3878.4580   112.359    2.4330    0.2464     6.015   200.000     8.478
 3878.6104   101.258    2.5070    0.2786     1.922   192.131     7.610
 3878.7628    79.951    2.4604    0.2472     2.067   200.000     8.271
 3878.9152    88.051    2.3834    0.2645     3.895   200.000     8.119
 3879.0676   102.715    2.4077    0.3192     6.095   175.621     8.901
 3879.2200    78.490    2.4973    0.3178     1.968   169.476     8.747
 3879.3724    80.481    2.3569    0.1957     2.408   200.000     8.449
 3879.5248   113.248    2.4233    0.3164     3.983   171.350     8.494
 3879.6772    83.105    2.4352    0.2682     3.515   200.000     8.237
 3879.8296    73.014    2.4089    0.3157     1.779   170.421     8.158
 3879.9820    85.280    2.4102    0.2627     3.473   200.000     8.039
 3880.1344    86.331    2.3791    0.2918     1.806   196.109     9.173
 3880.2868    76.028    2.3542    0.1794     2.889   200.000     8.581
 3880.4392    80.560    2.3953    0.2529     3.073   200.000     8.180
 3880.5916    89.890    2.3472    0.2294     1.326   200.000     8.136
 3880.7440    83.575    2.5416    0.2374     1.371   200.000     8.592
 3880.8964    95.508    2.4254    0.2546     2.070   200.000     8.436
 3881.0488   112.066    2.4164    0.2756     3.815   193.003     8.681
 3881.2012   101.561    2.5158    0.2345     2.487   200.000     7.821
 3881.3536   101.487    2.5684    0.2044     2.880   200.000     7.927
 3881.5060    72.893    2.4723    0.1949     2.488   200.000     7.575
 3881.6584    84.502    2.4701    0.2973     3.275   180.408     8.795
 3881.8108    87.953    2.4784    0.2767     1.599   196.886     8.760
 3881.9632   106.418    2.3773    0.2183     1.798   200.000     8.584
 3882.1156    78.051    2.5002    0.2538     1.209   200.000     8.310
 3882.2680   125.202    2.4911    0.2545     0.856   200.000     8.624
 3882.4204    97.051    2.3879    0.2646     1.086   200.000     8.863
 3882.5728   110.610    2.4551    0.2521     1.282   200.000     8.959
 3882.7252    91.269    2.4085    0.2255     1.799   200.000     8.302
 3882.8776    86.570    2.4757    0.2510     0.454   200.000     8.682
 3883.0300    91.208    2.4679    0.1713     3.185   200.000     7.763
 3883.1824    75.545    2.5001    0.2758     1.195   187.062     9.031
 3883.3348    83.983    2.4669    0.3591     1.849   157.610     8.467
 3883.4872   110.270    2.4615    0.3162     2.838   173.489     8.679
 3883.6396    88.253    2.4900    0.3031     1.381   170.628     8.390
 3883.7920    85.047    2.4146    0.3114     5.824   168.929     8.268
 3883.9444    98.725    2.4379    0.2811     6.177   191.815     9.530
 3884.0968    90.369    2.4629    0.2677     1.342   200.000     8.502
 3884.2492    70.617    2.4367    0.2100     1.739   200.000     8.470
 3884.4016    63.346    2.4395    0.2818     2.207   198.647     8.034
 3884.5540    90.317    2.4771    0.3431     3.557   164.236     8.498
 3884.7064    93.716    2.3886    0.3444     1.010   166.136     7.765
 3884.8588    77.495    2.4043    0.3291     3.211   158.344     8.043
 3885.0112   114.204    2.4339    0.2522     5.715   200.000     8.112
 3885.1636    72.269    2.5274    0.2829     5.530   189.640     8.634
 3885.3160    97.751    2.4398    0.2489     1.819   200.000     8.687
 3885.4684    82.864    2.4450    0.2863     1.961   189.889     9.039
 3885.6208    96.935    2.4381    0.2208     5.958   200.000     8.151
 3885.7732   111.245    2.4182    0.2129     1.993   200.000     9.378
 3885.9256    94.140    2.5031    0.2834     1.453   192.776     8.011
 3886.0780    95.433    2.3629    0.2233     1.068   200.000     8.884
 3886.2304    76.155    2.4443    0.2441     4.688   200.000     8.737
 3886.3828    97.748    2.4519    0.2818     3.969   197.164     8.650
 3886.5352    95.812    2.4929    0.3043     2.227   178.296     8.352
 3886.6876    96.987    2.4814    0.2819     1.891   196.593     7.579
 3886.8400    82.526    2.5361    0.2459     1.443   200.000     8.804
 3886.9924    96.157    2.5323    0.3179     2.067   173.560     8.825
 3887.1448   108.238    2.3640    0.2381     2.381   200.000     8.534
 3887.2972   105.507    2.5062    0.1619     1.310   200.000     8.318
 3887.4496    79.941    2.4603    0.2713     2.143   192.913     8.157
 3887.6020   102.866    2.4904    0.3011     2.804   190.760     7.955
 3887.7544    99.362    2.4625    0.2888     0.616   191.284     9.122
 3887.9068   101.503    2.3306    0.2260     6.250   200.000     7.655
 3888.0592    90.539    2.3740    0.2697     4.537   200.000     9.028
 3888.2116    98.490    2.4489    0.2468     1.551   200.000     8.738
 3888.3640   121.550    2.3973    0.2992     1.733   186.395     8.181
 3888.5164    77.415    2.3960    0.2276     1.631   200.000     8.250
 3888.6688   102.405    2.3428    0.2752     1.174   191.141     7.901
 3888.8212   113.318    2.4117    0.2738     1.395   200.000     8.298
 3888.9736    97.216    2.4817    0.2741     2.444   195.871     8.838
 3889.1260    94.291    2.4301    0.2384     2.365   200.000     8.325
 3889.2784   104.239    2.5185    0.2880     5.942   192.042     8.270
 3889.4308    83.807    2.4220    0.3004    11.913   186.168     8.815
 3889.5832   100.360    2.5114    0.3235     2.989   172.076     8.210
 3889.7356    95.463    2.4168    0.2307     1.958   200.000     8.326
 3889.8880    79.165    2.4079    0.1874     4.404   200.000     8.940
 3890.0404   101.260    2.4196    0.2560     2.845   200.000     8.027
 3890.1928    83.188    2.4327    0.2831     1.134   200.000     8.665
 3890.3452   102.323    2.3805    0.2524     3.841   200.000     9.175
 3890.4976    74.040    2.4682    0.2878     2.061   188.845     8.100
 3890.6500   113.415    2.4648    0.2164     2.499   200.000     8.534
 3890.8024   104.328    2.5434    0.2648     2.356   200.000     7.907
 3890.9548    79.521    2.4046    0.2867     0.955   181.683     8.406
 3891.1072   102.311    2.4943    0.1826     3.186   200.000     9.030
 3891.2596    92.498    2.4027    0.2797     0.715   193.879     8.659
 3891.4120    68.628    2.4152    0.3071     1.496   180.085     8.596
 3891.5644   111.702    2.4744    0.1864     2.318   200.000     8.808
 3891.7168    85.973    2.5155    0.2349     1.380   200.000     8.064
 3891.8692    70.803    2.4514    0.2595     1.509   200.000     8.066
 3892.0216    89.854    2.3666    0.3070     2.423   185.967     8.188
 3892.1740    95.261    2.4732    0.2291     1.835   200.000     8.493
 3892.3264    81.236    2.4313    0.2330     2.088   200.000     8.213
 3892.4788    86.536    2.4199    0.3270     1.419   167.854     9.050
 3892.6312    70.466    2.5116    0.2556     3.536   200.000     8.583
 3892.7836    83.465    2.4667    0.2706     1.218   200.000     8.176
 3892.9360    79.909    2.4235    0.2902     5.000   185.560     8.340
 3893.0884    96.229    2.4520    0.3001     1.014   185.725     8.238
 3893.2408    81.710    2.4702    0.3199     2.632   176.048     8.383
 3893.3932    93.142    2.3863    0.2477     3.270   200.000     7.982
 3893.5456    99.454    2.3805    0.3624     2.728   149.818     8.393
 3893.6980    81.546    2.4075    0.2145     4.305   200.000     9.149
 3893.8504    92.899    2.4265    0.3336     2.780   156.612     8.028
 3894.0028    85.083    2.3571    0.2904     1.977   195.037     8.315
 3894.1552   105.444    2.4799    0.2628     1.825   200.000     8.331
 3894.3076    97.013    2.4910    0.2647     1.336   200.000     8.818
 3894.4600    98.745    2.5344    0.2936     0.933   179.214     8.816
 3894.6124    86.735    2.4392    0.3321     3.610   172.430     8.541
 3894.7648    98.367    2.4370    0.2844     1.542   193.082     8.119
