~VERSION INFORMATION
 VERS.                 2.0    : CWLS LOG ASCII STANDARD
 WRAP.                 NO     : ONE LINE PER DEPTH STEP
~WELL INFORMATION
 WELL.                 Carnarvon-1    : Well name
 FLD .                 Carnarvon Basin         : Field
 CTRY.                 Australia       : Country
 STRT.M                2500.0000 : START DEPTH
 STOP.M                4000.0000   : STOP DEPTH
 STEP.M                0.1524        : STEP
 NULL.                 -999.25          : NULL VALUE
 SRVC.                 SubsurfAI        : Service company
~CURVE INFORMATION
 DEPT.M                              : Depth
 GR  .GAPI                           : Gamma Ray
 RHOB.G/C3                           : Bulk Density
 NPHI.V/V                            : Neutron Porosity
 RT  .OHMM                           : True Resistivity
 DT  .US/F                           : Sonic
 CALI.IN                             : Caliper
~PARAMETER INFORMATION
 LAT .                 -22.3241   : Latitude
 LON .                 114.1234   : Longitude
 DESC.                 Carnarvon Basin — Jurassic Mungaroo Fm gas
~A  DEPT        GR        RHOB      NPHI      RT        DT        CALI
# ...
 3584.9356    26.874    2.3164    0.1913    60.345   200.000     8.658
 3585.0880    29.572    2.2390    0.1587    33.590   200.000     8.366
 3585.2404    28.053    2.3137    0.2308    81.658   200.000     8.043
 3585.3928    24.744    2.3447    0.2195    65.422   200.000     8.307
 3585.5452    33.859    2.3432    0.2176    50.554   200.000     8.627
 3585.6976    29.732    2.3055    0.2165    23.841   200.000     8.861
 3585.8500    26.104    2.3215    0.2426   138.117   200.000     8.679
 3586.0024    37.271    2.1740    0.1762    71.981   200.000     9.026
 3586.1548    36.413    2.3717    0.1683    58.813   200.000     8.131
 3586.3072    34.459    2.2176    0.1842    47.811   200.000     8.292
 3586.4596    37.822    2.3063    0.2067    71.785   200.000     9.500
 3586.6120    35.374    2.2033    0.1876   115.676   200.000     8.538
 3586.7644    30.202    2.3832    0.1472   149.077   200.000     8.177
 3586.9168    31.806    2.2978    0.2241    25.412   200.000     8.629
 3587.0692    39.374    2.2725    0.2487    54.297   200.000     8.448
 3587.2216    30.419    2.2195    0.2051    60.817   200.000     9.374
 3587.3740    29.498    2.2732    0.1657    50.120   200.000     8.299
 3587.5264    33.521    2.1231    0.1648    58.865   200.000     8.601
 3587.6788    41.918    2.2238    0.1935    78.993   200.000     8.972
 3587.8312    26.867    2.3327    0.2169    24.821   200.000     9.044
 3587.9836    34.143    2.2665    0.1805    86.323   200.000     8.539
 3588.1360    27.618    2.2318    0.2084    67.061   200.000     8.629
 3588.2884    33.599    2.2959    0.2002    84.363   200.000     7.524
 3588.4408    33.804    2.3286    0.1870    31.188   200.000     7.915
 3588.5932    34.953    2.1914    0.1950    72.948   200.000     8.067
 3588.7456    36.126    2.2372    0.1968    36.525   200.000     9.014
 3588.8980    30.599    2.3040    0.2052    76.301   200.000     7.188
 3589.0504    39.370    2.3211    0.1994    31.459   200.000     9.106
 3589.2028    42.028    2.3193    0.1845    79.520   200.000     8.600
 3589.3552    32.852    2.2496    0.2026    72.897   200.000     8.054
 3589.5076    32.534    2.2463    0.1904    36.455   200.000     8.962
 3589.6600    30.263    2.3243    0.1939    61.250   200.000     7.825
 3589.8124    29.851    2.2537    0.1808    72.826   200.000     8.882
 3589.9648    35.699    2.3121    0.2244    90.236   200.000     7.887
 3590.1172    31.875    2.3206    0.2277    99.964   200.000     8.571
 3590.2696    36.849    2.2729    0.2243    85.350   200.000     9.066
 3590.4220    31.722    2.2019    0.1530    49.819   200.000     8.287
 3590.5744    38.556    2.2609    0.1824    70.798   200.000     9.048
 3590.7268    30.723    2.3406    0.2119    54.474   200.000     8.669
 3590.8792    26.074    2.2908    0.1962    60.451   200.000     8.265
 3591.0316    31.530    2.2700    0.1837    54.811   200.000     8.294
 3591.1840    25.598    2.1765    0.1833    34.129   200.000     8.361
 3591.3364    30.589    2.2094    0.1878    93.303   200.000     8.123
 3591.4888    37.278    2.2239    0.2345    41.406   200.000     8.530
 3591.6412    41.410    2.2624    0.2117    57.146   200.000     8.607
 3591.7936    37.620    2.3287    0.1918    56.568   200.000     8.806
 3591.9460    32.415    2.3515    0.2570    47.172   200.000     8.414
 3592.0984    30.431    2.2726    0.1600    71.902   200.000     7.918
 3592.2508    35.348    2.2996    0.2061    71.081   200.000     8.417
 3592.4032    27.577    2.2687    0.1602    81.957   200.000     8.499
 3592.5556    36.305    2.1604    0.1247    44.592   200.000     8.355
 3592.7080    37.750    2.2787    0.1448    77.200   200.000     8.429
 3592.8604    35.096    2.2680    0.1659    46.124   200.000     8.567
 3593.0128    25.168    2.3041    0.2056    41.544   200.000     8.970
 3593.1652    29.042    2.3662    0.2430    45.722   200.000     8.739
 3593.3176    32.028    2.3524    0.1685    55.349   200.000     8.830
 3593.4700    27.909    2.2955    0.2127   116.615   200.000     8.450
 3593.6224    26.297    2.2202    0.2366    66.266   200.000     8.524
 3593.7748    38.855    2.2635    0.1465    67.852   200.000     8.277
 3593.9272    32.291    2.2554    0.1957    61.589   200.000     8.984
 3594.0796    30.649    2.2613    0.1994    16.501   200.000     8.545
 3594.2320    37.215    2.2698    0.2253    85.033   200.000     8.086
 3594.3844    33.569    2.2583    0.1730    72.075   200.000     8.519
 3594.5368    38.048    2.2934    0.2160   121.795   200.000     8.351
 3594.6892    30.666    2.3155    0.1987   143.441   200.000     8.788
 3594.8416    38.610    2.2612    0.1999    93.393   200.000     9.074
 3594.9940    35.484    2.2158    0.1623    55.558   200.000     7.847
 3595.1464    28.527    2.2951    0.2652    76.292   200.000     9.226
 3595.2988    30.305    2.3340    0.2362    49.566   200.000     7.702
 3595.4512    32.336    2.3055    0.2317    20.678   200.000     8.332
 3595.6036    36.208    2.2682    0.2232    54.880   200.000     8.508
 3595.7560    28.115    2.2634    0.2174    32.949   200.000     8.415
 3595.9084    34.661    2.3538    0.2065    59.544   200.000     8.606
 3596.0608    33.430    2.2789    0.1973    30.676   200.000     9.476
 3596.2132    39.388    2.2407    0.1728    39.469   200.000     9.077
 3596.3656    26.864    2.2801    0.1973   117.552   200.000     8.837
 3596.5180    31.469    2.2679    0.1532    59.649   200.000     8.900
 3596.6704    29.045    2.2389    0.2160    69.443   200.000     8.465
 3596.8228    34.346    2.2149    0.1504    54.326   200.000     8.579
 3596.9752    26.449    2.2939    0.2442    33.518   200.000     8.491
 3597.1276    23.351    2.2693    0.2195    43.140   200.000     8.629
 3597.2800    31.974    2.1770    0.1547    93.071   200.000     8.440
 3597.4324    30.523    2.2495    0.2003    70.979   200.000     9.239
 3597.5848    18.324    2.3442    0.2217    32.024   200.000     8.262
 3597.7372    34.316    2.2854    0.2093    66.338   200.000     8.106
 3597.8896    38.631    2.2204    0.1933    74.414   200.000     8.420
 3598.0420    30.845    2.2602    0.1709    25.495   200.000     8.780
 3598.1944    32.435    2.2487    0.1626    23.812   200.000     8.967
 3598.3468    39.481    2.2859    0.1787   128.036   200.000     8.945
 3598.4992    38.217    2.2304    0.2237    57.136   200.000     8.305
 3598.6516    24.304    2.2908    0.1651    42.038   200.000     8.907
 3598.8040    29.954    2.2289    0.1871    71.048   200.000     7.937
 3598.9564    28.056    2.2993    0.1684    45.497   200.000     8.098
 3599.1088    29.881    2.2949    0.1151    20.226   200.000     7.878
 3599.2612    34.910    2.3698    0.1601    57.435   200.000     8.349
 3599.4136    25.236    2.2525    0.1910    35.199   200.000     8.272
 3599.5660    38.992    2.2691    0.2375    55.434   200.000     8.309
 3599.7184    30.517    2.2388    0.2096    83.575   200.000     8.625
 3599.8708    34.091    2.3440    0.2056    52.393   200.000     8.629
 3600.0232    29.866    2.3566    0.2211    78.381   200.000     8.942
 3600.1756    30.286    2.2497    0.1529    51.892   200.000     8.553
 3600.3280    34.029    2.3318    0.1728    92.713   200.000     8.512
 3600.4804    40.763    2.2501    0.2022    43.908   200.000     8.153
 3600.6328    26.567    2.3081    0.2334    27.296   200.000     8.179
 3600.7852    35.394    2.2936    0.2291    33.878   200.000     9.335
 3600.9376    32.266    2.3267    0.1401   115.085   200.000     7.894
 3601.0900    28.186    2.2606    0.1671    80.573   200.000     8.151
 3601.2424    38.594    2.2666    0.2299    66.933   200.000     8.771
 3601.3948    35.665    2.2749    0.1709    77.490   200.000     8.399
 3601.5472    41.764    2.2571    0.1986    36.879   200.000     8.510
 3601.6996    37.312    2.2501    0.2148    70.479   200.000     8.812
 3601.8520    33.944    2.3372    0.2187    55.753   200.000     9.117
 3602.0044    22.691    2.2313    0.2420    43.852   200.000     8.364
