~VERSION INFORMATION
 VERS.                 2.0    : CWLS LOG ASCII STANDARD
 WRAP.                 NO     : ONE LINE PER DEPTH STEP
~WELL INFORMATION
 WELL.                 Carnarvon-1    : Well name
 FLD .                 Carnarvon Basin         : Field
 CTRY.                 Australia       : Country
 STRT.M                2500.0000 : START DEPTH
 STOP.M                4000.0000   : STOP DEPTH
 STEP.M                0.1524        : STEP
 NULL.                 -999.25          : NULL VALUE
 SRVC.                 SubsurfAI        : Service company
~CURVE INFORMATION
 DEPT.M                              : Depth
 GR  .GAPI                           : Gamma Ray
 RHOB.G/C3                           : Bulk Density
 NPHI.V/V                            : Neutron Porosity
 RT  .OHMM                           : True Resistivity
 DT  .US/F                           : Sonic
 CALI.IN                             : Caliper
~PARAMETER INFORMATION
 LAT .                 -22.3241   : Latitude
 LON .                 114.1234   : Longitude
 DESC.                 Carnarvon Basin — Jurassic Mungaroo Fm gas
~A  DEPT        GR        RHOB      NPHI      RT        DT        CALI
# ...
 2999.4148    24.281    2.2167    0.1974   126.827   200.000     8.430
 2999.5672    31.751    2.2855    0.2124   129.779   200.000     8.557
 2999.7196    27.115    2.2253    0.1788    53.942   200.000     9.009
 2999.8720    25.943    2.2110    0.1714    90.669   200.000     7.822
 3000.0244    28.926    2.2635    0.1830   132.536   200.000     7.982
 3000.1768    20.411    2.2766    0.2065    77.537   200.000     8.857
 3000.3292    25.433    2.2257    0.1477    43.688   200.000     8.329
 3000.4816    24.662    2.2384    0.2139    34.389   200.000     8.687
 3000.6340    34.850    2.2554    0.1768    80.331   200.000     8.080
 3000.7864    31.845    2.2526    0.1755    91.249   200.000     8.954
 3000.9388    36.300    2.2362    0.1847   148.546   200.000     8.331
 3001.0912    23.944    2.2281    0.1865    83.442   200.000     8.215
 3001.2436    26.548    2.2210    0.1931   107.038   200.000     8.306
 3001.3960    31.393    2.1408    0.2250    80.181   200.000     8.263
 3001.5484    16.265    2.1774    0.1793   153.171   200.000     7.677
 3001.7008    31.751    2.1903    0.1520    40.531   200.000     8.351
 3001.8532    25.939    2.2263    0.1664   103.134   200.000     8.463
 3002.0056    26.362    2.1963    0.1668    94.487   200.000     8.477
 3002.1580    26.326    2.2281    0.1639   105.100   200.000     8.632
 3002.3104    28.184    2.2413    0.1701    74.067   200.000     8.919
 3002.4628    35.134    2.3025    0.1779    42.806   200.000     8.972
 3002.6152    13.204    2.2028    0.2226    91.382   200.000     8.602
 3002.7676    25.408    2.2033    0.1592    43.539   200.000     8.768
 3002.9200    29.139    2.2267    0.1581    44.443   200.000     8.897
 3003.0724    31.190    2.2409    0.1826    71.106   200.000     8.103
 3003.2248    21.669    2.2382    0.1658    97.362   200.000     8.971
 3003.3772    28.793    2.2341    0.2063   109.114   200.000     8.371
 3003.5296    30.971    2.3287    0.1320    72.991   200.000     8.250
 3003.6820    33.727    2.1267    0.1207    83.399   200.000     8.085
 3003.8344    32.512    2.2644    0.1836    68.571   200.000     8.199
 3003.9868    23.232    2.2446    0.1899    60.598   200.000     8.764
 3004.1392    20.984    2.2524    0.1962    51.772   200.000     7.983
 3004.2916    29.900    2.1900    0.2059   123.084   200.000     8.291
 3004.4440    30.681    2.2829    0.1848   159.869   200.000     8.222
 3004.5964    26.608    2.2860    0.1913    82.153   200.000     8.824
 3004.7488    28.191    2.2347    0.2040    85.915   200.000     8.661
 3004.9012    28.715    2.2177    0.1847    52.438   200.000     8.265
 3005.0536    35.898    2.2799    0.2003    86.227   200.000     8.933
 3005.2060    19.520    2.2827    0.1901    45.960   200.000     8.082
 3005.3584    28.618    2.2477    0.1176    62.012   200.000     8.250
 3005.5108    25.162    2.2131    0.1994   115.933   200.000     8.536
 3005.6632    29.875    2.2705    0.1609   312.984   200.000     8.803
 3005.8156    31.951    2.2306    0.1643    63.227   200.000     8.943
 3005.9680    25.176    2.1893    0.1817   126.436   200.000     8.825
 3006.1204    25.372    2.2092    0.1267   171.728   200.000     8.578
 3006.2728    30.162    2.2146    0.1537   189.567   200.000     8.727
 3006.4252    21.470    2.2461    0.1799    65.856   200.000     8.712
 3006.5776    27.549    2.3153    0.1285    63.882   200.000     8.490
 3006.7300    36.939    2.2380    0.1546    75.491   200.000     7.821
 3006.8824    24.972    2.1570    0.1804    43.943   200.000     8.247
 3007.0348    29.604    2.2001    0.2103   114.302   200.000     8.879
 3007.1872    33.310    2.2567    0.2011    49.395   200.000     8.360
 3007.3396    23.138    2.1308    0.1677    95.236   200.000     9.418
 3007.4920    27.701    2.2270    0.2196    81.836   200.000     8.972
 3007.6444    24.538    2.2156    0.1732    64.595   200.000     8.053
 3007.7968    25.400    2.2114    0.1909    77.858   200.000     8.859
 3007.9492    23.832    2.1485    0.1879   112.517   200.000     9.346
 3008.1016    29.757    2.2799    0.1663   141.899   200.000     8.190
 3008.2540    26.237    2.2679    0.1870   131.534   200.000     8.725
 3008.4064    30.265    2.2588    0.1761    52.067   200.000     8.609
 3008.5588    24.501    2.1936    0.1103    71.499   200.000     8.048
 3008.7112    27.405    2.3447    0.1784    60.388   200.000     8.613
 3008.8636    29.527    2.2372    0.2063   113.782   200.000     8.080
 3009.0160    28.290    2.2425    0.1619   166.962   200.000     8.433
 3009.1684    30.756    2.2287    0.1194    72.747   200.000     7.665
 3009.3208    36.948    2.2092    0.2014   108.854   200.000     7.959
 3009.4732    27.778    2.2635    0.2125    46.198   200.000     8.647
 3009.6256    25.841    2.2747    0.1946    41.834   200.000     8.916
 3009.7780    29.172    2.2248    0.1841    76.278   200.000     8.812
 3009.9304    35.110    2.2202    0.1715    46.963   200.000     8.346
 3010.0828    21.669    2.1860    0.1353   115.374   200.000     8.795
 3010.2352    32.505    2.3983    0.1976    88.703   200.000     8.372
 3010.3876    29.550    2.2766    0.2007    48.332   200.000     8.874
 3010.5400    32.519    2.2217    0.2291    68.231   200.000     8.758
 3010.6924    25.268    2.2342    0.1736    31.515   200.000     9.076
 3010.8448    32.774    2.2172    0.1600   116.111   200.000     8.966
 3010.9972    16.053    2.2511    0.2166    41.531   200.000     8.478
 3011.1496    26.449    2.1657    0.1977    58.928   200.000     8.226
 3011.3020    33.471    2.3087    0.2218    26.391   200.000     8.435
 3011.4544    33.247    2.2800    0.1702   117.749   200.000     8.571
 3011.6068    17.627    2.2517    0.1725    97.106   200.000     8.834
 3011.7592    24.119    2.1750    0.2014   110.057   200.000     8.952
 3011.9116    24.325    2.2152    0.1220   100.410   200.000     8.242
 3012.0640    34.665    2.2527    0.1857    51.283   200.000     8.010
 3012.2164    20.981    2.2633    0.1775    54.384   200.000     8.427
 3012.3688    25.072    2.2287    0.1748    40.752   200.000     7.975
 3012.5212    26.870    2.3074    0.1669   103.581   200.000     7.952
 3012.6736    26.970    2.2486    0.1804    63.051   200.000     8.875
 3012.8260    33.154    2.2481    0.1695   154.645   200.000     8.349
 3012.9784    22.234    2.1603    0.1719    14.336   200.000     8.849
 3013.1308    23.021    2.2501    0.1781    56.611   200.000     8.983
 3013.2832    33.043    2.2012    0.1567    42.103   200.000     8.650
 3013.4356    24.733    2.2358    0.1570    43.584   200.000     8.652
 3013.5880    26.148    2.2129    0.2041    99.811   200.000     8.306
 3013.7404    25.058    2.2435    0.1843   103.082   200.000     8.156
 3013.8928    31.291    2.3103    0.1895    84.176   200.000     7.597
 3014.0452    28.916    2.2354    0.1896   169.057   200.000     9.222
 3014.1976    33.379    2.2546    0.1457    38.626   200.000     8.994
 3014.3500    26.371    2.1931    0.1971    50.088   200.000     8.112
 3014.5024    22.975    2.1924    0.1806    73.855   200.000     9.424
 3014.6548    26.866    2.2567    0.1826    55.037   200.000     8.815
 3014.8072    27.521    2.2619    0.2024    73.630   200.000     8.692
 3014.9596    27.384    2.2565    0.1900    99.596   200.000     8.909
 3015.1120    24.770    2.2558    0.1712    59.323   200.000     8.166
 3015.2644    35.926    2.2842    0.1898    46.974   200.000     8.254
 3015.4168    30.259    2.1544    0.1392    99.685   200.000     8.609
 3015.5692    25.437    2.2791    0.1950    74.533   200.000     8.090
 3015.7216    31.135    2.2660    0.2378    89.949   200.000     7.809
 3015.8740    33.833    2.3123    0.1475    42.604   200.000     8.663
 3016.0264    32.575    2.2677    0.1733   129.860   200.000     8.761
 3016.1788    21.692    2.3546    0.2099   109.052   200.000     8.939
 3016.3312    34.733    2.3048    0.2128    68.111   200.000     8.037
 3016.4836    25.895    2.2373    0.1996   106.943   200.000     8.653
