~VERSION INFORMATION
 VERS.                 2.0    : CWLS LOG ASCII STANDARD
 WRAP.                 NO     : ONE LINE PER DEPTH STEP
~WELL INFORMATION
 WELL.                 Carnarvon-1    : Well name
 FLD .                 Carnarvon Basin         : Field
 CTRY.                 Australia       : Country
 STRT.M                2500.0000 : START DEPTH
 STOP.M                4000.0000   : STOP DEPTH
 STEP.M                0.1524        : STEP
 NULL.                 -999.25          : NULL VALUE
 SRVC.                 SubsurfAI        : Service company
~CURVE INFORMATION
 DEPT.M                              : Depth
 GR  .GAPI                           : Gamma Ray
 RHOB.G/C3                           : Bulk Density
 NPHI.V/V                            : Neutron Porosity
 RT  .OHMM                           : True Resistivity
 DT  .US/F                           : Sonic
 CALI.IN                             : Caliper
~PARAMETER INFORMATION
 LAT .                 -22.3241   : Latitude
 LON .                 114.1234   : Longitude
 DESC.                 Carnarvon Basin — Jurassic Mungaroo Fm gas
~A  DEPT        GR        RHOB      NPHI      RT        DT        CALI
# ...
 3188.8480    11.833    2.6983    0.0817   190.078   200.000     8.674
 3189.0004     5.956    2.6735    0.0471   142.361   200.000     8.820
 3189.1528    10.060    2.6560    0.0610   129.682   200.000     8.703
 3189.3052    15.559    2.7928    0.0808   221.533   200.000     8.461
 3189.4576     6.157    2.7183    0.0728   121.296   200.000     8.149
 3189.6100    15.624    2.6635    0.0637   395.609   200.000     8.822
 3189.7624     9.458    2.5810    0.0652   285.064   200.000     8.579
 3189.9148    14.909    2.6637    0.0561   292.271   200.000     8.193
 3190.0672    12.194    2.6453    0.0645    96.121   200.000     9.045
 3190.2196    14.195    2.6402    0.0561   277.871   200.000     8.873
 3190.3720    13.707    2.6380    0.0587   277.774   200.000     9.072
 3190.5244     8.566    2.7241    0.0605   873.262   200.000     8.408
 3190.6768     3.039    2.7007    0.0845   151.163   200.000     7.973
 3190.8292    11.898    2.7422    0.0684   181.025   200.000     8.944
 3190.9816    15.115    2.7255    0.0757   314.788   200.000     8.633
 3191.1340    12.320    2.5997    0.0548   311.516   200.000     7.647
 3191.2864     8.226    2.6811    0.0859   175.277   200.000     9.284
 3191.4388    13.811    2.7148    0.0743    80.270   200.000     8.680
 3191.5912    10.873    2.5819    0.0632   207.596   200.000     8.355
 3191.7436    11.771    2.5443    0.0543   193.171   200.000     8.596
 3191.8960     8.260    2.6344    0.0764   142.515   200.000     8.461
 3192.0484    13.630    2.7049    0.0844   171.879   200.000     9.131
 3192.2008     8.307    2.6265    0.0695   141.795   200.000     8.993
 3192.3532    10.358    2.6067    0.0610    95.988   200.000     7.980
 3192.5056    12.287    2.6608    0.0666   255.879   200.000     8.812
 3192.6580    11.489    2.6610    0.0624   213.808   200.000     8.346
 3192.8104    14.502    2.6830    0.0630   615.556   200.000     8.742
 3192.9628    14.340    2.6006    0.0791    70.863   200.000     8.662
 3193.1152    13.387    2.7088    0.0747   138.619   200.000     9.141
 3193.2676    12.322    2.6866    0.0837   201.933   200.000     8.362
 3193.4200    13.408    2.5781    0.0656   192.638   200.000     8.657
 3193.5724    10.990    2.6714    0.0778   152.825   200.000     8.110
 3193.7248    15.126    2.6281    0.0771   382.693   200.000     8.583
 3193.8772    10.520    2.7432    0.0587   229.518   200.000     8.652
 3194.0296    13.104    2.6113    0.0829   232.307   200.000     8.061
 3194.1820    12.094    2.5849    0.0515    71.783   200.000     8.350
 3194.3344    14.759    2.5972    0.0516   180.062   200.000     8.568
 3194.4868     6.575    2.6833    0.0811   376.865   200.000     7.765
 3194.6392     6.991    2.6486    0.0492   105.189   200.000     8.670
 3194.7916    12.757    2.5740    0.0723   103.424   200.000     8.533
 3194.9440    15.063    2.6165    0.0775   269.644   200.000     8.282
 3195.0964     8.475    2.6078    0.0711   247.589   200.000     8.754
 3195.2488    15.279    2.6653    0.0844   225.991   200.000     8.179
 3195.4012    10.375    2.7159    0.0647   155.040   200.000     8.511
 3195.5536    17.721    2.6923    0.0936   112.320   200.000     7.928
 3195.7060     9.264    2.7262    0.0448   162.256   200.000     8.188
 3195.8584     8.984    2.6874    0.0732   126.108   200.000     8.596
 3196.0108    13.112    2.5993    0.0749    86.746   200.000     8.081
 3196.1632    16.106    2.5889    0.0695   163.595   200.000     8.698
 3196.3156    15.810    2.7545    0.0758   255.730   200.000     8.530
 3196.4680    14.321    2.6108    0.0771   216.017   200.000     9.064
 3196.6204    16.874    2.7127    0.0775   559.438   200.000     7.918
 3196.7728    10.707    2.6586    0.0556   317.023   200.000     8.783
 3196.9252    19.946    2.7197    0.0685   217.532   200.000     8.912
 3197.0776    12.633    2.6374    0.0883    79.813   200.000     8.284
 3197.2300     7.486    2.6605    0.0627   225.402   200.000     9.227
 3197.3824    11.187    2.7424    0.0661   263.140   200.000     8.534
 3197.5348     6.958    2.5509    0.0551   219.558   200.000     8.732
 3197.6872    14.402    2.6623    0.0670    90.186   200.000     7.743
 3197.8396    15.330    2.6618    0.0806   278.308   200.000     8.420
 3197.9920     7.987    2.6463    0.0545    44.235   200.000     8.150
 3198.1444    10.117    2.6825    0.0880    93.200   200.000     8.766
 3198.2968    10.115    2.6238    0.0687   152.782   200.000     8.158
 3198.4492    12.922    2.6973    0.0618   271.650   200.000     8.205
 3198.6016    11.767    2.6616    0.0636   281.735   200.000     8.841
 3198.7540    12.167    2.7041    0.0600   383.130   200.000     9.053
 3198.9064    12.836    2.7422    0.0602   269.934   200.000     9.054
 3199.0588    12.282    2.5641    0.0709   276.268   200.000     8.689
 3199.2112     6.865    2.5420    0.0776   130.618   200.000     8.455
 3199.3636    16.760    2.7393    0.0591   191.247   200.000     8.306
 3199.5160    13.508    2.7282    0.0893   579.575   200.000     8.516
 3199.6684    12.453    2.6929    0.0660   259.893   200.000     8.274
 3199.8208    15.575    2.6131    0.0647   197.967   200.000     8.948
 3199.9732    10.086    2.7278    0.0819   166.780   200.000     8.144
 3200.1256    10.034    2.6622    0.0580   170.376   200.000     8.762
 3200.2780    14.782    2.6324    0.0715    54.462   200.000     8.589
 3200.4304    12.577    2.7076    0.0741   270.457   200.000     7.735
 3200.5828    13.472    2.6672    0.0644   165.316   200.000     7.658
 3200.7352     9.796    2.7118    0.0572   371.734   200.000     8.122
 3200.8876     9.910    2.7310    0.0593   367.306   200.000     8.070
 3201.0400    13.001    2.6589    0.0960    98.068   200.000     8.107
 3201.1924    14.220    2.6323    0.0858   189.221   200.000     8.458
 3201.3448    10.994    2.6405    0.0726   255.437   200.000     8.934
 3201.4972     9.246    2.6680    0.0809   226.561   200.000     8.482
 3201.6496    14.486    2.6395    0.0594   102.320   200.000     8.624
 3201.8020     9.091    2.6901    0.0472   190.113   200.000     8.515
 3201.9544    13.403    2.6620    0.0863   298.058   200.000     8.418
 3202.1068    12.581    2.6978    0.0668   326.547   200.000     8.817
 3202.2592    13.618    2.6714    0.0581   234.839   200.000     7.883
 3202.4116    11.156    2.6953    0.0833   175.859   200.000     9.005
 3202.5640    11.879    2.6609    0.0655   299.535   200.000     8.517
 3202.7164    13.220    2.7332    0.0691   134.301   200.000     8.414
 3202.8688    15.454    2.5810    0.0532   151.548   200.000     7.898
 3203.0212    12.454    2.6272    0.0702   323.308   200.000     8.409
 3203.1736    10.796    2.6099    0.0833   317.966   200.000     8.903
 3203.3260    12.998    2.6656    0.0582   387.191   200.000     8.473
 3203.4784    15.224    2.7527    0.0672   148.024   200.000     8.168
 3203.6308     8.236    2.7142    0.0825    92.703   200.000     8.859
 3203.7832    14.005    2.7098    0.0740    91.797   200.000     8.106
 3203.9356    11.540    2.6971    0.0664   332.100   200.000     7.999
 3204.0880    14.987    2.6560    0.0676   438.136   200.000     8.576
 3204.2404    14.091    2.5582    0.0525   331.753   200.000     8.436
 3204.3928     8.703    2.6800    0.0795   255.883   200.000     8.371
 3204.5452    14.608    2.6926    0.0811   331.370   200.000     8.694
 3204.6976    13.888    2.6381    0.0794   531.294   200.000     8.418
 3204.8500    11.210    2.6515    0.0671    63.542   200.000     8.871
 3205.0024    14.219    2.7149    0.0806   207.606   200.000     8.372
 3205.1548    10.368    2.6199    0.0756   280.346   200.000     8.967
 3205.3072     8.260    2.7160    0.0661   144.923   200.000     8.316
 3205.4596    11.754    2.5882    0.0821   267.255   200.000     8.225
 3205.6120    10.607    2.6791    0.0608    66.854   200.000     8.311
 3205.7644    14.009    2.6102    0.0623   311.895   200.000     8.637
 3205.9168    10.291    2.6928    0.0644   264.454   200.000     8.244
