~VERSION INFORMATION
 VERS.                 2.0    : CWLS LOG ASCII STANDARD
 WRAP.                 NO     : ONE LINE PER DEPTH STEP
~WELL INFORMATION
 WELL.                 Carnarvon-1    : Well name
 FLD .                 Carnarvon Basin         : Field
 CTRY.                 Australia       : Country
 STRT.M                2500.0000 : START DEPTH
 STOP.M                4000.0000   : STOP DEPTH
 STEP.M                0.1524        : STEP
 NULL.                 -999.25          : NULL VALUE
 SRVC.                 SubsurfAI        : Service company
~CURVE INFORMATION
 DEPT.M                              : Depth
 GR  .GAPI                           : Gamma Ray
 RHOB.G/C3                           : Bulk Density
 NPHI.V/V                            : Neutron Porosity
 RT  .OHMM                           : True Resistivity
 DT  .US/F                           : Sonic
 CALI.IN                             : Caliper
~PARAMETER INFORMATION
 LAT .                 -22.3241   : Latitude
 LON .                 114.1234   : Longitude
 DESC.                 Carnarvon Basin — Jurassic Mungaroo Fm gas
~A  DEPT        GR        RHOB      NPHI      RT        DT        CALI
# ...
 3085.5208    25.155    2.1637    0.2163    66.653   200.000     8.163
 3085.6732    27.714    2.1855    0.1756    68.431   200.000     9.434
 3085.8256    27.680    2.1877    0.1932    90.039   200.000     8.328
 3085.9780    26.434    2.2137    0.2007    82.310   200.000     8.593
 3086.1304    24.384    2.2972    0.2113    85.531   200.000     7.965
 3086.2828    26.169    2.1939    0.1985   152.401   200.000     7.841
 3086.4352    24.043    2.2642    0.1942    90.411   200.000     7.895
 3086.5876    19.232    2.1948    0.2039   164.566   200.000     8.755
 3086.7400    19.857    2.3000    0.2324    75.624   200.000     8.677
 3086.8924    15.546    2.2215    0.2238    95.432   200.000     8.694
 3087.0448    24.363    2.2752    0.1997    48.472   200.000     8.352
 3087.1972    24.886    2.1612    0.1660   178.397   200.000     8.544
 3087.3496    34.099    2.2324    0.1711    73.206   200.000     8.283
 3087.5020    35.929    2.2654    0.1516    33.832   200.000     8.638
 3087.6544    20.996    2.1841    0.1588   118.183   200.000     8.683
 3087.8068    26.575    2.2408    0.1845    90.475   200.000     8.039
 3087.9592    30.979    2.1864    0.1824   151.158   200.000     8.351
 3088.1116    35.419    2.3579    0.1267    44.016   200.000     7.753
 3088.2640    31.826    2.2179    0.1793    33.265   200.000     7.628
 3088.4164    22.758    2.1647    0.1271    76.621   200.000     8.347
 3088.5688    28.868    2.2341    0.1825   108.976   200.000     8.046
 3088.7212    32.299    2.1496    0.1834    90.858   200.000     8.345
 3088.8736    31.305    2.2469    0.1764   102.653   200.000     8.473
 3089.0260    30.261    2.3214    0.2399   218.318   200.000     8.675
 3089.1784    25.380    2.2637    0.1874   131.464   200.000     8.755
 3089.3308    30.557    2.1411    0.1542    70.336   200.000     8.762
 3089.4832    28.992    2.2458    0.1566    55.230   200.000     8.209
 3089.6356    31.507    2.2557    0.1741   147.704   200.000     9.030
 3089.7880    29.658    2.2165    0.1682    44.636   200.000     8.805
 3089.9404    26.831    2.2713    0.1485    83.529   200.000     8.627
 3090.0928    31.002    2.3087    0.1669   146.052   200.000     8.969
 3090.2452    30.391    2.2695    0.1535   173.123   200.000     8.005
 3090.3976    30.472    2.2369    0.1567   185.868   200.000     8.571
 3090.5500    24.770    2.3260    0.2056    70.257   200.000     8.095
 3090.7024    26.223    2.3043    0.1947   131.614   200.000     8.585
 3090.8548    31.561    2.2130    0.1546   220.073   200.000     8.022
 3091.0072    24.755    2.2850    0.1123    90.933   200.000     8.239
 3091.1596    23.914    2.2922    0.1881   114.613   200.000     8.909
 3091.3120    23.591    2.2693    0.2190    73.300   200.000     8.046
 3091.4644    24.616    2.1583    0.1334    67.088   200.000     8.798
 3091.6168    32.792    2.3047    0.1814    51.814   200.000     8.878
 3091.7692    31.862    2.2002    0.1926    51.992   200.000     8.689
 3091.9216    33.470    2.2425    0.1502    57.874   200.000     8.393
 3092.0740    30.434    2.2170    0.1705   219.278   200.000     8.362
 3092.2264    27.734    2.2005    0.2226   112.549   200.000     8.098
 3092.3788    24.923    2.2685    0.1945    57.224   200.000     8.720
 3092.5312    32.392    2.2135    0.1758    66.526   200.000     8.656
 3092.6836    35.179    2.2500    0.1647    70.596   200.000     8.887
 3092.8360    31.291    2.2004    0.2019    58.793   200.000     8.283
 3092.9884    21.409    2.2046    0.1984    91.640   200.000     8.594
 3093.1408    28.963    2.2225    0.1875    55.691   200.000     8.208
 3093.2932    27.386    2.2782    0.1307   129.088   200.000     8.921
 3093.4456    26.329    2.2772    0.1994    61.532   200.000     8.518
 3093.5980    32.977    2.2707    0.1842    82.264   200.000     8.872
 3093.7504    29.831    2.2655    0.1672    93.150   200.000     8.587
 3093.9028    26.957    2.2908    0.1909   133.990   200.000     8.361
 3094.0552    29.952    2.2604    0.1749    71.233   200.000     8.153
 3094.2076    26.318    2.2494    0.2655    45.810   200.000     8.347
 3094.3600    23.139    2.2809    0.2065    77.104   200.000     7.732
 3094.5124    26.332    2.2792    0.1958   171.925   200.000     8.018
 3094.6648    30.961    2.2876    0.1658    58.933   200.000     9.085
 3094.8172    32.959    2.2354    0.2248    44.625   200.000     8.262
 3094.9696    32.452    2.1766    0.1819   106.899   200.000     8.434
 3095.1220    30.856    2.2069    0.1508    81.768   200.000     9.420
 3095.2744    21.186    2.2570    0.0990    52.030   200.000     8.393
 3095.4268    29.900    2.2507    0.1522    32.987   200.000     8.662
 3095.5792    29.251    2.2796    0.1696    73.266   200.000     8.921
 3095.7316    34.219    2.2207    0.2017   140.547   200.000     8.531
 3095.8840    31.735    2.2635    0.1825    69.892   200.000     8.812
 3096.0364    30.839    2.1934    0.1589   119.795   200.000     8.570
 3096.1888    33.493    2.2108    0.1564   276.688   200.000     8.114
 3096.3412    31.393    2.1478    0.1946   128.132   200.000     8.279
 3096.4936    23.078    2.2481    0.1769    33.326   200.000     8.303
 3096.6460    25.037    2.2968    0.1607    81.996   200.000     7.938
 3096.7984    31.509    2.1793    0.2071    68.230   200.000     8.163
 3096.9508    29.837    2.2872    0.1930    88.729   200.000     8.629
 3097.1032    28.706    2.2614    0.1760    86.766   200.000     7.917
 3097.2556    21.277    2.1607    0.1712    98.435   200.000     8.245
 3097.4080    28.663    2.3356    0.1751    84.311   200.000     8.478
 3097.5604    25.950    2.2547    0.2270    42.692   200.000     7.699
 3097.7128    19.875    2.1908    0.1692    63.192   200.000     8.659
 3097.8652    32.865    2.2640    0.1858    96.886   200.000     8.139
 3098.0176    29.418    2.2258    0.1660   121.167   200.000     8.893
 3098.1700    20.402    2.2826    0.1041   132.780   200.000     9.239
 3098.3224    33.874    2.2580    0.1329   134.367   200.000     8.270
 3098.4748    28.994    2.2126    0.1372    19.806   200.000     8.316
 3098.6272    28.327    2.2066    0.1409    90.533   200.000     8.849
 3098.7796    24.598    2.2247    0.1715    58.404   200.000     8.644
 3098.9320    22.730    2.2202    0.2297   294.163   200.000     8.641
 3099.0844    30.905    2.2876    0.1934    64.175   200.000     8.840
 3099.2368    22.414    2.2663    0.2509    51.610   200.000     9.080
 3099.3892    24.762    2.2183    0.1738    98.046   200.000     7.693
 3099.5416    24.433    2.2778    0.2043   108.270   200.000     8.593
 3099.6940    25.376    2.1555    0.1379    50.153   200.000     8.389
 3099.8464     7.533    2.7340    0.0709   118.407   200.000     8.093
 3099.9988    10.894    2.7493    0.0763    82.975   200.000     8.755
 3100.1512     9.310    2.7447    0.0693   150.363   200.000     7.609
 3100.3036    15.715    2.6809    0.0828   211.462   200.000     8.199
 3100.4560    14.202    2.6423    0.0745   297.475   200.000     8.556
 3100.6084    13.399    2.6526    0.0421   340.734   200.000     8.714
 3100.7608    14.403    2.6536    0.0596   238.018   200.000     9.169
 3100.9132    12.996    2.6611    0.0700   166.523   200.000     8.464
 3101.0656    12.767    2.6794    0.0882   211.079   200.000     8.092
 3101.2180    15.518    2.6619    0.0794   222.063   200.000     8.503
 3101.3704    12.117    2.6876    0.0818   268.067   200.000     7.854
 3101.5228    14.229    2.6311    0.0529   635.056   200.000     8.273
 3101.6752    16.128    2.6412    0.0782   295.574   200.000     8.081
 3101.8276    14.629    2.7362    0.0803   153.623   200.000     8.399
 3101.9800    20.605    2.6694    0.0621   151.631   200.000     9.087
 3102.1324     3.650    2.6675    0.0649   298.389   200.000     8.537
 3102.2848    12.665    2.6647    0.0776   430.219   200.000     7.921
 3102.4372    13.346    2.6975    0.0583   131.881   200.000     7.771
 3102.5896    11.646    2.6344    0.0572   606.474   200.000     8.527
