~VERSION INFORMATION
 VERS.                 2.0    : CWLS LOG ASCII STANDARD
 WRAP.                 NO     : ONE LINE PER DEPTH STEP
~WELL INFORMATION
 WELL.                 Carnarvon-1    : Well name
 FLD .                 Carnarvon Basin         : Field
 CTRY.                 Australia       : Country
 STRT.M                2500.0000 : START DEPTH
 STOP.M                4000.0000   : STOP DEPTH
 STEP.M                0.1524        : STEP
 NULL.                 -999.25          : NULL VALUE
 SRVC.                 SubsurfAI        : Service company
~CURVE INFORMATION
 DEPT.M                              : Depth
 GR  .GAPI                           : Gamma Ray
 RHOB.G/C3                           : Bulk Density
 NPHI.V/V                            : Neutron Porosity
 RT  .OHMM                           : True Resistivity
 DT  .US/F                           : Sonic
 CALI.IN                             : Caliper
~PARAMETER INFORMATION
 LAT .                 -22.3241   : Latitude
 LON .                 114.1234   : Longitude
 DESC.                 Carnarvon Basin — Jurassic Mungaroo Fm gas
~A  DEPT        GR        RHOB      NPHI      RT        DT        CALI
# ...
 3292.1752    11.770    2.7310    0.0775   106.875   200.000     8.421
 3292.3276    11.030    2.5221    0.0698    80.631   200.000     8.793
 3292.4800     7.211    2.7179    0.0709   138.590   200.000     8.638
 3292.6324     7.093    2.6603    0.0601   130.268   200.000     8.711
 3292.7848    14.849    2.6410    0.0747   122.951   200.000     7.971
 3292.9372     8.049    2.7062    0.0792   299.233   200.000     7.651
 3293.0896     9.027    2.7198    0.0511   286.340   200.000     9.388
 3293.2420    12.734    2.6869    0.0704   102.072   200.000     8.520
 3293.3944    13.034    2.6148    0.0679   499.655   200.000     8.206
 3293.5468     8.174    2.6350    0.0786   266.215   200.000     8.748
 3293.6992    14.886    2.7365    0.0655    87.907   200.000     9.076
 3293.8516    14.252    2.6225    0.0545   132.529   200.000     7.886
 3294.0040     7.653    2.7067    0.0767   135.017   200.000     8.817
 3294.1564     5.363    2.6460    0.0697   142.997   200.000     8.684
 3294.3088    16.582    2.6415    0.0898   205.356   200.000     8.182
 3294.4612    16.505    2.6670    0.0769   155.740   200.000     8.437
 3294.6136    12.663    2.7284    0.0911   229.396   200.000     8.976
 3294.7660     8.818    2.6714    0.0603   296.241   200.000     8.276
 3294.9184    10.100    2.6386    0.0673   199.005   200.000     8.846
 3295.0708    12.982    2.6116    0.0613   287.715   200.000     8.032
 3295.2232     8.081    2.6194    0.0789   207.495   200.000     9.053
 3295.3756    10.539    2.6937    0.0666  1336.121   200.000     8.027
 3295.5280    12.379    2.6787    0.0725    66.101   200.000     8.609
 3295.6804     8.445    2.6486    0.0646   272.803   200.000     8.386
 3295.8328     6.880    2.7403    0.0620   281.057   200.000     8.389
 3295.9852    15.433    2.6052    0.0506   134.292   200.000     8.703
 3296.1376     5.133    2.5742    0.0622   238.668   200.000     9.115
 3296.2900    12.357    2.7866    0.0585   237.224   200.000     8.808
 3296.4424     7.957    2.5923    0.0745   101.887   200.000     8.717
 3296.5948     9.585    2.6878    0.0627   289.368   200.000     9.038
 3296.7472     9.179    2.6841    0.0708    96.535   200.000     8.021
 3296.8996    12.607    2.6543    0.0760   203.359   200.000     8.685
 3297.0520    11.933    2.6260    0.0695    65.713   200.000     8.374
 3297.2044     9.067    2.5963    0.0529   139.595   200.000     8.131
 3297.3568    13.918    2.6323    0.0430   354.242   200.000     8.887
 3297.5092     9.603    2.7199    0.0562   236.671   200.000     8.524
 3297.6616    16.385    2.7094    0.0739   144.818   200.000     8.565
 3297.8140    11.305    2.5461    0.0809   232.606   200.000     8.931
 3297.9664    12.796    2.6444    0.0576   469.371   200.000     8.732
 3298.1188     9.208    2.6150    0.0722   265.056   200.000     8.330
 3298.2712    14.876    2.7372    0.0643   144.403   200.000     8.240
 3298.4236    12.555    2.7747    0.0612   262.691   200.000     9.162
 3298.5760     8.543    2.6970    0.0738   209.740   200.000     8.452
 3298.7284    13.106    2.5948    0.0583   201.211   200.000     8.089
 3298.8808    15.492    2.7149    0.0734   399.446   200.000     8.951
 3299.0332    10.822    2.6946    0.0581   106.969   200.000     8.335
 3299.1856    18.603    2.6161    0.0810   136.163   200.000     8.514
 3299.3380     9.632    2.6488    0.0753   198.596   200.000     8.704
 3299.4904    18.505    2.6393    0.0593   268.758   200.000     8.256
 3299.6428    11.035    2.7452    0.0775   209.079   200.000     8.917
 3299.7952    19.200    2.7201    0.0628   220.881   200.000     8.649
 3299.9476     9.275    2.6723    0.0872   408.970   200.000     8.611
 3300.1000    12.118    2.6931    0.0748   232.913   200.000     8.535
 3300.2524    10.205    2.7637    0.0699   163.863   200.000     7.681
 3300.4048    15.406    2.5467    0.0682   189.388   200.000     8.749
 3300.5572     9.967    2.6883    0.0619   136.739   200.000     8.572
 3300.7096     9.404    2.6774    0.0567   252.175   200.000     8.143
 3300.8620    13.948    2.6189    0.0872   277.838   200.000     8.316
 3301.0144    14.069    2.5951    0.0707   188.241   200.000     8.439
 3301.1668    16.488    2.6078    0.0635   285.384   200.000     9.111
 3301.3192    18.900    2.7327    0.0531   380.170   200.000     8.944
 3301.4716    12.013    2.5724    0.0711   340.260   200.000     8.526
 3301.6240     9.986    2.6030    0.0766   279.771   200.000     8.284
 3301.7764    12.835    2.6961    0.0670   348.021   200.000     8.633
 3301.9288    10.550    2.6964    0.0866   136.346   200.000     8.370
 3302.0812    16.337    2.6500    0.0723   111.043   200.000     8.519
 3302.2336     7.893    2.6056    0.0941   147.168   200.000     8.791
 3302.3860    12.343    2.7069    0.0868   394.375   200.000     8.623
 3302.5384     4.963    2.5097    0.0883   117.680   200.000     8.411
 3302.6908     9.083    2.6670    0.0687   269.301   200.000     8.549
 3302.8432    13.332    2.5799    0.0528   137.222   200.000     8.718
 3302.9956    11.624    2.6831    0.0694   303.635   200.000     8.960
 3303.1480     7.791    2.5561    0.0558   219.905   200.000     8.461
 3303.3004    16.373    2.6419    0.0592   296.942   200.000     7.775
 3303.4528    10.908    2.7008    0.0754   496.409   200.000     8.321
 3303.6052    19.132    2.7412    0.0746   166.642   200.000     7.559
 3303.7576    13.141    2.6855    0.0685   227.406   200.000     8.432
 3303.9100     9.558    2.6693    0.0840   158.890   200.000     8.661
 3304.0624    18.608    2.6206    0.0396   152.235   200.000     8.507
 3304.2148     7.883    2.6334    0.0538   147.753   200.000     8.216
 3304.3672     6.242    2.5691    0.0791   160.923   200.000     8.584
 3304.5196    12.624    2.6460    0.0667   129.662   200.000     8.231
 3304.6720    11.764    2.7589    0.0747   473.580   200.000     9.613
 3304.8244    14.592    2.7146    0.0918   170.469   200.000     8.275
 3304.9768     8.295    2.6651    0.0574   245.348   200.000     8.398
 3305.1292    12.214    2.6472    0.0526   122.235   200.000     8.274
 3305.2816    12.954    2.5921    0.0783   134.674   200.000     8.477
 3305.4340    17.428    2.6110    0.0709   321.997   200.000     8.922
 3305.5864     6.238    2.6629    0.0768   337.741   200.000     8.112
 3305.7388    12.035    2.6303    0.0598   179.024   200.000     8.580
 3305.8912    14.015    2.7915    0.0658   217.694   200.000     8.159
 3306.0436     9.127    2.6531    0.0500   116.597   200.000     9.155
 3306.1960    11.653    2.7025    0.0563   405.626   200.000     8.656
 3306.3484     9.079    2.6820    0.0814   103.305   200.000     8.811
 3306.5008    12.381    2.6420    0.0776   104.686   200.000     8.112
 3306.6532    13.690    2.6550    0.0770   131.809   200.000     8.876
 3306.8056     8.609    2.7216    0.0767   246.754   200.000     8.409
 3306.9580    10.373    2.6492    0.0642   138.489   200.000     7.977
 3307.1104     8.825    2.6777    0.0819    83.356   200.000     7.685
 3307.2628    13.439    2.6616    0.0646    51.038   200.000     8.520
 3307.4152    10.595    2.6992    0.0800   188.342   200.000     8.447
 3307.5676    11.829    2.6613    0.0717   135.301   200.000     8.527
 3307.7200    11.347    2.7214    0.0586   715.941   200.000     8.836
 3307.8724     9.777    2.6555    0.0538   179.311   200.000     9.578
 3308.0248    12.272    2.6506    0.0841   157.886   200.000     8.218
 3308.1772    10.448    2.6815    0.0532   130.486   200.000     8.311
 3308.3296    19.226    2.7248    0.0708    98.302   200.000     8.865
 3308.4820    13.914    2.7879    0.0726   199.689   200.000     8.369
 3308.6344     7.657    2.6123    0.0450   504.350   200.000     8.382
 3308.7868    14.989    2.7212    0.0856   169.086   200.000     8.719
 3308.9392    17.870    2.6441    0.0771    77.939   200.000     8.277
 3309.0916    14.616    2.6119    0.0695   148.294   200.000     9.148
 3309.2440     6.134    2.6673    0.0744   339.800   200.000     8.609
