~VERSION INFORMATION
 VERS.                 2.0    : CWLS LOG ASCII STANDARD
 WRAP.                 NO     : ONE LINE PER DEPTH STEP
~WELL INFORMATION
 WELL.                 Carnarvon-1    : Well name
 FLD .                 Carnarvon Basin         : Field
 CTRY.                 Australia       : Country
 STRT.M                2500.0000 : START DEPTH
 STOP.M                4000.0000   : STOP DEPTH
 STEP.M                0.1524        : STEP
 NULL.                 -999.25          : NULL VALUE
 SRVC.                 SubsurfAI        : Service company
~CURVE INFORMATION
 DEPT.M                              : Depth
 GR  .GAPI                           : Gamma Ray
 RHOB.G/C3                           : Bulk Density
 NPHI.V/V                            : Neutron Porosity
 RT  .OHMM                           : True Resistivity
 DT  .US/F                           : Sonic
 CALI.IN                             : Caliper
~PARAMETER INFORMATION
 LAT .                 -22.3241   : Latitude
 LON .                 114.1234   : Longitude
 DESC.                 Carnarvon Basin — Jurassic Mungaroo Fm gas
~A  DEPT        GR        RHOB      NPHI      RT        DT        CALI
# ...
 3981.0232    75.197    2.4817    0.2396     3.206   200.000     8.065
 3981.1756    90.872    2.4724    0.2710     2.452   194.992     8.744
 3981.3280    84.836    2.3694    0.2365     2.572   200.000     8.487
 3981.4804   115.264    2.4172    0.3549     4.375   151.939     8.711
 3981.6328    96.855    2.4095    0.2269     0.632   200.000     7.700
 3981.7852   104.124    2.4803    0.3804     4.081   148.023     8.584
 3981.9376    87.501    2.4294    0.2678     3.580   196.011     8.721
 3982.0900    91.851    2.4526    0.2688     3.452   195.191     9.044
 3982.2424    87.542    2.4352    0.2743     3.819   193.382     9.020
 3982.3948    99.608    2.3887    0.2680     4.896   200.000     8.431
 3982.5472   111.354    2.4342    0.2741     3.138   200.000     8.900
 3982.6996    74.648    2.4250    0.2694     3.091   196.533     9.100
 3982.8520    78.544    2.3616    0.3258     1.673   164.099     8.972
 3983.0044    85.637    2.3830    0.3143     2.510   163.182     8.581
 3983.1568    96.050    2.4214    0.2590     2.976   200.000     8.505
 3983.3092    93.382    2.5009    0.2837     3.844   200.000     9.014
 3983.4616   100.457    2.4398    0.2265     1.243   200.000     8.476
 3983.6140    82.185    2.4814    0.2816     2.583   194.446     8.661
 3983.7664    78.127    2.4663    0.2624     1.998   200.000     8.998
 3983.9188    94.600    2.4535    0.2781     5.402   200.000     8.833
 3984.0712    93.177    2.4036    0.3418     3.706   160.891     8.698
 3984.2236    90.271    2.4646    0.2718     4.248   200.000     7.760
 3984.3760    94.991    2.5176    0.2683     2.159   200.000     8.153
 3984.5284    97.655    2.4324    0.2824     3.404   191.544     8.438
 3984.6808    96.954    2.4040    0.2763     3.634   198.515     8.228
 3984.8332    66.936    2.4419    0.2762     2.531   200.000     8.113
 3984.9856   104.839    2.4454    0.3045     1.148   183.713     8.264
 3985.1380    90.432    2.4884    0.2427     1.250   200.000     8.691
 3985.2904    75.349    2.4072    0.2615     1.262   200.000     8.637
 3985.4428   103.568    2.4349    0.2254     1.479   200.000     7.810
 3985.5952    96.679    2.4737    0.2322     1.934   200.000     8.681
 3985.7476    95.966    2.4469    0.3028     4.048   179.956     8.833
 3985.9000    86.565    2.5358    0.2921     2.520   193.815     8.407
 3986.0524   113.087    2.4006    0.2530     3.005   200.000     8.489
 3986.2048    82.558    2.4439    0.2806     1.801   199.106     8.537
 3986.3572    73.195    2.4741    0.3267     1.884   167.372     8.549
 3986.5096    91.894    2.2974    0.3114     1.323   179.240     8.016
 3986.6620    99.012    2.4643    0.2864     0.835   194.388     9.043
 3986.8144    88.523    2.3520    0.2846     1.670   198.666     8.391
 3986.9668    85.198    2.3677    0.3068     2.172   172.834     8.580
 3987.1192    86.928    2.4551    0.2550     2.883   200.000     9.204
 3987.2716    75.345    2.4787    0.2450     2.649   200.000     8.721
 3987.4240    82.246    2.4610    0.2735     3.082   200.000     8.498
 3987.5764    88.526    2.4065    0.2514     2.574   200.000     7.917
 3987.7288    99.080    2.4350    0.2058     2.402   200.000     8.198
 3987.8812    86.483    2.5142    0.3659     2.418   144.478     8.262
 3988.0336   108.892    2.4986    0.2815     3.395   190.873     8.662
 3988.1860   104.537    2.4816    0.2280     4.313   200.000     7.750
 3988.3384    98.872    2.4361    0.2493     1.729   200.000     8.778
 3988.4908    75.750    2.4678    0.2561     3.994   200.000     8.725
 3988.6432    77.965    2.5239    0.2880     1.865   185.055     8.937
 3988.7956    88.034    2.4213    0.3351     2.345   160.836     8.481
 3988.9480    89.202    2.4947    0.1830     3.886   200.000     8.348
 3989.1004    75.722    2.4342    0.2725     5.561   196.127     8.801
 3989.2528    91.013    2.4637    0.2651     4.867   200.000     8.532
 3989.4052    75.252    2.5209    0.2423     2.479   200.000     8.108
 3989.5576    93.559    2.4287    0.2967     1.887   190.578     8.845
 3989.7100    92.252    2.4357    0.2489     1.316   200.000     9.298
 3989.8624   108.615    2.4634    0.2578     1.207   200.000     8.302
 3990.0148    96.940    2.4603    0.2776     4.139   198.431     8.013
 3990.1672    98.043    2.5255    0.2028     2.223   200.000     8.633
 3990.3196   101.550    2.4612    0.3217     1.311   175.745     8.189
 3990.4720    94.403    2.4279    0.2632     3.129   200.000     8.911
 3990.6244    90.808    2.4488    0.2835     3.252   190.168     8.276
 3990.7768    68.770    2.4434    0.2668     4.045   200.000     8.296
 3990.9292   101.728    2.4783    0.2369     3.421   200.000     8.523
 3991.0816    82.915    2.4266    0.2139     3.395   200.000     8.739
 3991.2340    93.309    2.4354    0.2323     2.957   200.000     8.247
 3991.3864    68.540    2.3822    0.2703     1.950   200.000     7.956
 3991.5388    92.523    2.4387    0.2577     1.541   200.000     8.454
 3991.6912    96.075    2.4354    0.2705     2.959   200.000     8.264
 3991.8436    94.724    2.4854    0.1851     3.178   200.000     8.225
 3991.9960    91.923    2.4959    0.3321     1.825   166.045     8.093
 3992.1484    76.741    2.3914    0.2881     1.628   182.784     8.414
 3992.3008    87.930    2.4464    0.3024     1.783   182.593     8.578
 3992.4532    93.911    2.3624    0.3223     4.132   170.518     8.622
 3992.6056   105.176    2.4481    0.2672     1.857   200.000     8.319
 3992.7580    94.922    2.5262    0.2479     2.011   200.000     8.204
 3992.9104    80.015    2.4578    0.2481     2.981   200.000     8.812
 3993.0628    97.471    2.4373    0.2469     1.862   200.000     8.123
 3993.2152   103.840    2.4539    0.3246     2.546   166.672     8.431
 3993.3676   103.930    2.5124    0.1892     2.127   200.000     9.328
 3993.5200    96.077    2.4929    0.2395     0.793   200.000     8.644
 3993.6724    94.361    2.4362    0.2677     3.540   200.000     9.181
 3993.8248    82.757    2.4096    0.3253     3.074   170.315     8.613
 3993.9772   105.423    2.4955    0.2682     1.527   200.000     8.785
 3994.1296    77.996    2.4495    0.2867     1.813   196.878     8.565
 3994.2820   101.103    2.3796    0.2608     1.531   200.000     9.588
 3994.4344    97.621    2.3932    0.2652     1.233   198.710     9.148
 3994.5868   120.318    2.4446    0.2802     1.258   194.093     8.473
 3994.7392    87.845    2.4330    0.2991     2.448   189.489     8.768
 3994.8916    91.695    2.4580    0.2132     2.162   200.000     7.879
 3995.0440    85.472    2.4785    0.2336     2.191   200.000     8.605
 3995.1964   100.813    2.4912    0.2713     1.363   197.251     8.185
 3995.3488    96.456    2.4538    0.2848     1.677   193.887     8.014
 3995.5012    99.773    2.4258    0.2315     4.698   200.000     9.264
 3995.6536   100.615    2.5323    0.2361     1.078   200.000     9.002
 3995.8060    93.179    2.3439    0.3373     1.233   169.505     8.603
 3995.9584    84.779    2.4289    0.2156     2.294   200.000     8.782
 3996.1108    94.082    2.4481    0.2382     2.260   200.000     9.407
 3996.2632   103.815    2.5072    0.2935     2.783   194.669     8.457
 3996.4156    86.803    2.4854    0.2070     2.337   200.000     7.857
 3996.5680   101.880    2.4007    0.2588     2.571   200.000     8.419
 3996.7204    86.141    2.4373    0.3371     1.469   160.009     8.582
 3996.8728   107.854    2.5035    0.2537     3.814   200.000     8.705
 3997.0252    92.985    2.4358    0.3006     1.071   176.678     8.168
 3997.1776   104.132    2.4693    0.2374     1.409   200.000     8.862
 3997.3300    86.847    2.4239    0.2996     2.696   183.180     8.383
 3997.4824    96.367    2.4609    0.1891     1.132   200.000     9.112
 3997.6348    98.850    2.4970    0.2722     1.703   200.000     8.625
 3997.7872   113.367    2.4418    0.3172     2.327   167.863     9.450
 3997.9396    86.175    2.4875    0.2514     3.194   200.000     8.439
 3998.0920    74.805    2.4075    0.3169     1.986   178.166     7.903
