~VERSION INFORMATION
 VERS.                 2.0    : CWLS LOG ASCII STANDARD
 WRAP.                 NO     : ONE LINE PER DEPTH STEP
~WELL INFORMATION
 WELL.                 Carnarvon-1    : Well name
 FLD .                 Carnarvon Basin         : Field
 CTRY.                 Australia       : Country
 STRT.M                2500.0000 : START DEPTH
 STOP.M                4000.0000   : STOP DEPTH
 STEP.M                0.1524        : STEP
 NULL.                 -999.25          : NULL VALUE
 SRVC.                 SubsurfAI        : Service company
~CURVE INFORMATION
 DEPT.M                              : Depth
 GR  .GAPI                           : Gamma Ray
 RHOB.G/C3                           : Bulk Density
 NPHI.V/V                            : Neutron Porosity
 RT  .OHMM                           : True Resistivity
 DT  .US/F                           : Sonic
 CALI.IN                             : Caliper
~PARAMETER INFORMATION
 LAT .                 -22.3241   : Latitude
 LON .                 114.1234   : Longitude
 DESC.                 Carnarvon Basin — Jurassic Mungaroo Fm gas
~A  DEPT        GR        RHOB      NPHI      RT        DT        CALI
# ...
 3481.6084    27.750    2.2801    0.1912    61.179   200.000     9.080
 3481.7608    25.579    2.2344    0.1925    92.999   200.000     8.505
 3481.9132    39.432    2.3453    0.2307    78.644   200.000     8.665
 3482.0656    35.220    2.2565    0.1630    56.331   200.000     8.256
 3482.2180    28.660    2.3086    0.2018   108.304   200.000     8.628
 3482.3704    35.488    2.3136    0.2249    50.431   200.000     8.706
 3482.5228    31.086    2.3305    0.2024    66.565   200.000     8.737
 3482.6752    27.813    2.2445    0.1801    24.592   200.000     8.481
 3482.8276    41.021    2.2216    0.2169    31.834   200.000     8.581
 3482.9800    29.513    2.3038    0.2463    79.401   200.000     8.911
 3483.1324    25.014    2.2320    0.2062    63.966   200.000     8.931
 3483.2848    24.807    2.2893    0.1996   107.385   200.000     7.556
 3483.4372    27.686    2.3410    0.2222    41.433   200.000     8.626
 3483.5896    36.116    2.2260    0.2144    51.157   200.000     8.499
 3483.7420    27.736    2.2552    0.1509    42.157   200.000     8.652
 3483.8944    34.688    2.2031    0.2485    52.526   200.000     8.238
 3484.0468    37.321    2.2161    0.1672   117.809   200.000     8.704
 3484.1992    30.340    2.2835    0.1898    40.973   200.000     8.173
 3484.3516    28.098    2.2859    0.2106    42.712   200.000     8.707
 3484.5040    29.624    2.2872    0.2306   108.321   200.000     8.677
 3484.6564    35.863    2.1823    0.2290   141.765   200.000     8.965
 3484.8088    27.837    2.2338    0.1707    96.097   200.000     8.268
 3484.9612    37.290    2.2494    0.2142   121.954   200.000     8.196
 3485.1136    32.511    2.2991    0.2167    36.634   200.000     9.015
 3485.2660    29.105    2.3614    0.1884    72.245   200.000     8.829
 3485.4184    33.121    2.2487    0.1709    42.024   200.000     8.889
 3485.5708    38.514    2.2878    0.1899    87.271   200.000     8.658
 3485.7232    23.610    2.2350    0.2171    64.521   200.000     9.418
 3485.8756    31.992    2.2191    0.1907    49.241   200.000     8.615
 3486.0280    31.595    2.3032    0.1498    37.550   200.000     8.348
 3486.1804    28.381    2.2965    0.2197    37.113   200.000     8.513
 3486.3328    29.504    2.2272    0.1605   117.366   200.000     7.724
 3486.4852    37.555    2.3013    0.2339    39.304   200.000     8.690
 3486.6376    34.431    2.2551    0.2055   105.956   200.000     9.482
 3486.7900    29.969    2.2103    0.1429   112.256   200.000     9.130
 3486.9424    37.265    2.2434    0.2067   110.599   200.000     8.538
 3487.0948    27.722    2.2398    0.1969    36.474   200.000     9.010
 3487.2472    38.361    2.2774    0.2342    39.951   200.000     8.502
 3487.3996    35.880    2.2834    0.2238    39.671   200.000     8.422
 3487.5520    25.469    2.2514    0.2634    47.854   200.000     8.630
 3487.7044    25.221    2.2635    0.2408    91.447   200.000     8.781
 3487.8568    32.793    2.3072    0.2237    90.415   200.000     8.271
 3488.0092    44.688    2.2733    0.1579   162.895   200.000     8.023
 3488.1616    32.986    2.3245    0.1749    55.312   200.000     8.373
 3488.3140    34.559    2.2820    0.1321    42.966   200.000     8.405
 3488.4664    29.323    2.2565    0.1732    74.737   200.000     8.815
 3488.6188    26.737    2.1731    0.2097    43.884   200.000     8.282
 3488.7712    32.389    2.1752    0.2073    55.644   200.000     8.627
 3488.9236    33.475    2.2825    0.1906    46.808   200.000     8.784
 3489.0760    39.347    2.2440    0.1685    27.856   200.000     7.992
 3489.2284    40.677    2.3511    0.2365    50.710   200.000     8.630
 3489.3808    26.647    2.2396    0.2520    55.855   200.000     8.347
 3489.5332    22.473    2.2616    0.1269    52.130   200.000     9.505
 3489.6856    35.694    2.2272    0.2229    48.031   200.000     8.687
 3489.8380    22.104    2.1462    0.1879    75.869   200.000     8.268
 3489.9904    30.281    2.2832    0.1330    18.081   200.000     8.494
 3490.1428    35.456    2.1863    0.2294    74.179   200.000     8.822
 3490.2952    38.851    2.3169    0.1655    59.049   200.000     7.641
 3490.4476    31.469    2.2390    0.1876    42.344   200.000     8.707
 3490.6000    28.010    2.3034    0.1844   107.207   200.000     8.435
 3490.7524    36.981    2.2462    0.1927    45.128   200.000     8.157
 3490.9048    34.713    2.2306    0.1708    65.041   200.000     9.171
 3491.0572    29.359    2.3040    0.2433    36.209   200.000     8.472
 3491.2096    28.470    2.2947    0.1610    52.849   200.000     8.309
 3491.3620    25.388    2.2721    0.2336   115.444   200.000     8.274
 3491.5144    30.762    2.2701    0.2215    74.058   200.000     8.520
 3491.6668    32.400    2.3015    0.2198    80.769   200.000     9.053
 3491.8192    38.868    2.2482    0.2267    31.050   200.000     8.294
 3491.9716    35.610    2.2629    0.2105    63.331   200.000     8.542
 3492.1240    29.983    2.2413    0.2282    68.496   200.000     7.885
 3492.2764    34.663    2.2403    0.1558   159.655   200.000     8.210
 3492.4288    32.740    2.2566    0.1844    51.379   200.000     9.261
 3492.5812    37.376    2.2948    0.1939    92.614   200.000     8.508
 3492.7336    35.552    2.3599    0.2445    33.549   200.000     8.654
 3492.8860    40.390    2.2682    0.1669    76.760   200.000     9.517
 3493.0384    25.195    2.2533    0.2195    37.502   200.000     8.119
 3493.1908    30.337    2.2469    0.2047    69.784   200.000     8.430
 3493.3432    31.213    2.2232    0.2116    93.239   200.000     7.979
 3493.4956    31.570    2.2393    0.1764    66.556   200.000     8.183
 3493.6480    35.633    2.2882    0.1844    81.875   200.000     7.854
 3493.8004    25.638    2.3049    0.2043   157.897   200.000     8.177
 3493.9528    26.868    2.2406    0.1479    22.236   200.000     8.571
 3494.1052    38.338    2.3087    0.1848    41.120   200.000     8.396
 3494.2576    35.682    2.2302    0.2768    68.174   200.000     8.416
 3494.4100    36.564    2.2438    0.1836    78.948   200.000     8.879
 3494.5624    31.430    2.3423    0.2050    65.430   200.000     8.722
 3494.7148    24.934    2.2198    0.2253    87.196   200.000     8.345
 3494.8672    34.198    2.2600    0.2125    31.458   200.000     8.391
 3495.0196    29.851    2.2982    0.1644    46.399   200.000     8.588
 3495.1720    32.189    2.2936    0.1867    39.243   200.000     8.231
 3495.3244    37.526    2.2540    0.1887    39.983   200.000     9.243
 3495.4768    32.988    2.2248    0.2016    36.022   200.000     8.310
 3495.6292    25.996    2.2420    0.2228    37.591   200.000     8.401
 3495.7816    27.709    2.2474    0.2133    53.827   200.000     9.084
 3495.9340    24.475    2.2417    0.2144    93.179   200.000     8.846
 3496.0864    34.243    2.2588    0.1890    81.123   200.000     8.438
 3496.2388    24.467    2.3180    0.1823    43.133   200.000     8.518
 3496.3912    24.534    2.2887    0.2366    45.387   200.000     7.980
 3496.5436    35.220    2.3058    0.1737   100.348   200.000     8.538
 3496.6960    46.658    2.3258    0.2442    78.273   200.000     8.544
 3496.8484    31.145    2.3091    0.2260    30.926   200.000     7.913
 3497.0008    30.947    2.2884    0.2524    38.534   200.000     8.848
 3497.1532    37.507    2.2513    0.1998    70.406   200.000     8.732
 3497.3056    29.147    2.1831    0.1941    81.415   200.000     9.161
 3497.4580    30.799    2.2986    0.2218    72.390   200.000     8.878
 3497.6104    33.356    2.1869    0.2147    42.832   200.000     8.553
 3497.7628    32.485    2.3225    0.2375    44.645   200.000     8.576
 3497.9152    34.864    2.2133    0.1725    87.052   200.000     8.766
 3498.0676    34.674    2.2939    0.2292    54.524   200.000     8.347
 3498.2200    38.427    2.3099    0.2064    25.680   200.000     8.981
 3498.3724    30.907    2.2958    0.1697   102.137   200.000     7.921
 3498.5248    33.503    2.2644    0.1800    66.837   200.000     8.093
 3498.6772    32.557    2.1965    0.1606    52.196   200.000     8.963
