~VERSION INFORMATION
 VERS.                 2.0    : CWLS LOG ASCII STANDARD
 WRAP.                 NO     : ONE LINE PER DEPTH STEP
~WELL INFORMATION
 WELL.                 Carnarvon-1    : Well name
 FLD .                 Carnarvon Basin         : Field
 CTRY.                 Australia       : Country
 STRT.M                2500.0000 : START DEPTH
 STOP.M                4000.0000   : STOP DEPTH
 STEP.M                0.1524        : STEP
 NULL.                 -999.25          : NULL VALUE
 SRVC.                 SubsurfAI        : Service company
~CURVE INFORMATION
 DEPT.M                              : Depth
 GR  .GAPI                           : Gamma Ray
 RHOB.G/C3                           : Bulk Density
 NPHI.V/V                            : Neutron Porosity
 RT  .OHMM                           : True Resistivity
 DT  .US/F                           : Sonic
 CALI.IN                             : Caliper
~PARAMETER INFORMATION
 LAT .                 -22.3241   : Latitude
 LON .                 114.1234   : Longitude
 DESC.                 Carnarvon Basin — Jurassic Mungaroo Fm gas
~A  DEPT        GR        RHOB      NPHI      RT        DT        CALI
# ...
 2603.3272   111.538    2.5519    0.2830     4.992   196.035     8.885
 2603.4796   101.539    2.4701    0.3271     4.016   172.629     7.928
 2603.6320    88.631    2.4978    0.2914     1.374   188.889     9.004
 2603.7844    87.160    2.4474    0.3177     0.937   174.302     9.092
 2603.9368    76.558    2.4834    0.3709     1.451   145.038     8.653
 2604.0892   107.931    2.4366    0.2736     2.975   196.751     8.521
 2604.2416   101.311    2.4402    0.3539     1.599   152.135     9.147
 2604.3940   100.665    2.5084    0.2493     1.814   200.000     7.624
 2604.5464    81.414    2.4623    0.3102     1.317   178.536     8.643
 2604.6988    65.350    2.4193    0.3157     2.587   180.919     8.240
 2604.8512    90.888    2.4146    0.3112     1.063   174.999     7.680
 2605.0036    92.813    2.4803    0.3350     2.447   161.787     7.863
 2605.1560   100.393    2.4184    0.2857     1.177   193.570     8.001
 2605.3084    95.344    2.4505    0.2796     2.128   196.297     8.261
 2605.4608    98.131    2.4229    0.2650     1.358   200.000     7.468
 2605.6132    80.262    2.3667    0.3583     3.670   157.600     8.471
 2605.7656    89.419    2.4650    0.2929     3.095   195.514     7.698
 2605.9180   101.143    2.5077    0.2760     4.371   196.137     8.329
 2606.0704    95.174    2.4642    0.3040     2.229   186.534     8.672
 2606.2228    89.210    2.4784    0.3920     1.879   138.525     7.712
 2606.3752   106.577    2.4774    0.3005     1.938   177.352     8.295
 2606.5276    93.033    2.4632    0.2824     1.665   196.400     8.534
 2606.6800    92.769    2.4407    0.3509     3.170   161.175     8.778
 2606.8324    96.680    2.4504    0.2824     2.151   193.843     8.670
 2606.9848    71.167    2.4468    0.2965     1.891   198.477     8.932
 2607.1372    86.804    2.5227    0.2871     1.639   200.000     7.947
 2607.2896   101.205    2.5043    0.2919     2.309   183.151     8.484
 2607.4420    99.736    2.5139    0.3836     3.311   153.134     8.249
 2607.5944    92.989    2.3945    0.2485     1.315   200.000     8.004
 2607.7468    83.991    2.4767    0.3171     1.903   176.108     8.350
 2607.8992   104.390    2.4735    0.3211     1.055   167.473     8.678
 2608.0516    95.137    2.4613    0.3107     1.418   182.753     8.483
 2608.2040    95.335    2.3943    0.2636     3.845   200.000     8.235
 2608.3564    90.325    2.4901    0.2467     5.403   200.000     9.372
 2608.5088    95.216    2.4412    0.2781     1.188   200.000     8.908
 2608.6612   101.011    2.4823    0.2486     2.495   200.000     8.485
 2608.8136    89.741    2.5484    0.2538     1.779   200.000     9.243
 2608.9660   100.417    2.4580    0.2608     3.695   200.000     7.821
 2609.1184   112.041    2.4812    0.3628     1.930   155.436     8.272
 2609.2708   105.656    2.3951    0.2386     2.632   200.000     8.981
 2609.4232    94.671    2.4828    0.2863     0.960   191.585     8.531
 2609.5756    73.052    2.4629    0.2985     1.592   184.298     8.337
 2609.7280    92.645    2.5312    0.2840     0.759   199.781     8.423
 2609.8804   113.775    2.5089    0.2750     3.511   200.000     8.642
 2610.0328    82.464    2.4564    0.3094     2.302   178.244     8.336
 2610.1852    95.011    2.4436    0.2871     1.129   189.702     8.643
 2610.3376   119.448    2.5025    0.2906     3.163   186.753     8.879
 2610.4900   103.213    2.4423    0.3328     1.310   163.021     8.641
 2610.6424   105.795    2.4509    0.3017     1.346   181.084     7.308
 2610.7948   108.414    2.4505    0.3491     2.540   156.395     8.727
 2610.9472   116.315    2.4913    0.3033     5.664   182.749     8.787
 2611.0996   100.707    2.4878    0.2653     1.339   200.000     7.754
 2611.2520   105.391    2.4968    0.3323     0.798   167.283     8.474
 2611.4044    95.325    2.4421    0.2469     3.685   200.000     8.340
 2611.5568   107.027    2.4005    0.3024     1.048   167.742     8.516
 2611.7092    97.919    2.4484    0.2873     3.502   184.731     7.916
 2611.8616   114.808    2.5084    0.3208     3.958   174.657     8.219
 2612.0140    69.686    2.4016    0.3155     4.942   176.209     8.160
 2612.1664    84.390    2.3961    0.3462     3.174   163.692     8.224
 2612.3188   107.185    2.4095    0.3212     1.665   183.382     8.230
 2612.4712    93.388    2.4518    0.2948     2.469   183.173     7.820
 2612.6236   101.027    2.4586    0.3219     1.635   173.495     8.250
 2612.7760    88.712    2.4801    0.2727     2.884   198.685     8.411
 2612.9284   115.521    2.4671    0.3488     1.057   145.028     8.763
 2613.0808   100.438    2.5448    0.3496     1.847   153.274     8.863
 2613.2332    97.764    2.4091    0.1900     3.266   200.000     8.987
 2613.3856    82.526    2.5098    0.3064     5.245   177.618     8.747
 2613.5380    84.884    2.4321    0.2877     2.060   188.419     8.383
 2613.6904    98.303    2.4896    0.2616     1.083   200.000     8.290
 2613.8428    97.219    2.6098    0.3313     1.094   170.689     7.982
 2613.9952   101.992    2.5275    0.2896     0.568   198.069     8.438
 2614.1476    91.556    2.4199    0.3123     1.498   181.172     8.469
 2614.3000   109.943    2.4607    0.2313     1.188   200.000     8.376
 2614.4524    92.939    2.4372    0.3721     1.274   149.081     8.151
 2614.6048   102.915    2.4776    0.2370     1.717   200.000     8.563
 2614.7572    87.291    2.5198    0.3359     1.159   162.814     8.845
 2614.9096   108.248    2.4845    0.2517     2.977   200.000     8.750
 2615.0620    76.758    2.4673    0.3318     2.591   169.931     8.738
 2615.2144   104.973    2.5163    0.2674     0.791   200.000     8.329
 2615.3668    96.691    2.4750    0.3202     0.584   172.396     8.556
 2615.5192   105.333    2.4174    0.2644     3.159   200.000     8.725
 2615.6716    93.645    2.4746    0.2651     5.910   200.000     8.217
 2615.8240    93.901    2.5055    0.2343     3.271   200.000     8.547
 2615.9764    83.326    2.5189    0.3048     0.937   178.533     8.971
 2616.1288   106.227    2.4719    0.2631     2.309   200.000     8.494
 2616.2812   103.709    2.4778    0.3116     3.384   168.654     8.790
 2616.4336    90.175    2.4969    0.3051     2.496   179.117     8.521
 2616.5860   107.172    2.4703    0.2895     2.867   200.000     8.752
 2616.7384   102.485    2.4470    0.2701     2.559   200.000     8.832
 2616.8908    81.400    2.3802    0.2867     2.212   184.523     9.013
 2617.0432   103.212    2.5070    0.2322     4.674   200.000     7.826
 2617.1956    91.126    2.4274    0.2911     3.245   184.468     8.867
 2617.3480    95.943    2.4894    0.2876     2.280   200.000     8.574
 2617.5004    98.974    2.5081    0.2575     1.275   200.000     9.136
 2617.6528    80.900    2.5441    0.2401     0.934   200.000     9.023
 2617.8052   118.259    2.5019    0.2882     1.475   198.588     8.751
 2617.9576    87.327    2.5532    0.2669     0.658   200.000     8.301
 2618.1100    91.425    2.4910    0.2844     4.913   188.750     8.864
 2618.2624    94.665    2.4680    0.2954     2.118   182.067     8.485
 2618.4148   102.977    2.4985    0.3266     1.668   170.841     8.625
 2618.5672   106.804    2.5075    0.3051     2.368   176.770     8.673
 2618.7196    96.215    2.4251    0.2525     1.974   200.000     8.303
 2618.8720   100.824    2.4657    0.2492     4.804   200.000     8.496
 2619.0244   102.765    2.4413    0.2329     0.659   200.000     8.166
 2619.1768    98.046    2.4310    0.3559     1.974   152.406     9.133
 2619.3292    98.307    2.3788    0.2629     3.405   200.000     9.032
 2619.4816    76.225    2.4442    0.2233     1.881   200.000     7.858
 2619.6340   109.945    2.4361    0.2574     1.349   200.000     7.858
 2619.7864    81.606    2.4043    0.3132     4.340   178.203     8.428
 2619.9388    83.112    2.4813    0.2664     1.534   200.000     8.340
 2620.0912    97.446    2.3286    0.3164     4.803   174.103     8.969
 2620.2436    92.328    2.5785    0.2985     1.082   166.400     8.167
 2620.3960    79.099    2.4717    0.3269     1.853   164.806     8.163
