~VERSION INFORMATION
 VERS.                 2.0    : CWLS LOG ASCII STANDARD
 WRAP.                 NO     : ONE LINE PER DEPTH STEP
~WELL INFORMATION
 WELL.                 Carnarvon-1    : Well name
 FLD .                 Carnarvon Basin         : Field
 CTRY.                 Australia       : Country
 STRT.M                2500.0000 : START DEPTH
 STOP.M                4000.0000   : STOP DEPTH
 STEP.M                0.1524        : STEP
 NULL.                 -999.25          : NULL VALUE
 SRVC.                 SubsurfAI        : Service company
~CURVE INFORMATION
 DEPT.M                              : Depth
 GR  .GAPI                           : Gamma Ray
 RHOB.G/C3                           : Bulk Density
 NPHI.V/V                            : Neutron Porosity
 RT  .OHMM                           : True Resistivity
 DT  .US/F                           : Sonic
 CALI.IN                             : Caliper
~PARAMETER INFORMATION
 LAT .                 -22.3241   : Latitude
 LON .                 114.1234   : Longitude
 DESC.                 Carnarvon Basin — Jurassic Mungaroo Fm gas
~A  DEPT        GR        RHOB      NPHI      RT        DT        CALI
# ...
 3688.2628    34.330    2.3173    0.1738    39.794   200.000     8.959
 3688.4152    26.362    2.2313    0.1672    64.482   200.000     8.767
 3688.5676    33.876    2.3052    0.1952    45.712   200.000     8.658
 3688.7200    30.206    2.2997    0.1681    34.864   200.000     8.727
 3688.8724    26.147    2.2913    0.2197    52.228   200.000     8.271
 3689.0248    30.995    2.2838    0.2179    95.023   200.000     8.828
 3689.1772    29.355    2.2728    0.2048    33.622   200.000     8.662
 3689.3296    35.654    2.3367    0.1616    31.117   200.000     9.842
 3689.4820    33.095    2.2973    0.1625    46.908   200.000     8.651
 3689.6344    31.716    2.2534    0.1753    78.613   200.000     8.013
 3689.7868    39.541    2.2099    0.2716    38.508   200.000     8.947
 3689.9392    35.220    2.2998    0.1477    87.656   200.000     8.593
 3690.0916    30.434    2.2559    0.2219    64.544   200.000     8.279
 3690.2440    36.178    2.2818    0.2624   115.646   200.000     8.704
 3690.3964    31.490    2.2499    0.2171    24.859   200.000     8.340
 3690.5488    24.134    2.2287    0.2351    61.985   200.000     8.181
 3690.7012    36.164    2.2432    0.1682    63.209   200.000     8.065
 3690.8536    34.876    2.2119    0.1594    54.377   200.000     7.870
 3691.0060    31.839    2.3352    0.2133    69.668   200.000     8.757
 3691.1584    39.600    2.2356    0.1860    62.102   200.000     8.443
 3691.3108    31.544    2.2534    0.2003    40.507   200.000     8.275
 3691.4632    28.817    2.2643    0.1747    95.573   200.000     8.132
 3691.6156    30.551    2.2675    0.2001   139.884   200.000     9.141
 3691.7680    31.670    2.1903    0.2408    31.484   200.000     8.645
 3691.9204    33.295    2.2226    0.2401    42.211   200.000     7.748
 3692.0728    39.665    2.1933    0.1674    33.959   200.000     8.070
 3692.2252    39.458    2.2457    0.1622    37.929   200.000     8.580
 3692.3776    33.843    2.2231    0.1997   138.108   200.000     8.406
 3692.5300    28.941    2.2739    0.2362    35.803   200.000     8.975
 3692.6824    35.938    2.2429    0.1752    30.333   200.000     8.812
 3692.8348    31.574    2.2357    0.1962    54.854   200.000     8.860
 3692.9872    31.780    2.3374    0.1616   124.728   200.000     8.712
 3693.1396    36.633    2.3730    0.2364    53.825   200.000     9.113
 3693.2920    34.998    2.3081    0.1898   106.091   200.000     8.101
 3693.4444    27.795    2.3076    0.1887    40.995   200.000     8.131
 3693.5968    34.514    2.1910    0.1279   114.189   200.000     8.210
 3693.7492    32.061    2.3966    0.2313    26.453   200.000     8.572
 3693.9016    29.725    2.1974    0.1718    40.973   200.000     8.343
 3694.0540    21.789    2.2454    0.1862    39.366   200.000     8.573
 3694.2064    32.497    2.2641    0.1779    52.258   200.000     8.446
 3694.3588    33.464    2.3694    0.2285    49.670   200.000     9.035
 3694.5112    34.274    2.2703    0.1708    33.139   200.000     8.514
 3694.6636    29.700    2.2793    0.2395    30.564   200.000     8.758
 3694.8160    24.775    2.2802    0.2438    32.754   200.000     8.024
 3694.9684    36.152    2.2258    0.2072    40.608   200.000     8.644
 3695.1208    29.499    2.2994    0.2474   119.099   200.000     8.465
 3695.2732    39.163    2.2252    0.2898    53.322   183.361     8.659
 3695.4256    33.936    2.2945    0.1635    56.031   200.000     8.430
 3695.5780    31.275    2.3235    0.1990    20.603   200.000     8.922
 3695.7304    30.617    2.3607    0.1961    39.612   200.000     8.384
 3695.8828    19.077    2.2589    0.2242    33.498   200.000     9.149
 3696.0352    32.200    2.1816    0.1792    78.796   200.000     8.758
 3696.1876    33.093    2.1544    0.2509    32.913   200.000     9.080
 3696.3400    45.695    2.2949    0.1490    88.800   200.000     9.695
 3696.4924    29.998    2.2601    0.1542    48.066   200.000     7.937
 3696.6448    37.278    2.3209    0.1525    35.383   200.000     8.508
 3696.7972    31.601    2.2834    0.2646    40.111   200.000     8.636
 3696.9496    36.007    2.3227    0.1905    25.160   200.000     8.505
 3697.1020    33.642    2.1934    0.2184    30.553   200.000     8.768
 3697.2544    26.042    2.3035    0.1586    69.240   200.000     8.351
 3697.4068    32.118    2.2693    0.1458    26.314   200.000     8.797
 3697.5592    35.911    2.2885    0.2107    69.370   200.000     8.392
 3697.7116    30.316    2.2121    0.2005    48.436   200.000     9.152
 3697.8640    35.935    2.2677    0.1758    19.100   200.000     7.790
 3698.0164    32.903    2.2786    0.1758    55.237   200.000     8.861
 3698.1688    26.138    2.3220    0.1987    38.156   200.000     8.866
 3698.3212    27.778    2.3334    0.1523    90.167   200.000     9.250
 3698.4736    31.495    2.2853    0.1698    33.000   200.000     8.388
 3698.6260    24.802    2.3006    0.1837    48.037   200.000     7.993
 3698.7784    29.999    2.3341    0.1831    47.887   200.000     9.100
 3698.9308    30.978    2.2563    0.2279    24.917   200.000     8.052
 3699.0832    27.357    2.3413    0.2059    91.611   200.000     8.984
 3699.2356    32.044    2.2472    0.2321    86.978   200.000     8.079
 3699.3880    32.494    2.2717    0.1985   113.471   200.000     8.676
 3699.5404    36.646    2.2722    0.2363    33.801   200.000     8.893
 3699.6928    72.306    2.4646    0.2180     1.453   200.000     8.461
 3699.8452    94.318    2.3389    0.3212     1.463   175.989     8.747
 3699.9976   106.087    2.3699    0.2653     3.326   200.000     8.273
 3700.1500    92.752    2.4774    0.2283     2.107   200.000     8.796
 3700.3024    88.688    2.4519    0.2596     2.464   200.000     8.737
 3700.4548   104.370    2.5596    0.2708     1.520   200.000     8.329
 3700.6072    97.413    2.5468    0.2552     5.254   200.000     8.213
 3700.7596   113.314    2.5118    0.2574     2.759   200.000     8.546
 3700.9120    95.338    2.5207    0.2305     1.777   200.000     8.663
 3701.0644    96.713    2.4360    0.2534     2.343   200.000     8.686
 3701.2168    74.629    2.4498    0.3423     5.475   151.398     8.028
 3701.3692    84.977    2.4281    0.2403     3.622   200.000     8.521
 3701.5216   111.120    2.4322    0.3280     4.247   163.635     8.529
 3701.6740    88.394    2.3377    0.2485     2.873   200.000     9.110
 3701.8264    80.010    2.3915    0.3166     2.483   167.246     8.239
 3701.9788   105.102    2.4330    0.2784     1.316   198.005     9.147
 3702.1312    81.727    2.4831    0.2790     3.305   195.490     8.249
 3702.2836    78.061    2.5303    0.2655     3.453   200.000     8.187
 3702.4360    99.261    2.3690    0.2737     2.972   200.000     7.911
 3702.5884    86.436    2.4676    0.2729     4.646   193.210     8.486
 3702.7408    89.989    2.4603    0.2957     2.213   191.078     8.269
 3702.8932    74.535    2.4985    0.2067     4.909   200.000     8.969
 3703.0456    98.132    2.4199    0.2227     1.976   200.000     8.230
 3703.1980    89.643    2.4954    0.2302     1.484   200.000     8.566
 3703.3504   103.274    2.4667    0.2625     2.815   200.000     8.474
 3703.5028    91.884    2.5606    0.2687     3.726   200.000     8.140
 3703.6552    87.041    2.4248    0.2311     2.443   200.000     8.075
 3703.8076   101.262    2.4519    0.3094     2.218   174.481     8.058
 3703.9600    76.041    2.4791    0.2574     2.329   200.000     8.572
 3704.1124   109.308    2.3885    0.2117     1.536   200.000     8.349
 3704.2648    88.352    2.4774    0.2597     1.517   200.000     9.036
 3704.4172   112.349    2.4016    0.2526     1.938   200.000     7.915
 3704.5696    96.774    2.5317    0.2850     1.126   189.292     7.698
 3704.7220    92.477    2.4574    0.2910     2.401   196.417     8.147
 3704.8744   104.016    2.4416    0.2365     4.662   200.000     8.574
 3705.0268    98.786    2.4991    0.2922     3.915   191.657     8.248
 3705.1792    81.020    2.4894    0.3163     0.993   165.710     8.730
 3705.3316    86.056    2.4475    0.2254     1.397   200.000     8.458
