~VERSION INFORMATION
 VERS.                 2.0    : CWLS LOG ASCII STANDARD
 WRAP.                 NO     : ONE LINE PER DEPTH STEP
~WELL INFORMATION
 WELL.                 Carnarvon-1    : Well name
 FLD .                 Carnarvon Basin         : Field
 CTRY.                 Australia       : Country
 STRT.M                2500.0000 : START DEPTH
 STOP.M                4000.0000   : STOP DEPTH
 STEP.M                0.1524        : STEP
 NULL.                 -999.25          : NULL VALUE
 SRVC.                 SubsurfAI        : Service company
~CURVE INFORMATION
 DEPT.M                              : Depth
 GR  .GAPI                           : Gamma Ray
 RHOB.G/C3                           : Bulk Density
 NPHI.V/V                            : Neutron Porosity
 RT  .OHMM                           : True Resistivity
 DT  .US/F                           : Sonic
 CALI.IN                             : Caliper
~PARAMETER INFORMATION
 LAT .                 -22.3241   : Latitude
 LON .                 114.1234   : Longitude
 DESC.                 Carnarvon Basin — Jurassic Mungaroo Fm gas
~A  DEPT        GR        RHOB      NPHI      RT        DT        CALI
# ...
 2689.4332    91.952    2.5207    0.2849     1.413   192.552     9.429
 2689.5856    82.578    2.4184    0.2737     2.436   199.810     8.175
 2689.7380    84.583    2.4643    0.3002     1.406   189.044     8.310
 2689.8904    86.837    2.4960    0.2455     2.165   200.000     8.968
 2690.0428    93.451    2.4749    0.3301     1.436   166.241     8.921
 2690.1952   102.567    2.5303    0.2614     1.633   200.000     8.664
 2690.3476    96.778    2.4568    0.2835     0.724   191.204     8.277
 2690.5000   102.189    2.6049    0.2319     1.065   200.000     8.773
 2690.6524    97.363    2.4403    0.3034     2.802   180.515     8.534
 2690.8048    91.437    2.4913    0.2550     1.963   200.000     8.586
 2690.9572   102.609    2.4718    0.2917     1.685   193.886     8.166
 2691.1096   100.050    2.5262    0.3604     1.086   149.860     9.066
 2691.2620    83.582    2.5649    0.2911     1.363   187.292     9.245
 2691.4144   110.896    2.4571    0.3249     2.647   169.133     8.953
 2691.5668    82.032    2.4776    0.3083     2.460   179.719     8.756
 2691.7192   109.625    2.5340    0.3577     0.755   148.757     9.270
 2691.8716    98.707    2.4050    0.2200     1.994   200.000     8.858
 2692.0240   108.118    2.5037    0.2401     2.124   200.000     7.756
 2692.1764    88.974    2.4914    0.2767     1.913   199.427     8.362
 2692.3288    99.121    2.4442    0.2550     2.337   200.000     8.663
 2692.4812    85.779    2.5129    0.3022     2.157   177.757     8.662
 2692.6336   121.960    2.4439    0.1859     1.192   200.000     8.075
 2692.7860    93.344    2.4696    0.3438     2.647   161.578     8.041
 2692.9384    94.797    2.4965    0.2894     1.016   194.042     7.834
 2693.0908    87.285    2.4526    0.2647     0.401   199.678     8.739
 2693.2432    75.544    2.5101    0.3224     2.978   171.944     8.425
 2693.3956    93.075    2.4818    0.2795     3.361   200.000     8.729
 2693.5480    77.954    2.4471    0.2463     2.365   200.000     8.337
 2693.7004    83.621    2.4356    0.2674     5.245   200.000     8.142
 2693.8528    97.506    2.4218    0.2749     2.111   194.667     8.029
 2694.0052    94.073    2.5156    0.2947     2.929   184.158     9.089
 2694.1576   101.958    2.3514    0.2745     3.897   198.817     8.275
 2694.3100    75.940    2.4787    0.3021     1.319   181.981     8.080
 2694.4624    84.249    2.4969    0.2909     1.333   200.000     9.495
 2694.6148   100.005    2.4863    0.2483     4.202   200.000     8.093
 2694.7672   101.730    2.4633    0.3128     3.357   171.608     8.353
 2694.9196    91.544    2.5308    0.2770     4.149   190.150     8.752
 2695.0720    98.082    2.5052    0.2263     1.675   200.000     9.229
 2695.2244    84.727    2.5312    0.3291     2.607   165.502     8.924
 2695.3768   116.401    2.4361    0.3673     1.224   138.478     7.850
 2695.5292   103.949    2.3939    0.2001     4.929   200.000     9.120
 2695.6816    85.835    2.4646    0.3336     1.665   166.389     8.835
 2695.8340    76.197    2.5121    0.2469     1.130   200.000     8.411
 2695.9864   110.336    2.4086    0.3958     2.596   134.073     8.433
 2696.1388    82.055    2.4450    0.2407     1.233   200.000     8.674
 2696.2912   110.994    2.4119    0.3387     1.616   162.191     8.316
 2696.4436    94.439    2.4458    0.2852     1.265   200.000     8.241
 2696.5960    82.165    2.4772    0.2436     1.248   200.000     8.466
 2696.7484   100.672    2.4914    0.2534     1.821   200.000     8.843
 2696.9008    98.811    2.4610    0.2045     1.629   200.000     8.561
 2697.0532    86.542    2.5292    0.3301     0.949   172.861     8.940
 2697.2056    90.501    2.5294    0.2768     2.043   200.000     8.385
 2697.3580   103.248    2.4477    0.2170     8.275   200.000     8.513
 2697.5104   103.340    2.4209    0.2982     1.817   184.964     9.010
 2697.6628    90.972    2.5196    0.2222     2.095   200.000     7.780
 2697.8152   101.123    2.4836    0.2743     2.028   199.476     7.994
 2697.9676    99.819    2.4578    0.2258     3.015   200.000     8.359
 2698.1200   111.197    2.4252    0.2794     2.269   200.000     8.390
 2698.2724    74.458    2.4916    0.3354     1.279   168.562     8.224
 2698.4248   121.358    2.4943    0.3239     2.512   170.086     8.037
 2698.5772    88.835    2.4028    0.2339     0.948   200.000     8.544
 2698.7296    93.165    2.4725    0.3294     4.936   173.309     8.286
 2698.8820   113.280    2.5222    0.3409     2.020   160.663     8.103
 2699.0344    76.859    2.4994    0.3532     0.796   156.711     9.158
 2699.1868   106.805    2.3922    0.2747     0.918   200.000     7.975
 2699.3392   108.171    2.4380    0.2556     3.502   200.000     8.795
 2699.4916   127.622    2.3804    0.2656     1.079   200.000     8.422
 2699.6440   104.288    2.5116    0.2678     1.693   200.000     8.362
 2699.7964    89.495    2.4306    0.2930     1.541   188.752     8.493
 2699.9488   108.068    2.4659    0.2575     2.794   200.000     8.978
 2700.1012    92.588    2.5428    0.2763     1.067   200.000     8.502
 2700.2536    96.541    2.3953    0.2453     1.026   200.000     8.055
 2700.4060    80.601    2.4366    0.2258     2.206   200.000     8.666
 2700.5584   104.929    2.3890    0.2943     2.269   191.141     9.039
 2700.7108   115.199    2.4121    0.2648     3.533   200.000     8.273
 2700.8632   105.584    2.4578    0.2918     2.335   193.659     8.381
 2701.0156   114.908    2.4620    0.2330     2.193   200.000     8.711
 2701.1680   106.847    2.4440    0.3259     2.470   164.190     8.702
 2701.3204    84.287    2.5754    0.3403     2.551   164.826     8.359
 2701.4728    87.522    2.4880    0.3118     0.957   175.571     8.079
 2701.6252    99.191    2.5571    0.3458     3.827   158.406     8.438
 2701.7776    98.790    2.4279    0.3087     2.912   175.818     8.466
 2701.9300   107.674    2.4630    0.2291     4.153   200.000     9.289
 2702.0824    90.895    2.4809    0.3079     0.684   184.596     8.145
 2702.2348    99.140    2.4664    0.2566     2.468   200.000     8.670
 2702.3872    84.107    2.4626    0.2408     6.092   200.000     8.478
 2702.5396    82.591    2.5004    0.2786     4.889   194.177     8.584
 2702.6920    84.984    2.4977    0.3340     2.544   155.377     8.303
 2702.8444    89.613    2.4023    0.2338     1.751   200.000     9.106
 2702.9968    76.183    2.5461    0.2461     2.164   200.000     8.082
 2703.1492    91.589    2.4945    0.3377     2.489   156.228     8.137
 2703.3016    69.998    2.5051    0.2992     1.678   181.754     8.857
 2703.4540    86.464    2.4607    0.2693     2.714   200.000     7.205
 2703.6064    90.356    2.5354    0.2575     2.312   200.000     8.285
 2703.7588   114.013    2.5179    0.3702     1.830   148.070     7.934
 2703.9112   103.149    2.4203    0.2380     1.529   200.000     8.579
 2704.0636    97.627    2.5489    0.2529     4.273   200.000     8.503
 2704.2160    94.728    2.4048    0.3624     2.035   157.496     8.297
 2704.3684    96.090    2.5198    0.3133     2.122   169.289     8.438
 2704.5208   104.233    2.4400    0.2869     1.287   189.135     8.822
 2704.6732    85.406    2.4047    0.3145     0.771   176.512     8.476
 2704.8256    96.482    2.4688    0.2603     2.047   200.000     8.828
 2704.9780   109.919    2.4128    0.3322     2.276   163.526     7.052
 2705.1304    81.971    2.4522    0.2768     1.949   200.000     8.588
 2705.2828    94.290    2.4219    0.3182     3.178   173.927     8.351
 2705.4352    79.596    2.5229    0.2756     2.998   194.557     8.804
 2705.5876    99.250    2.4099    0.3005     2.947   179.437     8.539
 2705.7400   102.316    2.4557    0.2654     4.391   200.000     8.907
 2705.8924    95.609    2.5030    0.2742     1.500   200.000     9.224
 2706.0448   111.908    2.5156    0.2837     2.437   193.562     9.090
 2706.1972    86.110    2.4987    0.3082     1.737   180.216     8.509
 2706.3496    96.211    2.5414    0.3112     1.812   178.313     8.635
 2706.5020    83.284    2.4326    0.2969     1.551   183.082     8.605
