~VERSION INFORMATION
 VERS.                 2.0    : CWLS LOG ASCII STANDARD
 WRAP.                 NO     : ONE LINE PER DEPTH STEP
~WELL INFORMATION
 WELL.                 Carnarvon-1    : Well name
 FLD .                 Carnarvon Basin         : Field
 CTRY.                 Australia       : Country
 STRT.M                2500.0000 : START DEPTH
 STOP.M                4000.0000   : STOP DEPTH
 STEP.M                0.1524        : STEP
 NULL.                 -999.25          : NULL VALUE
 SRVC.                 SubsurfAI        : Service company
~CURVE INFORMATION
 DEPT.M                              : Depth
 GR  .GAPI                           : Gamma Ray
 RHOB.G/C3                           : Bulk Density
 NPHI.V/V                            : Neutron Porosity
 RT  .OHMM                           : True Resistivity
 DT  .US/F                           : Sonic
 CALI.IN                             : Caliper
~PARAMETER INFORMATION
 LAT .                 -22.3241   : Latitude
 LON .                 114.1234   : Longitude
 DESC.                 Carnarvon Basin — Jurassic Mungaroo Fm gas
~A  DEPT        GR        RHOB      NPHI      RT        DT        CALI
# ...
 2792.7604   115.702    2.5705    0.2626     1.951   200.000     8.552
 2792.9128    92.824    2.3949    0.3514     2.009   167.462     8.388
 2793.0652   102.894    2.5540    0.1873     3.133   200.000     7.651
 2793.2176    99.198    2.4419    0.2637     1.995   200.000     7.675
 2793.3700   109.932    2.3814    0.3206     2.787   173.079     8.237
 2793.5224    86.723    2.4374    0.2656     2.939   200.000     8.755
 2793.6748    95.354    2.3727    0.3306     0.670   155.406     8.179
 2793.8272    50.755    2.5348    0.2603     2.103   200.000     8.595
 2793.9796    95.101    2.4478    0.3241     1.046   174.205     8.741
 2794.1320    94.690    2.4791    0.3076     1.761   170.839     8.720
 2794.2844   101.865    2.4629    0.3277     1.668   176.685     8.175
 2794.4368    93.344    2.4263    0.3100     2.030   178.300     8.255
 2794.5892    94.983    2.4983    0.3083     1.942   179.657     8.831
 2794.7416    80.875    2.5035    0.2547     2.455   200.000     9.009
 2794.8940    94.771    2.4654    0.3566     1.572   150.017     8.145
 2795.0464   115.064    2.4423    0.3132     5.198   178.374     8.241
 2795.1988    90.153    2.4410    0.2704     1.206   200.000     8.779
 2795.3512    83.497    2.5044    0.2783     1.628   185.857     8.869
 2795.5036    86.043    2.4591    0.3024     1.174   186.767     8.187
 2795.6560   126.465    2.4965    0.2664     1.058   200.000     8.691
 2795.8084    92.672    2.4508    0.2601     1.422   200.000     7.589
 2795.9608    82.960    2.4097    0.2588     0.844   200.000     8.481
 2796.1132    73.199    2.4585    0.2640     1.071   200.000     8.774
 2796.2656    90.589    2.4824    0.3277     2.777   177.122     8.149
 2796.4180   112.626    2.5115    0.3080     1.073   178.047     8.878
 2796.5704   108.711    2.4662    0.2878     2.108   197.352     8.945
 2796.7228   101.593    2.5314    0.3201     1.402   162.461     8.940
 2796.8752   106.979    2.4530    0.2072     1.541   200.000     7.710
 2797.0276    85.127    2.5208    0.2759     0.723   192.960     8.958
 2797.1800   102.104    2.5089    0.3360     1.579   165.254     8.713
 2797.3324    85.184    2.5143    0.2581     3.006   200.000     8.212
 2797.4848    91.225    2.5050    0.2564     0.769   200.000     8.396
 2797.6372   114.499    2.4959    0.2706     2.818   200.000     7.835
 2797.7896    95.430    2.4896    0.3161     1.162   182.952     8.435
 2797.9420   110.916    2.4446    0.2930     1.519   183.314     8.373
 2798.0944    96.690    2.5774    0.3160     2.775   173.588     8.343
 2798.2468   108.221    2.4851    0.2265     2.630   200.000     8.657
 2798.3992    95.776    2.4815    0.3477     4.076   156.181     7.911
 2798.5516    92.430    2.4417    0.2396     1.688   200.000     7.564
 2798.7040   104.779    2.5203    0.3230     3.311   167.253     8.410
 2798.8564    94.833    2.4127    0.4052     1.155   129.603     8.303
 2799.0088    84.880    2.4303    0.2744     3.400   200.000     9.047
 2799.1612    86.388    2.5076    0.3081     0.992   179.886     8.516
 2799.3136    96.904    2.3996    0.2741     1.934   200.000     9.252
 2799.4660   110.313    2.4785    0.2561     2.327   200.000     7.993
 2799.6184    99.308    2.4683    0.2723     1.198   200.000     8.025
 2799.7708    80.914    2.4793    0.2253     3.469   200.000     8.536
 2799.9232    30.757    2.2559    0.1627    46.179   200.000     8.872
 2800.0756    24.922    2.2131    0.1782   255.809   200.000     8.552
 2800.2280    27.964    2.2732    0.1971    72.031   200.000     8.980
 2800.3804    31.205    2.1824    0.1825   107.251   200.000     8.454
 2800.5328    34.283    2.1802    0.1348    71.167   200.000     8.467
 2800.6852    35.557    2.2318    0.1758    56.466   200.000     8.513
 2800.8376    24.100    2.2186    0.1862   144.449   200.000     8.602
 2800.9900    27.113    2.2740    0.1674    74.869   200.000     9.221
 2801.1424    28.710    2.2594    0.1320    90.014   200.000     8.674
 2801.2948    22.168    2.2039    0.2318    89.422   200.000     7.952
 2801.4472    24.995    2.2236    0.1953    67.059   200.000     8.366
 2801.5996    24.781    2.2969    0.1926   123.754   200.000     8.651
 2801.7520    23.428    2.2260    0.1861    70.318   200.000     8.467
 2801.9044    35.935    2.2924    0.2122   173.687   200.000     8.149
 2802.0568    18.932    2.2532    0.1893    99.723   200.000     8.683
 2802.2092    28.494    2.2637    0.1960   162.795   200.000     7.837
 2802.3616    22.624    2.2710    0.1689   107.601   200.000     8.102
 2802.5140    30.514    2.3514    0.1853    82.876   200.000     8.224
 2802.6664    33.640    2.2111    0.1442   110.958   200.000     8.560
 2802.8188    23.030    2.1982    0.1686    59.427   200.000     9.019
 2802.9712    27.368    2.1886    0.2270   100.302   200.000     8.239
 2803.1236    34.350    2.2333    0.2097   126.310   200.000     8.294
 2803.2760    28.659    2.1584    0.2111    97.757   200.000     8.288
 2803.4284    30.353    2.2558    0.2047   193.538   200.000     8.186
 2803.5808    29.709    2.2219    0.1941    41.394   200.000     8.910
 2803.7332    24.959    2.2051    0.1220    70.879   200.000     8.154
 2803.8856    27.167    2.2534    0.1708    75.491   200.000     7.891
 2804.0380    35.637    2.2305    0.1718    40.856   200.000     7.959
 2804.1904    31.215    2.2916    0.1892    89.306   200.000     9.243
 2804.3428    30.649    2.2201    0.1494    43.136   200.000     8.488
 2804.4952    33.492    2.2530    0.1636    58.470   200.000     8.440
 2804.6476    25.291    2.2453    0.1559   121.026   200.000     9.006
 2804.8000    29.798    2.1860    0.1825   170.114   200.000     7.810
 2804.9524    30.593    2.2246    0.1770    92.915   200.000     8.150
 2805.1048    25.245    2.2813    0.1770    61.911   200.000     8.076
 2805.2572    15.256    2.2066    0.2189    59.815   200.000     8.369
 2805.4096    27.654    2.2431    0.1594   105.489   200.000     8.651
 2805.5620    24.995    2.1962    0.2154    21.069   200.000     8.977
 2805.7144    29.303    2.2012    0.1843   106.139   200.000     8.272
 2805.8668    26.880    2.2609    0.1492    49.211   200.000     8.019
 2806.0192    24.415    2.2236    0.1111    36.681   200.000     8.874
 2806.1716    27.018    2.3067    0.2341    55.683   200.000     8.409
 2806.3240    23.567    2.1593    0.1980    57.622   200.000     8.596
 2806.4764    22.483    2.2678    0.1755    75.177   200.000     8.555
 2806.6288    24.821    2.3043    0.2260    29.044   200.000     9.038
 2806.7812    21.248    2.2883    0.2503   103.681   200.000     8.362
 2806.9336    27.151    2.1921    0.2079    43.443   200.000     7.982
 2807.0860    34.048    2.1866    0.1571   105.533   200.000     9.234
 2807.2384    20.116    2.2428    0.1966    68.135   200.000     8.714
 2807.3908    33.173    2.2469    0.1787   138.603   200.000     8.746
 2807.5432    38.001    2.2975    0.1625   107.564   200.000     8.435
 2807.6956    29.383    2.2135    0.1553   120.748   200.000     8.687
 2807.8480    34.753    2.2579    0.1940    62.338   200.000     8.844
 2808.0004    36.756    2.1891    0.1904    99.606   200.000     8.025
 2808.1528    29.186    2.2627    0.2109   152.346   200.000     8.531
 2808.3052    27.585    2.2755    0.2137   105.425   200.000     8.322
 2808.4576    32.090    2.2266    0.1940    61.295   200.000     8.218
 2808.6100    25.801    2.2648    0.1816   136.802   200.000     8.378
 2808.7624    27.094    2.2526    0.1963    75.848   200.000     8.091
 2808.9148    27.679    2.2464    0.2470    30.076   200.000     7.996
 2809.0672    25.471    2.2786    0.1672    20.759   200.000     8.883
 2809.2196    25.034    2.2625    0.1865   137.381   200.000     9.259
 2809.3720    30.434    2.1659    0.1433   238.809   200.000     8.980
 2809.5244    26.871    2.1993    0.1125   102.458   200.000     8.693
 2809.6768    19.785    2.3569    0.2466   104.620   200.000     8.373
 2809.8292    27.045    2.3103    0.2112    80.297   200.000     8.270
