~VERSION INFORMATION
 VERS.                 2.0    : CWLS LOG ASCII STANDARD
 WRAP.                 NO     : ONE LINE PER DEPTH STEP
~WELL INFORMATION
 WELL.                 Carnarvon-1    : Well name
 FLD .                 Carnarvon Basin         : Field
 CTRY.                 Australia       : Country
 STRT.M                2500.0000 : START DEPTH
 STOP.M                4000.0000   : STOP DEPTH
 STEP.M                0.1524        : STEP
 NULL.                 -999.25          : NULL VALUE
 SRVC.                 SubsurfAI        : Service company
~CURVE INFORMATION
 DEPT.M                              : Depth
 GR  .GAPI                           : Gamma Ray
 RHOB.G/C3                           : Bulk Density
 NPHI.V/V                            : Neutron Porosity
 RT  .OHMM                           : True Resistivity
 DT  .US/F                           : Sonic
 CALI.IN                             : Caliper
~PARAMETER INFORMATION
 LAT .                 -22.3241   : Latitude
 LON .                 114.1234   : Longitude
 DESC.                 Carnarvon Basin — Jurassic Mungaroo Fm gas
~A  DEPT        GR        RHOB      NPHI      RT        DT        CALI
# ...
 3791.5900    77.984    2.5731    0.2547     1.219   200.000     8.177
 3791.7424    84.246    2.5375    0.2611     2.657   200.000     8.073
 3791.8948    95.179    2.4154    0.2474     2.147   200.000     8.207
 3792.0472    89.456    2.6029    0.2704     3.855   200.000     8.972
 3792.1996    83.531    2.5044    0.3284     1.302   162.106     8.335
 3792.3520    80.664    2.4627    0.3037     2.181   180.553     8.597
 3792.5044    73.239    2.4142    0.2240     1.384   200.000     8.685
 3792.6568    78.210    2.4433    0.2718     3.953   200.000     9.172
 3792.8092    79.392    2.3711    0.3293     4.108   168.139     8.684
 3792.9616   102.508    2.4906    0.2722     2.779   200.000     8.463
 3793.1140    86.121    2.4382    0.2953     3.029   182.388     7.948
 3793.2664   104.338    2.4821    0.2125     1.086   200.000     8.333
 3793.4188   113.454    2.4707    0.2656     3.608   200.000     8.082
 3793.5712    86.157    2.4388    0.2699     1.933   200.000     7.961
 3793.7236   100.061    2.5353    0.2762     3.080   196.100     8.774
 3793.8760    97.859    2.4859    0.2567     3.673   200.000     7.492
 3794.0284   101.720    2.4771    0.2623     2.828   200.000     8.677
 3794.1808    79.353    2.4391    0.2511     3.700   200.000     8.590
 3794.3332    91.887    2.4595    0.2883     1.291   187.339     6.953
 3794.4856    93.598    2.4811    0.3032     2.664   175.066     8.092
 3794.6380    87.752    2.5345    0.2867     1.249   192.568     9.211
 3794.7904    88.649    2.4563    0.2795     3.015   182.312     8.631
 3794.9428   109.261    2.4343    0.2483     2.025   200.000     8.296
 3795.0952    74.304    2.4030    0.2221     1.618   200.000     8.863
 3795.2476   103.361    2.5188    0.3031     0.922   170.613     8.641
 3795.4000    77.397    2.3822    0.2310     1.982   200.000     8.330
 3795.5524    91.965    2.4475    0.2523     3.540   200.000     8.752
 3795.7048    92.528    2.3814    0.2483     1.994   200.000     8.047
 3795.8572    99.267    2.4692    0.2442     7.692   200.000     8.721
 3796.0096   110.368    2.4234    0.2620     3.636   200.000     8.389
 3796.1620    79.052    2.4147    0.3073     3.617   187.236     8.263
 3796.3144    94.975    2.4238    0.2508     3.257   200.000     8.241
 3796.4668   104.355    2.4468    0.2651     1.824   200.000     8.739
 3796.6192    83.504    2.4134    0.2731     6.153   200.000     8.342
 3796.7716    98.926    2.5513    0.2432     2.375   200.000     8.617
 3796.9240    98.717    2.5103    0.2484     1.839   200.000     8.315
 3797.0764    80.517    2.4436    0.2596     3.429   200.000     8.270
 3797.2288    86.774    2.4195    0.3512     3.232   148.516     8.759
 3797.3812    98.323    2.3689    0.3256     1.591   170.718     8.192
 3797.5336   119.022    2.4345    0.2957     3.726   179.289     8.575
 3797.6860    89.964    2.4824    0.3257     3.010   168.752     8.272
 3797.8384    80.068    2.4176    0.2970     0.596   195.167     8.151
 3797.9908    89.547    2.3849    0.3032     1.285   185.832     8.661
 3798.1432   102.941    2.3896    0.2719     1.506   194.049     8.505
 3798.2956   107.981    2.4071    0.3930     2.455   134.068     8.990
 3798.4480    98.580    2.4547    0.2753     1.591   196.199     8.435
 3798.6004    78.650    2.3166    0.1768     1.639   200.000     7.849
 3798.7528    87.237    2.3870    0.3205     2.137   165.266     8.506
 3798.9052    74.302    2.4264    0.2632     1.846   200.000     8.382
 3799.0576   103.635    2.4555    0.2659     2.708   200.000     8.741
 3799.2100   105.856    2.4373    0.2592     3.129   200.000     8.698
 3799.3624    70.385    2.4619    0.3061     2.161   188.779     8.099
 3799.5148    87.646    2.3891    0.2388     2.365   200.000     9.284
 3799.6672    94.514    2.4334    0.2700     1.771   200.000     8.475
 3799.8196    88.689    2.4974    0.2503     1.463   200.000     8.451
 3799.9720   105.433    2.4462    0.3067     2.938   182.176     9.073
 3800.1244    99.444    2.3964    0.2494     2.128   200.000     8.893
 3800.2768   118.189    2.4642    0.2562     1.706   200.000     7.938
 3800.4292    80.933    2.4509    0.2472     1.540   200.000     8.392
 3800.5816    96.595    2.4763    0.2860     1.437   195.354     7.822
 3800.7340   105.220    2.3874    0.2733     2.231   200.000     7.883
 3800.8864    91.949    2.4923    0.3020     3.594   177.905     9.009
 3801.0388    87.787    2.4621    0.3400     1.714   167.996     7.835
 3801.1912    84.913    2.3467    0.3086     1.095   178.584     8.780
 3801.3436   102.698    2.4059    0.3388     2.264   154.271     8.868
 3801.4960   109.052    2.4614    0.2800     2.630   200.000     8.594
 3801.6484   106.306    2.4584    0.2659     1.775   200.000     8.932
 3801.8008    79.368    2.4363    0.2481     3.564   200.000     8.548
 3801.9532    84.904    2.4534    0.2648     4.153   200.000     8.660
 3802.1056    77.503    2.5061    0.2704     2.889   200.000     7.891
 3802.2580    83.205    2.4533    0.2135     4.704   200.000     8.732
 3802.4104    88.693    2.5109    0.2288     2.384   200.000     9.111
 3802.5628   114.167    2.5013    0.2299     1.782   200.000     8.474
 3802.7152   115.215    2.5415    0.3032     5.205   187.661     7.996
 3802.8676    89.065    2.4538    0.2697     5.466   200.000     8.810
 3803.0200    92.516    2.4015    0.2605     2.448   200.000     8.761
 3803.1724   103.972    2.3835    0.2835     3.138   190.462     7.565
 3803.3248    86.479    2.4845    0.2073     2.338   200.000     9.014
 3803.4772    82.885    2.4862    0.2531     4.120   200.000     8.454
 3803.6296    93.163    2.3526    0.2397     2.255   200.000     8.688
 3803.7820    76.333    2.4354    0.2504     2.336   200.000     7.836
 3803.9344    91.750    2.4733    0.2141     0.799   200.000     8.773
 3804.0868    97.598    2.3157    0.2816     2.919   193.694     8.287
 3804.2392    79.935    2.5392    0.2813     3.396   190.001     8.633
 3804.3916   100.237    2.3826    0.2887     1.574   190.113     8.076
 3804.5440    94.033    2.3824    0.3125     1.620   177.595     9.088
 3804.6964   122.336    2.4083    0.2481     1.751   200.000     8.385
 3804.8488    94.447    2.4116    0.3397     2.230   166.444     8.344
 3805.0012   105.368    2.4716    0.2366     3.525   200.000     8.593
 3805.1536    95.129    2.5062    0.2953     1.927   188.603     8.918
 3805.3060    96.532    2.4505    0.2668     4.795   200.000     8.863
 3805.4584   100.828    2.3703    0.2707     1.744   200.000     8.954
 3805.6108    90.288    2.5811    0.3132     1.180   171.832     9.019
 3805.7632    72.471    2.4136    0.1920     2.959   200.000     7.762
 3805.9156    94.888    2.4634    0.2684     1.884   200.000     8.330
 3806.0680    99.857    2.3897    0.2516     1.777   200.000     8.675
 3806.2204    98.587    2.4373    0.1768     9.119   200.000     8.873
 3806.3728    80.380    2.5003    0.3054     3.289   176.532     9.182
 3806.5252    97.355    2.4080    0.2642     1.157   200.000     8.071
 3806.6776    92.747    2.4958    0.2259     1.562   200.000     8.243
 3806.8300    82.186    2.4987    0.2212     1.786   200.000     8.558
 3806.9824    89.904    2.4094    0.1818     2.302   200.000     8.552
 3807.1348    86.609    2.4444    0.2755     2.552   194.118     8.197
 3807.2872   105.842    2.4544    0.2700     1.465   200.000     8.564
 3807.4396    81.605    2.4624    0.2910     2.344   191.102     8.615
 3807.5920    91.326    2.4342    0.3139     2.926   169.153     7.923
 3807.7444    92.916    2.4516    0.1770     1.596   200.000     8.912
 3807.8968    77.001    2.4477    0.2944     0.763   192.914     8.800
 3808.0492   104.661    2.3689    0.2402     1.136   200.000     8.443
 3808.2016   103.596    2.4513    0.3044     2.440   176.725     9.391
 3808.3540    86.225    2.4775    0.2469     2.122   200.000     8.661
 3808.5064    95.236    2.4874    0.2633     9.338   200.000     8.432
 3808.6588   105.499    2.4645    0.2916     1.942   197.912     8.298
