~VERSION -------------------------------------------
 VERS.                 2.0 : CWLS LOG ASCII STANDARD - VERSION 2.0
 WRAP.                  NO : ONE LINE PER DEPTH STEP
~WELL -----------------------------------------------
 WELL.                CAMPOS-2 : Well name
 UWI .                BR-CAM-002        : Unique Well ID
 LAT .                -22.3456        : Latitude
 LON .                -40.1234        : Longitude
 STRT.M               1800.00 : START DEPTH
 STOP.M               3499.95 : STOP DEPTH
 STEP.M               0.1500 : STEP
 NULL.                -9999 : NULL VALUE
~CURVE -----------------------------------------------
 DEPTH .M               : Depth
 GR    .GAPI            : Gamma Ray
 RHOB  .G/C3            : Bulk Density
 NPHI  .V/V             : Neutron Porosity
 RT    .OHMM            : Resistivity
 CALI  .IN              : Caliper
~A  DEPTH              GR        RHOB        NPHI          RT        CALI
# ...
   2031.7500      63.6737       2.3606       0.2199       9.5836       9.6434
   2031.9000      61.7865       2.3609       0.2126       8.7749       9.6535
   2032.0500      61.6501       2.3563       0.2130       8.8091       9.6080
   2032.2000      57.2496       2.3692       0.2130       8.9496       9.4844
   2032.3500      58.0385       2.3600       0.2223       9.6505       9.5643
   2032.5000      57.8688       2.3453       0.2172       9.6689       9.3905
   2032.6500      55.9707       2.3548       0.2163       9.6349       9.3910
   2032.8000      55.7777       2.3487       0.2244       8.5045       9.3459
   2032.9500      57.3670       2.3340       0.2197       9.9399       9.3686
   2033.1000      59.3014       2.3283       0.2233       9.3300       9.4200
   2033.2500      58.1282       2.3155       0.2176       8.9672       9.3260
   2033.4000      60.0990       2.3156       0.2195       9.0140       9.2565
   2033.5500      58.9877       2.3193       0.2204       8.0505       9.3414
   2033.7000      58.6471       2.3428       0.2255       7.3674       9.4359
   2033.8500      61.7645       2.3361       0.2222       7.3299       9.3358
   2034.0000      62.3767       2.3424       0.2242       6.9508       9.4282
   2034.1500      65.2908       2.3439       0.2228       6.7655       9.4531
   2034.3000      63.5690       2.3293       0.2160       6.7558       9.4964
   2034.4500      61.7910       2.3349       0.2197       6.9392       9.5382
   2034.6000      60.1901       2.3275       0.2160       6.7458       9.5144
   2034.7500      64.6055       2.3559       0.2172       6.5928       9.6310
   2034.9000      62.0601       2.3475       0.2283       7.1948       9.6515
   2035.0500      59.7476       2.3469       0.2267       7.1270       9.6254
   2035.2000      62.3568       2.3253       0.2289       7.9247       9.5032
   2035.3500      61.1015       2.3312       0.2223       7.4797       9.5785
   2035.5000      60.3874       2.3565       0.2292       7.4949       9.5911
   2035.6500      62.6467       2.3537       0.2337       7.1490       9.5949
   2035.8000      63.1350       2.3664       0.2351       7.3356       9.4081
   2035.9500      63.0287       2.3683       0.2333       6.2762       9.3412
   2036.1000      62.3409       2.3774       0.2342       6.3414       9.4610
   2036.2500      62.7345       2.3843       0.2326       5.9878       9.4090
   2036.4000      59.9309       2.3859       0.2295       5.8763       9.4127
   2036.5500      59.6181       2.3968       0.2310       5.8818       9.4715
   2036.7000      61.7224       2.3788       0.2376       5.9403       9.5139
   2036.8500      60.0946       2.3905       0.2384       6.0121       9.5140
   2037.0000      59.6645       2.3718       0.2352       6.3283       9.5069
   2037.1500      58.2783       2.3581       0.2319       6.0541       9.5957
   2037.3000      55.2438       2.3841       0.2383       5.7482       9.6889
   2037.4500      56.5921       2.3750       0.2442       5.2589       9.6928
   2037.6000      58.3970       2.3858       0.2435       5.3991       9.4566
   2037.7500      56.3445       2.3767       0.2394       5.2306       9.4876
   2037.9000      57.3357       2.3959       0.2371       5.3560       9.4588
   2038.0500      62.1836       2.4027       0.2339       5.4052       9.4314
   2038.2000      63.0243       2.4170       0.2361       5.1223       9.4550
   2038.3500      63.9199       2.4175       0.2378       5.0463       9.4607
   2038.5000      61.5976       2.4048       0.2414       4.9985       9.4413
   2038.6500      60.9366       2.4072       0.2262       5.0676       9.4943
   2038.8000      59.5381       2.4050       0.2199       5.2691       9.4887
   2038.9500      59.6834       2.3967       0.2253       5.6328       9.4905
   2039.1000      60.8073       2.3841       0.2280       5.6348       9.4724
   2039.2500      58.3986       2.3672       0.2268       6.4737       9.4967
   2039.4000      58.8127       2.3734       0.2341       6.9258       9.5671
   2039.5500      60.6049       2.3696       0.2388       6.9209       9.5994
   2039.7000      59.1477       2.3848       0.2302       6.8296       9.6628
   2039.8500      57.9223       2.3801       0.2276       7.4803       9.6494
   2040.0000      60.3197       2.3979       0.2301       7.7680       9.6957
   2040.1500      60.2030       2.4120       0.2245       7.9795       9.5950
   2040.3000      64.6336       2.4181       0.2191       7.5644       9.5823
   2040.4500      63.7563       2.4214       0.2128       7.6689       9.5778
   2040.6000      63.3621       2.4222       0.2239       7.6628       9.7443
   2040.7500      61.8980       2.4252       0.2259       7.5712       9.7000
   2040.9000      62.8030       2.4198       0.2167       6.8682       9.6300
   2041.0500      61.2851       2.4091       0.2162       6.6895       9.5987
   2041.2000      59.0153       2.4014       0.2112       6.0759       9.6153
   2041.3500      55.1068       2.4060       0.2125       6.2143       9.6445
   2041.5000      55.4214       2.4103       0.2149       6.7539       9.4948
   2041.6500      55.3500       2.4014       0.2284       6.4791       9.5082
   2041.8000      58.0424       2.3996       0.2344       5.8569       9.5689
   2041.9500      54.8996       2.3967       0.2331       5.8718       9.6498
   2042.1000      54.4009       2.4146       0.2359       6.2184       9.6094
   2042.2500      58.3557       2.4437       0.2378       5.8642       9.6683
   2042.4000      57.9797       2.4168       0.2368       6.0531       9.6123
   2042.5500      57.7306       2.4111       0.2339       6.1941       9.5627
   2042.7000      59.3274       2.4039       0.2395       6.0855       9.4707
   2042.8500      62.1206       2.4155       0.2406       5.8530       9.5392
   2043.0000      60.0188       2.4039       0.2425       6.3309       9.6374
   2043.1500      62.0939       2.4092       0.2429       6.0556       9.7212
   2043.3000      60.5873       2.3830       0.2424       6.5629       9.7735
   2043.4500      63.4981       2.3785       0.2419       7.0247       9.6961
   2043.6000      63.2498       2.3726       0.2361       6.9339       9.6458
   2043.7500      63.3021       2.3799       0.2435       7.1375       9.5658
   2043.9000      61.6554       2.3648       0.2459       7.2521       9.6477
   2044.0500      61.1835       2.3807       0.2546       7.6339       9.6012
   2044.2000      62.4883       2.4049       0.2530       8.3853       9.5641
   2044.3500      62.5636       2.3961       0.2558       8.9569       9.4506
   2044.5000      62.7571       2.3854       0.2522       9.0116       9.4906
   2044.6500      62.2660       2.3899       0.2451       9.2831       9.3686
   2044.8000      61.9066       2.3841       0.2381       9.8628       9.2360
   2044.9500      62.4088       2.3872       0.2417      10.2483       9.2511
   2045.1000      61.2487       2.3714       0.2357      10.6571       9.2271
   2045.2500      60.7086       2.3453       0.2424      11.2552       9.2701
   2045.4000      60.6920       2.3689       0.2483      10.2460       9.4010
   2045.5500      59.2389       2.3796       0.2506       9.3286       9.4781
   2045.7000      60.2198       2.3796       0.2509      10.1878       9.5017
   2045.8500      59.8226       2.3831       0.2515      10.4740       9.5699
   2046.0000      61.5659       2.3854       0.2462       9.7888       9.4683
   2046.1500      60.2112       2.3731       0.2415      10.9368       9.4398
   2046.3000      62.2252       2.3773       0.2483      10.6033       9.4408
   2046.4500      62.6805       2.3846       0.2582       9.8868       9.3709
   2046.6000      59.5416       2.3861       0.2594       9.5955       9.4608
   2046.7500      58.4343       2.3725       0.2467       9.2234       9.4370
   2046.9000      60.8376       2.3958       0.2583       9.1157       9.2104
   2047.0500      62.3519       2.3765       0.2527       9.0187       9.2695
