~VERSION -------------------------------------------
 VERS.                 2.0 : CWLS LOG ASCII STANDARD - VERSION 2.0
 WRAP.                  NO : ONE LINE PER DEPTH STEP
~WELL -----------------------------------------------
 WELL.                CAMPOS-2 : Well name
 UWI .                BR-CAM-002        : Unique Well ID
 LAT .                -22.3456        : Latitude
 LON .                -40.1234        : Longitude
 STRT.M               1800.00 : START DEPTH
 STOP.M               3499.95 : STOP DEPTH
 STEP.M               0.1500 : STEP
 NULL.                -9999 : NULL VALUE
~CURVE -----------------------------------------------
 DEPTH .M               : Depth
 GR    .GAPI            : Gamma Ray
 RHOB  .G/C3            : Bulk Density
 NPHI  .V/V             : Neutron Porosity
 RT    .OHMM            : Resistivity
 CALI  .IN              : Caliper
~A  DEPTH              GR        RHOB        NPHI          RT        CALI
# ...
   2356.2000      58.6419       2.3684       0.2462       4.8706       9.6465
   2356.3500      59.9466       2.3700       0.2504       4.9680       9.6851
   2356.5000      60.0270       2.3791       0.2523       5.6084       9.6393
   2356.6500      61.2784       2.3918       0.2536       5.5320       9.6911
   2356.8000      60.7809       2.4027       0.2511       5.0900       9.5335
   2356.9500      62.1327       2.4045       0.2539       5.0880       9.6110
   2357.1000      61.1101       2.4170       0.2570       5.2077       9.4848
   2357.2500      57.1063       2.4301       0.2530       5.4921       9.4246
   2357.4000      55.0782       2.4377       0.2498       6.0849       9.3965
   2357.5500      58.0028       2.4329       0.2534       6.2299       9.3307
   2357.7000      58.5872       2.4223       0.2552       6.3520       9.3289
   2357.8500      58.7857       2.4189       0.2528       6.1668       9.2514
   2358.0000      58.4400       2.3998       0.2498       6.3534       9.2837
   2358.1500      58.3730       2.4044       0.2527       6.7545       9.2783
   2358.3000      59.2022       2.4310       0.2570       6.9061       9.3657
   2358.4500      59.8666       2.4401       0.2468       7.1981       9.2351
   2358.6000      58.8985       2.4455       0.2455       7.6971       9.4127
   2358.7500      58.0248       2.4637       0.2440       7.9265       9.4977
   2358.9000      56.8206       2.4692       0.2502       7.5646       9.5063
   2359.0500      57.6059       2.4678       0.2446       7.4112       9.7245
   2359.2000      57.7425       2.4626       0.2400       6.8928       9.7657
   2359.3500      55.4073       2.4629       0.2354       7.0373       9.8326
   2359.5000      55.8310       2.4526       0.2361       6.5273       9.8795
   2359.6500      55.9566       2.4531       0.2288       6.2660       9.9355
   2359.8000      59.0565       2.4500       0.2273       6.5322       9.8394
   2359.9500      57.4508       2.4413       0.2201       6.4263       9.8318
   2360.1000      58.4848       2.4365       0.2224       6.2970       9.8116
   2360.2500      60.3172       2.4191       0.2273       5.8331       9.8797
   2360.4000      58.3338       2.4211       0.2279       5.3540       9.7830
   2360.5500      57.3897       2.4232       0.2316       5.1588       9.6357
   2360.7000      55.4759       2.4262       0.2237       5.2954       9.5346
   2360.8500      57.1460       2.4303       0.2165       6.1205       9.4791
   2361.0000      58.3235       2.4281       0.2149       7.2383       9.3732
   2361.1500      55.7973       2.4148       0.2184       7.0820       9.2832
   2361.3000      53.8346       2.3986       0.2081       7.9327       9.3145
   2361.4500      54.3575       2.4058       0.2079       8.5018       9.4335
   2361.6000      52.7675       2.4271       0.2167       8.5465       9.4444
   2361.7500      56.3162       2.4104       0.2144       8.5902       9.3776
   2361.9000      54.5153       2.3995       0.2187       9.3383       9.4306
   2362.0500      52.8728       2.3921       0.2203       9.4894       9.4568
   2362.2000      51.9454       2.3947       0.2259      10.3238       9.4696
   2362.3500      54.8460       2.3908       0.2260      10.3018       9.4837
   2362.5000      55.2101       2.3860       0.2188      10.3975       9.5687
   2362.6500      57.7456       2.3968       0.2208      10.6461       9.6409
   2362.8000      53.4258       2.3842       0.2158      10.5636       9.6781
   2362.9500      54.1265       2.3643       0.2292      10.1765       9.5056
   2363.1000      53.4583       2.3603       0.2246      11.0386       9.4902
   2363.2500      55.8562       2.3591       0.2244      11.7234       9.5092
   2363.4000      58.7866       2.3433       0.2198      11.0882       9.5229
   2363.5500      59.3395       2.3366       0.2099      11.6537       9.4845
   2363.7000      59.2898       2.3340       0.2091      12.0982       9.5670
   2363.8500      59.8082       2.3255       0.2193      10.9368       9.5203
   2364.0000      60.8364       2.3134       0.2129       9.3284       9.3716
   2364.1500      60.9906       2.3327       0.2096       9.2325       9.2652
   2364.3000      59.7383       2.3549       0.2143       8.5311       9.2693
   2364.4500      57.7172       2.3490       0.2198       7.9008       9.3497
   2364.6000      60.2301       2.3130       0.2153       8.2155       9.2662
   2364.7500      57.3557       2.3363       0.2193       8.6050       9.1838
   2364.9000      60.8211       2.3397       0.2125       8.4060       9.1171
   2365.0500      62.1051       2.3483       0.2152       8.1609       9.1108
   2365.2000      64.8915       2.3457       0.2157       7.6462       9.0554
   2365.3500      66.5582       2.3422       0.2099       7.9719       9.0807
   2365.5000      62.9556       2.3516       0.2186       7.8483       9.1972
   2365.6500      58.7367       2.3572       0.2275       8.4411       9.3650
   2365.8000      60.2868       2.3618       0.2312       8.2645       9.3096
   2365.9500      58.8400       2.3872       0.2223       7.8474       9.2292
   2366.1000      60.2292       2.3801       0.2205       7.2092       9.2306
   2366.2500      60.9405       2.3938       0.2129       6.7123       9.1783
   2366.4000      62.3810       2.3745       0.2167       7.0040       9.2014
   2366.5500      62.4752       2.3782       0.2204       7.6978       9.2569
   2366.7000      61.2464       2.3669       0.2253       7.6171       9.3098
   2366.8500      60.3657       2.3812       0.2198       8.4669       9.4008
   2367.0000      57.3022       2.3948       0.2272       9.5170       9.4613
   2367.1500      57.7485       2.3822       0.2278       9.8150       9.3129
   2367.3000      58.7138       2.3754       0.2284       9.2776       9.3104
   2367.4500      60.0563       2.3657       0.2387       8.6582       9.5508
   2367.6000      62.5048       2.3948       0.2358       8.8873       9.6350
   2367.7500      61.6618       2.4013       0.2301       8.4443       9.8162
   2367.9000      59.2268       2.3956       0.2265       8.5361       9.9056
   2368.0500      58.7318       2.3918       0.2282       9.0532       9.7758
   2368.2000      57.0682       2.3947       0.2238       9.6887       9.7742
   2368.3500      55.3986       2.4037       0.2284       9.5484       9.7357
   2368.5000      58.8068       2.4125       0.2239       9.4679       9.6111
   2368.6500      60.0019       2.3988       0.2185       9.3749       9.6778
   2368.8000      61.9719       2.3986       0.2235       9.5520       9.7236
   2368.9500      62.3492       2.3931       0.2241      10.2764       9.5840
   2369.1000      61.5919       2.4006       0.2236      10.5791       9.6160
   2369.2500      60.8021       2.3836       0.2381      10.5825       9.4652
   2369.4000      57.4349       2.4052       0.2416      11.1615       9.5245
   2369.5500      56.9461       2.3987       0.2433      11.1066       9.6255
   2369.7000      57.3710       2.4167       0.2420      10.4996       9.6878
   2369.8500      59.0361       2.4072       0.2451       9.8860       9.6445
   2370.0000      60.1561       2.4095       0.2391       9.0172       9.7213
   2370.1500      60.1722       2.4041       0.2427       8.6661       9.6422
   2370.3000      59.3854       2.3970       0.2460       8.8124       9.6803
   2370.4500      59.5055       2.3904       0.2417       8.7686       9.7104
   2370.6000      56.7668       2.3884       0.2401       7.7486       9.6643
   2370.7500      59.4963       2.3604       0.2418       8.1086       9.7155
   2370.9000      61.8273       2.3593       0.2407       7.6700       9.6559
   2371.0500      62.2791       2.3574       0.2322       7.6045       9.7371
   2371.2000      64.2537       2.3475       0.2433       6.8841       9.6997
   2371.3500      61.7287       2.3519       0.2456       6.9132       9.7717
   2371.5000      60.9373       2.3386       0.2485       7.0941       9.6748
