~VERSION -------------------------------------------
 VERS.                 2.0 : CWLS LOG ASCII STANDARD - VERSION 2.0
 WRAP.                  NO : ONE LINE PER DEPTH STEP
~WELL -----------------------------------------------
 WELL.                CAMPOS-2 : Well name
 UWI .                BR-CAM-002        : Unique Well ID
 LAT .                -22.3456        : Latitude
 LON .                -40.1234        : Longitude
 STRT.M               1800.00 : START DEPTH
 STOP.M               3499.95 : STOP DEPTH
 STEP.M               0.1500 : STEP
 NULL.                -9999 : NULL VALUE
~CURVE -----------------------------------------------
 DEPTH .M               : Depth
 GR    .GAPI            : Gamma Ray
 RHOB  .G/C3            : Bulk Density
 NPHI  .V/V             : Neutron Porosity
 RT    .OHMM            : Resistivity
 CALI  .IN              : Caliper
~A  DEPTH              GR        RHOB        NPHI          RT        CALI
# ...
   2139.9000      68.3950       2.3851       0.2324       7.1351       9.7559
   2140.0500      69.8552       2.3669       0.2385       7.2251       9.6457
   2140.2000      72.7579       2.3719       0.2400       7.2792       9.5380
   2140.3500      75.9835       2.3806       0.2465       7.7940       9.4937
   2140.5000      78.0809       2.3752       0.2478       7.9176       9.4743
   2140.6500      79.9080       2.3403       0.2476       9.1939       9.4200
   2140.8000      79.2932       2.3536       0.2489       8.7385       9.3893
   2140.9500      77.3815       2.3513       0.2527       9.4928       9.3957
   2141.1000      78.3163       2.3351       0.2521       9.1617       9.4663
   2141.2500      79.3028       2.3462       0.2574       8.9701       9.4524
   2141.4000      75.7375       2.3638       0.2575       9.7640       9.4857
   2141.5500      76.4789       2.3448       0.2637      10.8859       9.4927
   2141.7000      76.0876       2.3386       0.2629      11.3719       9.6097
   2141.8500      75.7560       2.3353       0.2662      11.3486       9.5953
   2142.0000      71.9716       2.3526       0.2677      11.9322       9.5363
   2142.1500      70.4123       2.3456       0.2627      12.0972       9.6726
   2142.3000      68.4218       2.3595       0.2660      12.1913       9.7412
   2142.4500      68.2783       2.3357       0.2619      11.7112       9.7929
   2142.6000      68.6013       2.3528       0.2593      12.4238       9.8398
   2142.7500      67.8390       2.3469       0.2519      12.5737       9.7610
   2142.9000      66.6222       2.3531       0.2477      13.7918       9.8852
   2143.0500      65.9546       2.3762       0.2490      13.6498      10.0088
   2143.2000      64.3618       2.3832       0.2508      13.4611       9.8931
   2143.3500      58.9125       2.3863       0.2451      13.0474       9.8584
   2143.5000      57.7133       2.3858       0.2422      12.6996       9.8183
   2143.6500      56.1120       2.3972       0.2366      12.1101       9.7849
   2143.8000      58.3963       2.3851       0.2399      13.2909       9.7179
   2143.9500      56.5867       2.3796       0.2405      12.2866       9.5711
   2144.1000      54.3380       2.4118       0.2513      11.7453       9.4463
   2144.2500      53.6072       2.4001       0.2516      13.0840       9.3854
   2144.4000      58.7758       2.3795       0.2600      11.4982       9.2504
   2144.5500      58.8213       2.3891       0.2503      10.6153       9.2347
   2144.7000      57.3210       2.3938       0.2517      10.0565       9.4247
   2144.8500      57.0843       2.3841       0.2491       9.9791       9.5574
   2145.0000      57.3576       2.3740       0.2366      10.6504       9.5335
   2145.1500      57.2376       2.3778       0.2348      10.9651       9.5250
   2145.3000      58.8550       2.3717       0.2268      10.2151       9.6600
   2145.4500      58.9819       2.3879       0.2240       9.8554       9.6310
   2145.6000      58.7279       2.3807       0.2233       9.7359       9.7102
   2145.7500      56.9461       2.3916       0.2343       9.2821       9.8084
   2145.9000      59.4789       2.3815       0.2434       9.5932       9.8464
   2146.0500      59.9511       2.3641       0.2450       9.3064       9.7261
   2146.2000      59.0180       2.3675       0.2426       8.8773       9.7109
   2146.3500      59.8188       2.3497       0.2372       9.0670       9.5816
   2146.5000      63.9660       2.3551       0.2399       8.5584       9.6827
   2146.6500      63.6757       2.3576       0.2461       8.4559       9.5867
   2146.8000      62.4911       2.3763       0.2454       8.1444       9.3980
   2146.9500      62.7444       2.3722       0.2491       8.4030       9.4463
   2147.1000      63.7677       2.3611       0.2459       8.2199       9.4714
   2147.2500      61.5772       2.3711       0.2418       7.2508       9.4894
   2147.4000      59.3539       2.3867       0.2357       7.8349       9.4815
   2147.5500      56.8442       2.3878       0.2470       7.3781       9.4141
   2147.7000      57.1274       2.4041       0.2437       7.4614       9.3276
   2147.8500      58.5456       2.4148       0.2452       7.6031       9.3692
   2148.0000      59.7475       2.4200       0.2483       7.3233       9.3909
   2148.1500      59.9056       2.4248       0.2505       7.1706       9.5243
   2148.3000      61.4537       2.4280       0.2604       7.2057       9.5455
   2148.4500      63.0939       2.4258       0.2657       8.0875       9.5205
   2148.6000      64.0144       2.4228       0.2597       7.2276       9.5477
   2148.7500      66.6347       2.4165       0.2555       7.0946       9.5365
   2148.9000      65.4234       2.4165       0.2475       7.2111       9.5036
   2149.0500      66.1752       2.4259       0.2466       7.2357       9.5163
   2149.2000      63.6767       2.4177       0.2379       7.5060       9.5879
   2149.3500      64.9532       2.4250       0.2450       7.0406       9.6166
   2149.5000      60.1556       2.4093       0.2468       6.4875       9.5720
   2149.6500      61.1618       2.4120       0.2487       6.0319       9.5133
   2149.8000      60.3534       2.3994       0.2416       6.1459       9.5604
   2149.9500      60.4214       2.4103       0.2321       5.6954       9.4972
   2150.1000      61.3862       2.4090       0.2277       6.1257       9.5556
   2150.2500      60.6600       2.4065       0.2313       6.2994       9.4734
   2150.4000      60.7466       2.4014       0.2291       5.9633       9.5832
   2150.5500      60.6734       2.4075       0.2253       6.3385       9.6092
   2150.7000      60.5667       2.3993       0.2277       5.8908       9.5956
   2150.8500      59.1168       2.3901       0.2276       5.7416       9.5465
   2151.0000      59.2004       2.3777       0.2216       6.0360       9.5052
   2151.1500      59.3201       2.3634       0.2214       6.0858       9.5172
   2151.3000      54.8478       2.3673       0.2082       6.3571       9.5363
   2151.4500      50.4380       2.3640       0.2040       5.9587       9.6826
   2151.6000      52.9163       2.3683       0.2045       6.3621       9.6011
   2151.7500      50.0156       2.3834       0.2020       6.9492       9.6538
   2151.9000      52.7914       2.3935       0.2055       6.0146       9.5214
   2152.0500      51.8373       2.3950       0.2024       5.9029       9.4704
   2152.2000      53.4662       2.3808       0.2100       5.8410       9.3709
   2152.3500      56.8767       2.3929       0.2006       6.2212       9.4747
   2152.5000      57.5028       2.4030       0.1938       6.5224       9.5976
   2152.6500      56.5379       2.4140       0.1911       7.1519       9.5216
   2152.8000      60.8657       2.4133       0.1979       6.8719       9.3787
   2152.9500      62.2820       2.3986       0.2073       7.1523       9.2152
   2153.1000      62.5789       2.3941       0.2129       7.6733       9.1762
   2153.2500      65.6093       2.3918       0.2190       7.9522       9.2706
   2153.4000      66.3304       2.3848       0.2289       8.1603       9.3698
   2153.5500      70.9772       2.3863       0.2308       8.0862       9.4460
   2153.7000      70.0490       2.3936       0.2348       8.2735       9.4161
   2153.8500      70.4956       2.3830       0.2348       8.4039       9.3328
   2154.0000      70.2975       2.3800       0.2370       8.5235       9.2773
   2154.1500      72.0736       2.3891       0.2345       9.3116       9.3940
   2154.3000      74.0209       2.3762       0.2464       8.3467       9.5087
   2154.4500      74.3833       2.3907       0.2532       8.4873       9.5087
   2154.6000      73.8533       2.3848       0.2573       8.0849       9.4159
   2154.7500      73.2637       2.3703       0.2528       7.3675       9.3688
   2154.9000      70.2410       2.3569       0.2535       8.5390       9.2204
   2155.0500      70.0628       2.3555       0.2541       9.0404       9.2162
   2155.2000      71.1473       2.3468       0.2466       8.5374       9.1953
