~VERSION -------------------------------------------
 VERS.                 2.0 : CWLS LOG ASCII STANDARD - VERSION 2.0
 WRAP.                  NO : ONE LINE PER DEPTH STEP
~WELL -----------------------------------------------
 WELL.                CAMPOS-2 : Well name
 UWI .                BR-CAM-002        : Unique Well ID
 LAT .                -22.3456        : Latitude
 LON .                -40.1234        : Longitude
 STRT.M               1800.00 : START DEPTH
 STOP.M               3499.95 : STOP DEPTH
 STEP.M               0.1500 : STEP
 NULL.                -9999 : NULL VALUE
~CURVE -----------------------------------------------
 DEPTH .M               : Depth
 GR    .GAPI            : Gamma Ray
 RHOB  .G/C3            : Bulk Density
 NPHI  .V/V             : Neutron Porosity
 RT    .OHMM            : Resistivity
 CALI  .IN              : Caliper
~A  DEPTH              GR        RHOB        NPHI          RT        CALI
# ...
   2927.8500      61.6990       2.3756       0.2658       7.7485       9.5708
   2928.0000      60.9767       2.3552       0.2662       7.2806       9.7797
   2928.1500      59.9242       2.3561       0.2611       7.1294       9.7484
   2928.3000      59.4198       2.3614       0.2587       7.0780       9.8738
   2928.4500      58.2153       2.3462       0.2502       6.7138       9.7363
   2928.6000      59.5913       2.3511       0.2538       6.7112       9.6401
   2928.7500      59.6662       2.3554       0.2536       6.7188       9.7260
   2928.9000      59.8971       2.3604       0.2572       6.9765       9.7082
   2929.0500      61.9721       2.3648       0.2616       7.3124       9.8261
   2929.2000      63.1494       2.3650       0.2522       7.2924       9.8919
   2929.3500      63.0182       2.3640       0.2611       6.8798       9.7630
   2929.5000      65.1854       2.3583       0.2583       7.1433       9.5834
   2929.6500      67.4600       2.3562       0.2564       7.2474       9.6517
   2929.8000      70.8468       2.3637       0.2502       7.8600       9.4916
   2929.9500      73.0663       2.3750       0.2459       7.1886       9.6076
   2930.1000      73.0814       2.3563       0.2388       7.2032       9.5614
   2930.2500      69.1733       2.3606       0.2473       7.7164       9.4451
   2930.4000      65.4777       2.3463       0.2532       7.6168       9.3703
   2930.5500      66.6278       2.3453       0.2621       7.1822       9.2599
   2930.7000      67.3153       2.3372       0.2577       6.8048       9.2126
   2930.8500      66.4840       2.3258       0.2466       6.8159       9.1998
   2931.0000      67.3526       2.3473       0.2451       7.1676       9.2352
   2931.1500      71.1234       2.3610       0.2427       7.6828       9.2794
   2931.3000      72.6541       2.3655       0.2406       7.6557       9.2653
   2931.4500      74.1286       2.3658       0.2430       8.1908       9.2527
   2931.6000      72.6338       2.3459       0.2383       8.1808       9.2775
   2931.7500      71.7458       2.3492       0.2382       8.0684       9.3624
   2931.9000      71.4247       2.3488       0.2358       6.8773       9.3986
   2932.0500      69.8018       2.3490       0.2349       6.9677       9.4421
   2932.2000      67.2222       2.3567       0.2379       6.9871       9.3690
   2932.3500      68.0618       2.3451       0.2357       6.9316       9.4073
   2932.5000      66.5822       2.3466       0.2284       6.8184       9.3109
   2932.6500      63.6981       2.3303       0.2285       6.3878       9.1263
   2932.8000      62.9894       2.3251       0.2268       5.9955       9.2329
   2932.9500      61.1489       2.3293       0.2259       5.7347       9.1531
   2933.1000      62.6412       2.3334       0.2183       5.5494       9.1726
   2933.2500      63.7920       2.3300       0.2201       5.3796       9.1455
   2933.4000      65.3262       2.3294       0.2192       5.9811       9.1506
   2933.5500      62.7975       2.3347       0.2144       6.3638       9.0750
   2933.7000      63.9694       2.3481       0.2141       6.5545       9.1923
   2933.8500      63.9485       2.3541       0.2164       7.1330       9.1248
   2934.0000      62.9754       2.3464       0.2195       6.6227       9.1756
   2934.1500      59.3693       2.3454       0.2233       6.5650       9.2603
   2934.3000      57.6713       2.3399       0.2228       6.8230       9.2016
   2934.4500      56.0453       2.3407       0.2228       6.3300       9.2941
   2934.6000      55.6623       2.3591       0.2330       6.1790       9.4090
   2934.7500      55.1397       2.3484       0.2280       6.1933       9.4625
   2934.9000      57.2193       2.3651       0.2272       6.7182       9.4719
   2935.0500      57.1455       2.3666       0.2141       6.4083       9.6177
   2935.2000      57.8800       2.3461       0.2041       6.2901       9.6030
   2935.3500      57.2263       2.3513       0.2045       6.5929       9.6519
   2935.5000      55.4243       2.3726       0.2141       6.1072       9.6404
   2935.6500      59.4828       2.3833       0.2129       6.2418       9.6792
   2935.8000      57.8347       2.3765       0.2141       5.9965       9.6683
   2935.9500      58.3277       2.3615       0.2149       6.2005       9.5905
   2936.1000      55.3474       2.3749       0.2261       6.1709       9.4313
   2936.2500      57.4036       2.3847       0.2219       6.0335       9.4562
   2936.4000      53.5651       2.3914       0.2247       5.7188       9.3736
   2936.5500      53.9146       2.3975       0.2231       5.6243       9.4195
   2936.7000      51.0916       2.3905       0.2246       5.6541       9.4400
   2936.8500      50.7843       2.3951       0.2211       5.5854       9.4277
   2937.0000      49.5509       2.3987       0.2227       5.4081       9.5429
   2937.1500      49.6787       2.3976       0.2249       5.4714       9.6126
   2937.3000      50.9780       2.3962       0.2262       5.0021       9.6947
   2937.4500      50.8300       2.4009       0.2329       4.7509       9.7104
   2937.6000      49.6204       2.4055       0.2227       4.9571       9.8218
   2937.7500      52.8364       2.4214       0.2232       5.1056       9.6764
   2937.9000      52.5760       2.4073       0.2260       4.9165       9.8122
   2938.0500      52.1021       2.4057       0.2364       4.8196       9.6957
   2938.2000      52.0489       2.4136       0.2460       4.5377       9.6413
   2938.3500      54.2915       2.4188       0.2480       4.3023       9.5871
   2938.5000      56.4836       2.4104       0.2445       4.7576       9.5568
   2938.6500      56.8773       2.4080       0.2494       5.0642       9.5651
   2938.8000      59.5971       2.4143       0.2497       5.3237       9.5124
   2938.9500      57.3003       2.4228       0.2481       6.0816       9.5761
   2939.1000      60.8399       2.4208       0.2425       6.0100       9.6021
   2939.2500      59.2738       2.4078       0.2397       5.8648       9.7920
   2939.4000      61.1892       2.4035       0.2352       6.1425       9.9036
   2939.5500      60.1812       2.4030       0.2380       6.3189       9.9558
   2939.7000      61.3766       2.4008       0.2368       6.0720       9.9293
   2939.8500      65.3612       2.4014       0.2403       5.3145       9.9601
   2940.0000      68.5883       2.3936       0.2401       5.2770       9.9352
   2940.1500      68.2158       2.3969       0.2363       5.3229       9.9028
   2940.3000      65.1423       2.4022       0.2375       5.6441       9.9054
   2940.4500      66.1377       2.3979       0.2261       6.2101       9.9413
   2940.6000      67.1916       2.4074       0.2264       6.9038       9.9448
   2940.7500      64.9957       2.3908       0.2352       6.9546       9.7064
   2940.9000      63.4897       2.3888       0.2302       7.1773       9.4765
   2941.0500      66.4297       2.3874       0.2258       6.5784       9.3532
   2941.2000      66.8799       2.3648       0.2299       6.6031       9.3480
   2941.3500      62.0547       2.3557       0.2277       6.8406       9.4633
   2941.5000      60.2364       2.3467       0.2261       6.9888       9.4067
   2941.6500      58.0259       2.3517       0.2264       6.6897       9.3142
   2941.8000      55.3085       2.3527       0.2280       6.5116       9.2756
   2941.9500      57.7771       2.3585       0.2236       6.2866       9.2286
   2942.1000      57.1389       2.3526       0.2209       6.7622       9.1566
   2942.2500      54.7826       2.3595       0.2233       7.5954       9.2298
   2942.4000      54.0000       2.3626       0.2356       6.6488       9.3644
   2942.5500      59.2350       2.3636       0.2340       6.6204       9.4403
   2942.7000      59.2560       2.3693       0.2392       6.5957       9.4725
   2942.8500      56.1450       2.3707       0.2441       6.7264       9.4148
   2943.0000      53.6807       2.3817       0.2454       7.0748       9.4922
   2943.1500      54.0200       2.3789       0.2490       7.1591       9.5914
