~VERSION -------------------------------------------
 VERS.                 2.0 : CWLS LOG ASCII STANDARD - VERSION 2.0
 WRAP.                  NO : ONE LINE PER DEPTH STEP
~WELL -----------------------------------------------
 WELL.                CAMPOS-2 : Well name
 UWI .                BR-CAM-002        : Unique Well ID
 LAT .                -22.3456        : Latitude
 LON .                -40.1234        : Longitude
 STRT.M               1800.00 : START DEPTH
 STOP.M               3499.95 : STOP DEPTH
 STEP.M               0.1500 : STEP
 NULL.                -9999 : NULL VALUE
~CURVE -----------------------------------------------
 DEPTH .M               : Depth
 GR    .GAPI            : Gamma Ray
 RHOB  .G/C3            : Bulk Density
 NPHI  .V/V             : Neutron Porosity
 RT    .OHMM            : Resistivity
 CALI  .IN              : Caliper
~A  DEPTH              GR        RHOB        NPHI          RT        CALI
# ...
   3144.1500      59.4239       2.3482       0.2282       4.7802       9.4634
   3144.3000      59.6920       2.3682       0.2276       4.6939       9.4106
   3144.4500      60.8897       2.3718       0.2272       5.1234       9.4533
   3144.6000      61.1972       2.3893       0.2257       4.5310       9.4577
   3144.7500      58.3795       2.3739       0.2236       4.5161       9.4227
   3144.9000      58.5465       2.3715       0.2267       4.8148       9.4959
   3145.0500      56.8733       2.3739       0.2296       4.7188       9.4241
   3145.2000      53.9459       2.3791       0.2389       4.7237       9.4039
   3145.3500      55.4245       2.4068       0.2282       4.5700       9.4648
   3145.5000      55.4245       2.4115       0.2267       5.0533       9.4163
   3145.6500      54.2691       2.4050       0.2305       4.9508       9.5607
   3145.8000      54.1608       2.4099       0.2293       5.3018       9.5650
   3145.9500      54.9949       2.4061       0.2255       5.6566       9.4982
   3146.1000      58.8826       2.4004       0.2261       5.7178       9.5444
   3146.2500      58.4371       2.3941       0.2264       6.0389       9.5500
   3146.4000      55.5090       2.3739       0.2284       5.9821       9.4621
   3146.5500      57.8175       2.3785       0.2340       6.3120       9.4164
   3146.7000      59.8245       2.3698       0.2338       6.1147       9.4942
   3146.8500      58.6258       2.3702       0.2315       6.5104       9.4406
   3147.0000      59.9639       2.3872       0.2353       6.0885       9.4459
   3147.1500      63.1079       2.4032       0.2258       5.8679       9.4128
   3147.3000      64.7923       2.4093       0.2287       6.1646       9.4038
   3147.4500      65.4977       2.4071       0.2298       5.8509       9.4345
   3147.6000      64.3783       2.4147       0.2354       6.2203       9.3256
   3147.7500      64.7423       2.4173       0.2253       6.4345       9.3127
   3147.9000      64.7414       2.4236       0.2230       6.3607       9.2383
   3148.0500      67.5478       2.4130       0.2217       6.5102       9.3203
   3148.2000      68.3493       2.4074       0.2086       6.1148       9.4114
   3148.3500      69.5231       2.3822       0.2064       6.1638       9.4647
   3148.5000      73.6098       2.3679       0.2014       6.3622       9.5708
   3148.6500      74.2255       2.3806       0.2035       6.9397       9.5170
   3148.8000      72.3463       2.3846       0.2056       7.0264       9.5159
   3148.9500      70.4498       2.3931       0.2027       6.8014       9.4672
   3149.1000      69.0417       2.4046       0.1994       6.1662       9.4646
   3149.2500      68.8899       2.4145       0.2040       5.6712       9.5236
   3149.4000      71.5318       2.4076       0.2083       5.6278       9.6614
   3149.5500      67.7254       2.3986       0.2089       5.3530       9.5825
   3149.7000      68.0021       2.4157       0.2086       5.7502       9.5131
   3149.8500      69.8108       2.4062       0.2083       5.9823       9.5279
   3150.0000      69.2853       2.4018       0.2157       5.9481       9.5498
   3150.1500      68.4959       2.4061       0.2257       6.0143       9.5957
   3150.3000      67.2900       2.3911       0.2213       6.1628       9.6444
   3150.4500      67.4955       2.3733       0.2187       6.4718       9.8555
   3150.6000      68.6683       2.3540       0.2218       6.3547      10.0193
   3150.7500      66.9956       2.3581       0.2388       6.0312       9.9731
   3150.9000      67.0627       2.3471       0.2395       6.0621       9.9627
   3151.0500      66.8833       2.3454       0.2402       6.8790      10.0284
   3151.2000      68.0061       2.3463       0.2499       7.3141      10.0173
   3151.3500      67.9197       2.3598       0.2558       7.2515       9.8613
   3151.5000      63.8330       2.3706       0.2642       6.7496       9.9583
   3151.6500      62.7189       2.3499       0.2670       6.8342       9.8434
   3151.8000      63.3214       2.3574       0.2649       6.9333       9.8090
   3151.9500      64.9471       2.3431       0.2697       8.1067       9.6541
   3152.1000      63.6626       2.3343       0.2672       8.7508       9.6187
   3152.2500      63.9198       2.3265       0.2611       8.6167       9.6300
   3152.4000      65.4146       2.3399       0.2574       8.6741       9.4759
   3152.5500      65.6987       2.3575       0.2553       9.1091       9.4169
   3152.7000      65.4822       2.3557       0.2545       9.5242       9.5035
   3152.8500      64.2603       2.3461       0.2513       8.0671       9.6009
   3153.0000      62.2872       2.3430       0.2388       8.3021       9.3978
   3153.1500      63.5298       2.3324       0.2425       8.6564       9.5044
   3153.3000      61.2290       2.3221       0.2334       8.2595       9.6105
   3153.4500      58.7425       2.3133       0.2319       8.6786       9.6509
   3153.6000      57.6257       2.3242       0.2270       8.4829       9.5968
   3153.7500      58.5848       2.3185       0.2219       8.2953       9.7357
   3153.9000      58.9124       2.3326       0.2269       9.0108       9.8074
   3154.0500      56.7794       2.3531       0.2314       9.0028       9.7627
   3154.2000      56.9625       2.3504       0.2292       8.7624       9.6430
   3154.3500      53.5620       2.3383       0.2290       8.6743       9.6282
   3154.5000      54.8760       2.3399       0.2168       8.3194       9.7028
   3154.6500      55.7383       2.3421       0.2205       8.0827       9.6180
   3154.8000      56.0321       2.3223       0.2104       8.0281       9.4498
   3154.9500      56.6717       2.3274       0.2113       7.3258       9.4444
   3155.1000      58.5320       2.3357       0.2128       7.3171       9.3864
   3155.2500      56.7049       2.3445       0.2130       7.5650       9.2277
   3155.4000      55.0884       2.3498       0.2253       7.3787       9.2023
   3155.5500      56.6441       2.3587       0.2259       6.6605       9.2465
   3155.7000      57.2540       2.3706       0.2205       6.5552       9.2652
   3155.8500      57.4476       2.3854       0.2191       7.4285       9.2316
   3156.0000      57.6057       2.3927       0.2217       7.5207       9.2557
   3156.1500      53.1423       2.4029       0.2111       7.4740       9.2193
   3156.3000      53.4258       2.4208       0.2200       6.8506       9.3352
   3156.4500      53.3255       2.4368       0.2195       6.1456       9.3297
   3156.6000      53.2736       2.4291       0.2289       6.6005       9.3804
   3156.7500      52.2074       2.4369       0.2285       7.6829       9.4531
   3156.9000      54.0397       2.4414       0.2238       7.1044       9.5567
   3157.0500      55.1559       2.4386       0.2156       6.5752       9.5903
   3157.2000      53.7755       2.4345       0.2155       6.3029       9.6258
   3157.3500      54.8059       2.4384       0.2143       6.4103       9.5933
   3157.5000      54.8233       2.4337       0.2202       7.0404       9.6394
   3157.6500      54.6741       2.4386       0.2166       7.2149       9.6700
   3157.8000      54.3700       2.4453       0.2276       6.5385       9.5718
   3157.9500      53.3251       2.4383       0.2255       6.7169       9.5237
   3158.1000      51.8916       2.4297       0.2309       6.6663       9.5211
   3158.2500      53.7383       2.4265       0.2369       7.3008       9.5423
   3158.4000      53.4423       2.4306       0.2329       7.5549       9.5099
   3158.5500      53.2935       2.4041       0.2361       8.2606       9.5327
   3158.7000      55.4829       2.3884       0.2407       7.4178       9.5698
   3158.8500      56.9800       2.3714       0.2443       7.4716       9.6401
   3159.0000      58.5549       2.3577       0.2567       7.3212       9.5182
   3159.1500      62.0898       2.3643       0.2598       7.3210       9.5871
   3159.3000      62.8041       2.3647       0.2589       8.1610       9.7340
   3159.4500      64.9041       2.3612       0.2582       8.9308       9.8007
