~VERSION -------------------------------------------
 VERS.                 2.0 : CWLS LOG ASCII STANDARD - VERSION 2.0
 WRAP.                  NO : ONE LINE PER DEPTH STEP
~WELL -----------------------------------------------
 WELL.                CAMPOS-2 : Well name
 UWI .                BR-CAM-002        : Unique Well ID
 LAT .                -22.3456        : Latitude
 LON .                -40.1234        : Longitude
 STRT.M               1800.00 : START DEPTH
 STOP.M               3499.95 : STOP DEPTH
 STEP.M               0.1500 : STEP
 NULL.                -9999 : NULL VALUE
~CURVE -----------------------------------------------
 DEPTH .M               : Depth
 GR    .GAPI            : Gamma Ray
 RHOB  .G/C3            : Bulk Density
 NPHI  .V/V             : Neutron Porosity
 RT    .OHMM            : Resistivity
 CALI  .IN              : Caliper
~A  DEPTH              GR        RHOB        NPHI          RT        CALI
# ...
   2587.9500      64.7395       2.4323       0.2320       9.9978       9.6832
   2588.1000      62.7407       2.4413       0.2347      10.1209       9.7063
   2588.2500      63.2209       2.4607       0.2297       9.5735       9.7750
   2588.4000      62.2091       2.4600       0.2225      10.2844       9.7866
   2588.5500      62.9997       2.4657       0.2227       9.3779       9.8398
   2588.7000      60.8161       2.4751       0.2271      10.0367       9.7541
   2588.8500      62.0769       2.4790       0.2299      10.0179       9.5592
   2589.0000      57.8723       2.4686       0.2283       8.9882       9.4313
   2589.1500      58.5477       2.4736       0.2248       9.2431       9.5379
   2589.3000      56.6941       2.4726       0.2293       8.8265       9.5770
   2589.4500      57.3311       2.4669       0.2272       9.4266       9.5514
   2589.6000      59.3971       2.4666       0.2307       9.2185       9.7346
   2589.7500      59.9481       2.4583       0.2325       9.4082       9.8153
   2589.9000      56.9817       2.4634       0.2450       8.8916       9.8664
   2590.0500      53.5284       2.4590       0.2483       8.4109       9.9505
   2590.2000      51.1340       2.4330       0.2574       8.4841      10.0066
   2590.3500      51.5182       2.4310       0.2560       8.7012      10.0330
   2590.5000      49.2319       2.4116       0.2634       8.6704      10.0488
   2590.6500      51.4533       2.3834       0.2638       9.2069       9.9707
   2590.8000      48.7893       2.3587       0.2676       8.0692       9.9641
   2590.9500      49.2294       2.3402       0.2653       8.0558       9.8842
   2591.1000      54.3000       2.3254       0.2586       7.5887       9.7658
   2591.2500      53.7226       2.3165       0.2557       7.4388       9.7480
   2591.4000      55.6792       2.3168       0.2559       7.1786       9.7323
   2591.5500      58.6118       2.3175       0.2587       7.8982       9.6201
   2591.7000      58.0782       2.3104       0.2468       7.2195       9.5211
   2591.8500      58.0906       2.3043       0.2361       7.3970       9.6469
   2592.0000      60.8762       2.3244       0.2359       7.7904       9.5832
   2592.1500      59.7748       2.3176       0.2422       7.5409       9.5209
   2592.3000      60.9955       2.3190       0.2505       7.6115       9.5362
   2592.4500      62.4654       2.3344       0.2435       6.5069       9.5087
   2592.6000      58.7537       2.3552       0.2404       6.6647       9.4729
   2592.7500      58.3629       2.3492       0.2334       6.4797       9.3958
   2592.9000      59.1902       2.3519       0.2223       6.9964       9.2923
   2593.0500      59.1902       2.3383       0.2277       6.9243       9.3838
   2593.2000      60.9703       2.3580       0.2226       7.7236       9.3244
   2593.3500      56.7466       2.3593       0.2291       8.2810       9.1578
   2593.5000      59.0515       2.3609       0.2257       8.1211       9.2821
   2593.6500      60.6536       2.3846       0.2334       7.8324       9.3911
   2593.8000      61.7257       2.4060       0.2290       8.3904       9.2711
   2593.9500      62.5141       2.4182       0.2399       7.8953       9.2813
   2594.1000      60.1134       2.4176       0.2527       8.4869       9.2474
   2594.2500      60.9148       2.4139       0.2557       8.5639       9.2791
   2594.4000      60.9191       2.4127       0.2568       8.6003       9.4048
   2594.5500      58.0188       2.4080       0.2590       7.2899       9.4130
   2594.7000      57.9171       2.4038       0.2595       8.1425       9.5540
   2594.8500      56.9254       2.3884       0.2651       7.8171       9.7226
   2595.0000      55.5811       2.3663       0.2649       7.3515       9.7321
   2595.1500      56.3705       2.3691       0.2577       7.3805       9.7949
   2595.3000      55.7808       2.3436       0.2455       7.3651      10.0271
   2595.4500      54.2740       2.3330       0.2532       7.8879      10.0123
   2595.6000      56.2579       2.3330       0.2471       7.4873      10.1062
   2595.7500      56.5189       2.3475       0.2561       7.1933      10.0759
   2595.9000      58.6311       2.3527       0.2590       6.7675      10.0758
   2596.0500      61.6079       2.3456       0.2570       7.3452      10.0845
   2596.2000      64.5014       2.3434       0.2633       6.5276      10.0698
   2596.3500      65.6796       2.3381       0.2552       6.1424       9.9368
   2596.5000      66.5072       2.3313       0.2605       6.2958       9.8719
   2596.6500      62.9496       2.3229       0.2589       6.4305       9.6657
   2596.8000      65.2812       2.3275       0.2585       5.7291       9.4026
   2596.9500      64.1563       2.3160       0.2491       5.3509       9.3357
   2597.1000      63.3518       2.3307       0.2395       5.4044       9.2663
   2597.2500      61.4314       2.3157       0.2448       5.8933       9.2675
   2597.4000      58.7896       2.3250       0.2512       6.2286       9.1979
   2597.5500      60.4722       2.3172       0.2463       7.0046       9.2215
   2597.7000      59.8234       2.3275       0.2516       6.8889       9.2586
   2597.8500      61.1290       2.3318       0.2493       7.1174       9.2439
   2598.0000      63.2780       2.3239       0.2540       7.4333       9.2361
   2598.1500      63.0496       2.3263       0.2600       7.3439       9.2924
   2598.3000      62.9439       2.3553       0.2644       7.2729       9.4505
   2598.4500      64.8021       2.3684       0.2680       7.6287       9.4534
   2598.6000      66.5728       2.3485       0.2777       8.6654       9.3496
   2598.7500      67.9221       2.3376       0.2721       8.0776       9.3358
   2598.9000      68.4211       2.3277       0.2728       8.1065       9.4224
   2599.0500      68.0254       2.3420       0.2674       8.1980       9.2825
   2599.2000      64.3628       2.3479       0.2745       8.5317       9.2586
   2599.3500      65.0605       2.3429       0.2794       8.3880       9.3616
   2599.5000      61.3815       2.3627       0.2778       8.2005       9.3425
   2599.6500      59.7451       2.3482       0.2689       7.8064       9.4102
   2599.8000      58.1075       2.3507       0.2698       8.3800       9.4242
   2599.9500      57.3023       2.3426       0.2740       9.6810       9.4583
   2600.1000      59.1738       2.3392       0.2767       9.4846       9.4781
   2600.2500      61.8699       2.3546       0.2704       8.5098       9.4705
   2600.4000      60.4701       2.3496       0.2666       7.6817       9.3377
   2600.5500      60.2022       2.3653       0.2645       7.2911       9.5862
   2600.7000      63.4616       2.3666       0.2631       7.1497       9.5959
   2600.8500      63.9747       2.3775       0.2598       7.3430       9.6197
   2601.0000      63.0323       2.3887       0.2629       7.3917       9.6178
   2601.1500      62.8694       2.4007       0.2554       7.6877       9.5327
   2601.3000      65.2944       2.4009       0.2597       8.4296       9.3798
   2601.4500      64.1604       2.3918       0.2540       8.0221       9.4634
   2601.6000      61.5945       2.3974       0.2499       7.4144       9.5552
   2601.7500      59.1860       2.4103       0.2461       7.8681       9.5286
   2601.9000      57.6885       2.4182       0.2511       7.7472       9.5322
   2602.0500      59.7921       2.4187       0.2529       7.1387       9.3469
   2602.2000      60.6647       2.4073       0.2372       7.0674       9.2247
   2602.3500      60.1689       2.4009       0.2387       7.5052       9.1688
   2602.5000      61.0573       2.3824       0.2313       7.9153       9.2584
   2602.6500      65.1942       2.4124       0.2431       7.7035       9.2196
   2602.8000      62.8646       2.4190       0.2417       8.3917       9.2838
   2602.9500      61.5948       2.4494       0.2380       7.6616       9.3037
   2603.1000      58.5802       2.4406       0.2343       7.2835       9.3104
   2603.2500      54.8868       2.4336       0.2372       7.2276       9.4986
