~VERSION -------------------------------------------
 VERS.                 2.0 : CWLS LOG ASCII STANDARD - VERSION 2.0
 WRAP.                  NO : ONE LINE PER DEPTH STEP
~WELL -----------------------------------------------
 WELL.                CAMPOS-2 : Well name
 UWI .                BR-CAM-002        : Unique Well ID
 LAT .                -22.3456        : Latitude
 LON .                -40.1234        : Longitude
 STRT.M               1800.00 : START DEPTH
 STOP.M               3499.95 : STOP DEPTH
 STEP.M               0.1500 : STEP
 NULL.                -9999 : NULL VALUE
~CURVE -----------------------------------------------
 DEPTH .M               : Depth
 GR    .GAPI            : Gamma Ray
 RHOB  .G/C3            : Bulk Density
 NPHI  .V/V             : Neutron Porosity
 RT    .OHMM            : Resistivity
 CALI  .IN              : Caliper
~A  DEPTH              GR        RHOB        NPHI          RT        CALI
# ...
   2696.1000      59.8140       2.3884       0.2645       6.2357       9.2516
   2696.2500      59.2791       2.3791       0.2578       6.2410       9.2820
   2696.4000      59.5708       2.3737       0.2590       5.7199       9.3716
   2696.5500      58.9389       2.3625       0.2562       5.5471       9.5275
   2696.7000      63.1219       2.3804       0.2569       6.0047       9.5899
   2696.8500      62.9852       2.4020       0.2552       6.0469       9.5064
   2697.0000      61.5993       2.3871       0.2500       6.4675       9.4694
   2697.1500      59.8742       2.3929       0.2431       6.0523       9.4921
   2697.3000      60.2898       2.3822       0.2489       5.6990       9.6084
   2697.4500      60.4274       2.3966       0.2433       5.5893       9.5157
   2697.6000      63.5916       2.4125       0.2386       6.0546       9.4743
   2697.7500      65.4859       2.4270       0.2350       5.5458       9.5124
   2697.9000      63.6545       2.4421       0.2365       5.2242       9.4074
   2698.0500      61.3097       2.4231       0.2309       4.6951       9.3543
   2698.2000      57.0967       2.4240       0.2410       4.6009       9.2668
   2698.3500      55.4122       2.4121       0.2458       5.1942       9.2467
   2698.5000      54.9100       2.4088       0.2431       5.0219       9.3207
   2698.6500      53.4015       2.4196       0.2405       5.1938       9.3704
   2698.8000      54.5796       2.4246       0.2317       5.3945       9.3096
   2698.9500      57.6496       2.4298       0.2349       5.6237       9.3498
   2699.1000      57.9727       2.4213       0.2281       5.6104       9.4088
   2699.2500      59.9060       2.4338       0.2327       5.7147       9.3467
   2699.4000      59.4115       2.4404       0.2286       5.8967       9.4003
   2699.5500      62.8795       2.4439       0.2322       5.7667       9.4054
   2699.7000      58.2598       2.4403       0.2382       5.4738       9.4231
   2699.8500      56.0853       2.4187       0.2397       5.6483       9.5288
   2700.0000      58.0571       2.4313       0.2399       5.0994       9.6374
   2700.1500      58.0714       2.4179       0.2405       5.3870       9.7732
   2700.3000      58.7017       2.4306       0.2359       5.4981       9.7571
   2700.4500      57.7686       2.4306       0.2493       5.6624       9.7231
   2700.6000      55.9186       2.4128       0.2585       5.6582       9.7965
   2700.7500      56.2522       2.4245       0.2641       5.6565       9.7592
   2700.9000      54.0965       2.4211       0.2645       5.6801       9.8129
   2701.0500      58.2922       2.4252       0.2710       5.9715       9.8292
   2701.2000      58.2120       2.4176       0.2636       5.9127       9.8716
   2701.3500      56.9824       2.4067       0.2553       6.1777       9.8182
   2701.5000      55.8909       2.3828       0.2504       6.1453       9.7935
   2701.6500      56.8946       2.3643       0.2500       6.1844       9.5692
   2701.8000      58.1687       2.3791       0.2549       6.1136       9.4791
   2701.9500      55.7861       2.3665       0.2549       6.3533       9.5952
   2702.1000      55.7631       2.3819       0.2544       7.1129       9.5256
   2702.2500      53.9941       2.3749       0.2513       7.1707       9.4625
   2702.4000      54.9150       2.3677       0.2523       7.3134       9.3098
   2702.5500      50.7150       2.3820       0.2455       6.8496       9.3629
   2702.7000      53.7734       2.3787       0.2422       7.0840       9.4572
   2702.8500      55.6393       2.3884       0.2375       6.9330       9.3688
   2703.0000      55.3173       2.3686       0.2425       6.7181       9.2213
   2703.1500      58.9369       2.3840       0.2469       6.9492       9.3433
   2703.3000      60.1462       2.3712       0.2439       7.1134       9.2898
   2703.4500      62.6637       2.3576       0.2333       6.4606       9.3020
   2703.6000      63.5036       2.3717       0.2276       6.2672       9.3457
   2703.7500      61.4667       2.3589       0.2332       6.3525       9.4032
   2703.9000      63.5419       2.3600       0.2231       6.0908       9.5396
   2704.0500      61.3855       2.3535       0.2233       6.6366       9.4580
   2704.2000      61.3243       2.3455       0.2242       7.5350       9.3594
   2704.3500      62.1097       2.3615       0.2287       7.0367       9.4085
   2704.5000      64.0948       2.3707       0.2346       7.3846       9.5517
   2704.6500      65.2449       2.3907       0.2308       7.1805       9.4178
   2704.8000      62.3144       2.3861       0.2393       7.7300       9.4260
   2704.9500      61.9302       2.3894       0.2437       7.2529       9.3953
   2705.1000      61.7475       2.3744       0.2549       7.4696       9.4832
   2705.2500      61.3899       2.3718       0.2493       7.3353       9.5123
   2705.4000      59.2631       2.3788       0.2518       7.6603       9.5696
   2705.5500      61.2220       2.3843       0.2522       7.9757       9.5355
   2705.7000      59.1695       2.3901       0.2543       8.1717       9.5000
   2705.8500      58.0361       2.3782       0.2486      10.9678       9.5657
   2706.0000      58.3749       2.3880       0.2481      15.6958       9.4265
   2706.1500      55.8097       2.3753       0.2500      20.6013       9.4629
   2706.3000      53.9065       2.3767       0.2542      20.6154       9.5946
   2706.4500      50.9090       2.3741       0.2553      21.4664       9.5155
   2706.6000      48.4567       2.3627       0.2596      22.5819       9.4811
   2706.7500      49.2916       2.3729       0.2464      22.3404       9.4487
   2706.9000      48.0091       2.3573       0.2426      23.4022       9.3866
   2707.0500      45.5233       2.3667       0.2432      21.7768       9.5067
   2707.2000      44.5040       2.3767       0.2474      21.5947       9.5881
   2707.3500      44.8425       2.3663       0.2550      22.2653       9.4810
   2707.5000      44.9866       2.3749       0.2504      21.8719       9.4553
   2707.6500      45.1654       2.3628       0.2543      22.1383       9.5788
   2707.8000      46.4520       2.3447       0.2431      21.2766       9.4809
   2707.9500      47.2449       2.3562       0.2439      20.5178       9.4236
   2708.1000      49.0991       2.3789       0.2319      18.2798       9.4430
   2708.2500      50.7418       2.3880       0.2358      18.4158       9.4249
   2708.4000      53.5378       2.3750       0.2364      17.4291       9.5290
   2708.5500      51.5790       2.3667       0.2430      18.1150       9.3849
   2708.7000      53.7735       2.3608       0.2422      18.4633       9.4008
   2708.8500      53.7099       2.3660       0.2502      14.5821       9.4438
   2709.0000      52.7278       2.3788       0.2598      10.9297       9.5283
   2709.1500      54.1278       2.3831       0.2506       7.9257       9.5311
   2709.3000      56.1933       2.3794       0.2462       7.7452       9.5065
   2709.4500      58.7752       2.3830       0.2498       7.8189       9.6577
   2709.6000      60.7904       2.3852       0.2518       7.4046       9.5343
   2709.7500      61.0373       2.3679       0.2538       8.0276       9.6517
   2709.9000      61.1982       2.3888       0.2686       7.5725       9.5136
   2710.0500      63.2681       2.3895       0.2621       8.3706       9.6904
   2710.2000      67.5906       2.3773       0.2574       7.4740       9.6295
   2710.3500      65.5590       2.3898       0.2561       7.6033       9.7030
   2710.5000      66.0041       2.3943       0.2618       7.1866       9.6648
   2710.6500      63.0812       2.3846       0.2617       7.4779       9.5644
   2710.8000      63.2274       2.4018       0.2685       7.3262       9.6257
   2710.9500      65.8012       2.3846       0.2653       7.4849       9.6668
   2711.1000      62.0407       2.3759       0.2627       7.7691       9.8009
   2711.2500      59.5348       2.3694       0.2637       7.7584       9.7678
   2711.4000      58.6073       2.3854       0.2578       8.3572       9.6983
