~VERSION -------------------------------------------
 VERS.                 2.0 : CWLS LOG ASCII STANDARD - VERSION 2.0
 WRAP.                  NO : ONE LINE PER DEPTH STEP
~WELL -----------------------------------------------
 WELL.                CAMPOS-2 : Well name
 UWI .                BR-CAM-002        : Unique Well ID
 LAT .                -22.3456        : Latitude
 LON .                -40.1234        : Longitude
 STRT.M               1800.00 : START DEPTH
 STOP.M               3499.95 : STOP DEPTH
 STEP.M               0.1500 : STEP
 NULL.                -9999 : NULL VALUE
~CURVE -----------------------------------------------
 DEPTH .M               : Depth
 GR    .GAPI            : Gamma Ray
 RHOB  .G/C3            : Bulk Density
 NPHI  .V/V             : Neutron Porosity
 RT    .OHMM            : Resistivity
 CALI  .IN              : Caliper
~A  DEPTH              GR        RHOB        NPHI          RT        CALI
# ...
   2248.0500      48.4365       2.3999       0.2400      11.2266       9.2495
   2248.2000      47.9693       2.4123       0.2398      11.8373       9.3071
   2248.3500      48.9539       2.3905       0.2464      11.9480       9.4854
   2248.5000      50.5539       2.3739       0.2414      11.8857       9.4461
   2248.6500      53.3755       2.3857       0.2477      12.4373       9.5694
   2248.8000      55.2534       2.3825       0.2576      11.6359       9.5962
   2248.9500      57.3466       2.3752       0.2544       8.8021       9.6988
   2249.1000      59.5476       2.3787       0.2514       6.1912       9.6952
   2249.2500      61.4984       2.3660       0.2476       6.2215       9.8184
   2249.4000      60.7407       2.3714       0.2588       6.7036       9.8906
   2249.5500      62.2509       2.3745       0.2608       6.7144       9.8406
   2249.7000      65.6073       2.3860       0.2643       6.7920       9.7171
   2249.8500      65.8045       2.3857       0.2625       7.1802       9.5098
   2250.0000      66.2501       2.3894       0.2601       7.1541       9.4582
   2250.1500      67.8553       2.3757       0.2562       8.4672       9.5447
   2250.3000      68.7398       2.3830       0.2549       8.3098       9.5773
   2250.4500      71.7277       2.3964       0.2445       9.0434       9.4634
   2250.6000      67.5200       2.4001       0.2404       9.0597       9.5011
   2250.7500      65.0678       2.3998       0.2336       9.8788       9.4354
   2250.9000      63.4798       2.4002       0.2327       9.3518       9.2774
   2251.0500      65.5776       2.3942       0.2289       8.7633       9.2903
   2251.2000      64.0015       2.3929       0.2338       8.2834       9.3871
   2251.3500      65.3203       2.3999       0.2296       6.9939       9.4116
   2251.5000      60.9100       2.4010       0.2244       6.9556       9.4399
   2251.6500      59.8032       2.3948       0.2199       6.5727       9.2501
   2251.8000      58.3369       2.3911       0.2114       7.6192       9.2608
   2251.9500      59.2341       2.4068       0.2138       8.2261       9.4151
   2252.1000      57.8290       2.4059       0.2165       8.5178       9.4169
   2252.2500      57.9181       2.4130       0.2190       8.4963       9.4203
   2252.4000      58.8815       2.4099       0.2190       9.3550       9.5220
   2252.5500      58.6892       2.4059       0.2128       9.6988       9.5103
   2252.7000      56.4441       2.4100       0.2136       9.1069       9.5333
   2252.8500      60.9972       2.4215       0.2067       8.3815       9.5789
   2253.0000      62.3129       2.4191       0.2004       7.9349       9.6189
   2253.1500      65.0415       2.4110       0.2085       6.5486       9.6593
   2253.3000      63.9763       2.3962       0.2150       6.3860       9.6800
   2253.4500      63.6389       2.3835       0.2239       6.3756       9.4854
   2253.6000      64.4260       2.3612       0.2229       6.5288       9.4052
   2253.7500      66.5430       2.3437       0.2214       6.6585       9.3866
   2253.9000      68.1431       2.3343       0.2252       6.2044       9.4343
   2254.0500      65.2570       2.3441       0.2220       6.6650       9.5245
   2254.2000      65.6207       2.3361       0.2243       7.2367       9.4899
   2254.3500      66.1326       2.3392       0.2272       7.8951       9.4023
   2254.5000      69.4146       2.3473       0.2335       7.9493       9.5073
   2254.6500      67.7457       2.3347       0.2374       7.4972       9.5162
   2254.8000      70.2439       2.3403       0.2358       6.9922       9.4327
   2254.9500      70.6546       2.3365       0.2378       6.6755       9.4749
   2255.1000      69.5137       2.3471       0.2419       6.4101       9.4667
   2255.2500      69.5476       2.3254       0.2424       6.1588       9.5586
   2255.4000      72.7830       2.3241       0.2349       5.0452       9.4209
   2255.5500      74.3683       2.3223       0.2376       5.4582       9.3981
   2255.7000      75.4017       2.3080       0.2301       5.7901       9.4032
   2255.8500      73.0427       2.2961       0.2396       6.0735       9.4625
   2256.0000      72.3898       2.2854       0.2433       6.7368       9.4093
   2256.1500      72.0943       2.3077       0.2428       7.7355       9.5257
   2256.3000      76.1456       2.3220       0.2294       7.9449       9.4770
   2256.4500      75.5216       2.3393       0.2222       7.8518       9.5192
   2256.6000      74.3211       2.3619       0.2263       7.4747       9.4771
   2256.7500      72.1937       2.3713       0.2320       7.0687       9.3305
   2256.9000      68.2560       2.3622       0.2274       7.7377       9.3745
   2257.0500      66.0221       2.3596       0.2372       7.4002       9.3148
   2257.2000      66.9837       2.3719       0.2374       7.4704       9.3488
   2257.3500      64.5839       2.3916       0.2356       7.4562       9.4178
   2257.5000      63.7668       2.3875       0.2348       7.1218       9.3104
   2257.6500      66.9451       2.4116       0.2377       7.8545       9.2114
   2257.8000      68.3361       2.4059       0.2412       7.8203       9.3425
   2257.9500      66.6872       2.4055       0.2413       7.4645       9.4196
   2258.1000      65.4649       2.3898       0.2407       7.7402       9.6134
   2258.2500      66.0892       2.4091       0.2380       8.5071       9.7585
   2258.4000      65.3061       2.4209       0.2457       8.7847       9.7626
   2258.5500      64.0101       2.4376       0.2423       8.0660       9.7255
   2258.7000      63.8700       2.4475       0.2464       7.4129       9.6095
   2258.8500      63.5362       2.4491       0.2416       7.2749       9.6003
   2259.0000      64.3035       2.4573       0.2493       7.3489       9.7244
   2259.1500      62.4395       2.4517       0.2416       6.4493       9.6627
   2259.3000      60.2734       2.4351       0.2460       6.7976       9.5655
   2259.4500      58.0922       2.4220       0.2504       6.4760       9.4956
   2259.6000      57.3081       2.4263       0.2468       6.5573       9.4310
   2259.7500      58.4444       2.4105       0.2440       6.9347       9.3411
   2259.9000      62.1794       2.4160       0.2371       6.6386       9.3436
   2260.0500      62.9779       2.4326       0.2399       7.1408       9.4521
   2260.2000      64.5988       2.4437       0.2367       6.4531       9.4785
   2260.3500      68.5410       2.4384       0.2331       6.6110       9.3490
   2260.5000      67.9523       2.4203       0.2254       6.8732       9.3577
   2260.6500      64.7170       2.4165       0.2221       6.8941       9.4032
   2260.8000      62.7113       2.4330       0.2134       7.0811       9.3939
   2260.9500      66.1044       2.4284       0.2045       7.0125       9.3200
   2261.1000      68.5717       2.4517       0.2055       7.7561       9.3113
   2261.2500      67.8942       2.4386       0.2039       6.8283       9.2561
   2261.4000      63.9623       2.4361       0.1966       6.5047       9.3194
   2261.5500      61.2695       2.4179       0.2001       6.6226       9.3095
   2261.7000      61.6032       2.4194       0.2014       7.2046       9.3799
   2261.8500      60.4025       2.4405       0.2093       7.0868       9.5075
   2262.0000      58.6081       2.4414       0.2043       6.9722       9.3814
   2262.1500      57.9096       2.4143       0.2037       7.3809       9.4180
   2262.3000      58.7272       2.4181       0.2098       6.6379       9.4352
   2262.4500      61.8631       2.4287       0.2069       7.1532       9.3951
   2262.6000      63.4231       2.4150       0.2125       6.9182       9.3539
   2262.7500      62.9411       2.4251       0.2055       6.7156       9.4016
   2262.9000      62.2446       2.4332       0.2070       6.4856       9.3574
   2263.0500      62.4225       2.4139       0.2057       6.6065       9.3217
   2263.2000      61.1303       2.3884       0.2124       7.2573       9.2255
   2263.3500      58.2380       2.3698       0.2222       7.4809       9.1150
