~VERSION -------------------------------------------
 VERS.                 2.0 : CWLS LOG ASCII STANDARD - VERSION 2.0
 WRAP.                  NO : ONE LINE PER DEPTH STEP
~WELL -----------------------------------------------
 WELL.                CAMPOS-2 : Well name
 UWI .                BR-CAM-002        : Unique Well ID
 LAT .                -22.3456        : Latitude
 LON .                -40.1234        : Longitude
 STRT.M               1800.00 : START DEPTH
 STOP.M               3499.95 : STOP DEPTH
 STEP.M               0.1500 : STEP
 NULL.                -9999 : NULL VALUE
~CURVE -----------------------------------------------
 DEPTH .M               : Depth
 GR    .GAPI            : Gamma Ray
 RHOB  .G/C3            : Bulk Density
 NPHI  .V/V             : Neutron Porosity
 RT    .OHMM            : Resistivity
 CALI  .IN              : Caliper
~A  DEPTH              GR        RHOB        NPHI          RT        CALI
   1800.0000      36.9191       1.1614       0.1139       2.3831       4.6537
   1800.1500      41.0188       1.2786       0.1197       2.5210       5.6665
   1800.3000      44.7967       1.4013       0.1355       2.6790       6.5371
   1800.4500      46.4731       1.5130       0.1536       3.0859       7.4846
   1800.6000      46.9731       1.6236       0.1674       3.3184       8.4976
   1800.7500      50.6872       1.7574       0.1757       3.8871       9.3476
   1800.9000      54.4256       1.8852       0.1854       4.0431       9.3611
   1801.0500      57.2006       2.0184       0.1986       4.3163       9.5120
   1801.2000      61.0653       2.1449       0.2095       4.8430       9.4874
   1801.3500      64.1870       2.2630       0.2248       5.3019       9.4050
   1801.5000      69.0461       2.3914       0.2353       5.7594       9.4537
   1801.6500      66.6320       2.3958       0.2389       5.9059       9.3034
   1801.8000      70.0017       2.3958       0.2370       6.1992       9.4067
   1801.9500      68.7027       2.3980       0.2359       4.8275       9.4479
   1802.1000      69.2696       2.4035       0.2424       4.7092       9.5114
   1802.2500      68.7807       2.4067       0.2434       4.9389       9.7227
   1802.4000      68.8647       2.4253       0.2392       5.2849       9.7530
   1802.5500      68.7618       2.4225       0.2328       5.5227       9.6520
   1802.7000      67.9520       2.4146       0.2369       5.9373       9.6569
   1802.8500      67.0090       2.4191       0.2344       6.0855       9.6579
   1803.0000      68.9286       2.4230       0.2364       6.7226       9.6241
   1803.1500      69.0116       2.4239       0.2398       6.7818       9.6759
   1803.3000      69.1055       2.4266       0.2316       6.9357       9.7395
   1803.4500      68.7466       2.4365       0.2269       6.9530       9.7484
   1803.6000      71.8378       2.4474       0.2323       7.4316       9.5730
   1803.7500      70.2214       2.4220       0.2409       7.0372       9.3617
   1803.9000      70.3406       2.4209       0.2421       7.3075       9.3091
   1804.0500      70.2082       2.4028       0.2422       7.9936       9.3464
   1804.2000      71.5834       2.4022       0.2422       7.6059       9.4262
   1804.3500      70.2012       2.4044       0.2372       7.7839       9.4738
   1804.5000      68.8980       2.3944       0.2397       8.6505       9.4675
   1804.6500      71.3714       2.3990       0.2359       8.7393       9.4527
   1804.8000      69.8894       2.4043       0.2385       8.8805       9.2651
   1804.9500      70.6500       2.4010       0.2398       9.2509       9.2175
   1805.1000      70.4994       2.3924       0.2306      10.4220       9.2570
   1805.2500      66.6481       2.3844       0.2314       9.0627       9.3726
   1805.4000      67.3105       2.3797       0.2351       7.9142       9.4371
   1805.5500      64.5301       2.3939       0.2410       7.5280       9.4214
   1805.7000      63.2471       2.3958       0.2449       7.2825       9.3541
   1805.8500      61.4300       2.4157       0.2525       7.0820       9.3727
   1806.0000      57.8422       2.4183       0.2642       6.9025       9.3523
   1806.1500      56.7149       2.4216       0.2581       7.2031       9.3550
   1806.3000      53.3431       2.4221       0.2713       7.4991       9.4053
   1806.4500      56.7462       2.4196       0.2723       7.3923       9.3536
   1806.6000      55.4613       2.4098       0.2705       7.4967       9.3391
   1806.7500      58.6205       2.4238       0.2634       7.3592       9.3095
   1806.9000      59.0292       2.4176       0.2722       7.6741       9.3664
   1807.0500      59.2198       2.4152       0.2773       6.6590       9.3065
   1807.2000      58.3858       2.4034       0.2784       6.9372       9.2320
   1807.3500      57.4141       2.4119       0.2708       6.7609       9.2477
   1807.5000      56.5576       2.4066       0.2676       5.7886       9.3175
   1807.6500      56.4652       2.4079       0.2690       5.5751       9.5064
   1807.8000      53.7462       2.4141       0.2638       5.4987       9.5180
   1807.9500      52.3157       2.4180       0.2726       5.9164       9.5267
   1808.1000      53.7004       2.4204       0.2672       5.7760       9.5777
   1808.2500      56.2836       2.4207       0.2721       5.9661       9.5623
   1808.4000      57.0574       2.4116       0.2733       6.1324       9.4605
   1808.5500      58.4646       2.4082       0.2693       6.5318       9.6917
   1808.7000      56.7516       2.4229       0.2690       7.4500       9.7847
   1808.8500      57.5130       2.4158       0.2686       7.6342       9.7419
   1809.0000      57.6129       2.4202       0.2498       7.5975       9.6631
   1809.1500      56.7101       2.4172       0.2575       7.6873       9.4956
   1809.3000      57.0800       2.4161       0.2474       7.0497       9.4736
   1809.4500      55.2931       2.4177       0.2460       6.5138       9.4720
   1809.6000      57.4021       2.4272       0.2381       6.3113       9.3969
   1809.7500      54.4193       2.4281       0.2344       6.6481       9.4738
   1809.9000      51.9435       2.4101       0.2274       6.4768       9.5265
   1810.0500      51.7709       2.4104       0.2232       7.1191       9.3461
   1810.2000      50.2981       2.4185       0.2240       6.9293       9.2929
   1810.3500      52.0849       2.4023       0.2351       7.1671       9.4235
   1810.5000      51.3897       2.4131       0.2318       7.4970       9.4389
   1810.6500      49.2594       2.4200       0.2311       7.5547       9.4332
   1810.8000      49.9589       2.4185       0.2392       8.7045       9.5364
   1810.9500      52.9681       2.3985       0.2307       8.6129       9.6225
   1811.1000      52.2597       2.3980       0.2356       8.4610       9.6297
   1811.2500      50.0921       2.4084       0.2296       8.8211       9.5941
   1811.4000      49.7503       2.4123       0.2286       8.6747       9.5858
   1811.5500      48.5999       2.4149       0.2271       7.7855       9.6908
   1811.7000      49.9120       2.3980       0.2232       6.6674       9.8806
   1811.8500      48.8621       2.3905       0.2219       7.2364       9.8572
   1812.0000      53.6362       2.3824       0.2316       7.1507       9.9195
   1812.1500      54.6898       2.3876       0.2303       7.0764       9.9350
   1812.3000      55.0293       2.3722       0.2350       7.4133       9.8771
   1812.4500      55.5559       2.3797       0.2353       8.1634       9.8788
   1812.6000      52.4601       2.3857       0.2406       7.7747       9.9106
   1812.7500      52.7056       2.3840       0.2434       7.1498       9.9175
   1812.9000      52.2032       2.3909       0.2425       7.3357       9.9299
   1813.0500      50.1711       2.4139       0.2397       7.0375       9.9803
   1813.2000      52.3038       2.4093       0.2373       7.0814       9.8687
   1813.3500      51.7189       2.4023       0.2306       6.8869       9.7857
   1813.5000      51.6799       2.3909       0.2412       7.0842       9.7366
   1813.6500      52.4446       2.3629       0.2378       7.2147       9.6570
   1813.8000      51.8395       2.3457       0.2303       5.8155       9.6280
   1813.9500      50.6749       2.3567       0.2277       5.4399       9.5321
   1814.1000      49.7452       2.3780       0.2301       5.3041       9.5408
   1814.2500      49.8649       2.3623       0.2331       5.2677       9.4983
   1814.4000      49.5803       2.3736       0.2314       5.7547       9.4876
   1814.5500      48.1120       2.3662       0.2316       6.0998       9.2992
   1814.7000      48.6301       2.3667       0.2321       5.9511       9.3791
   1814.8500      50.8075       2.3500       0.2368       5.6364       9.3439
   1815.0000      47.5134       2.3482       0.2366       6.0405       9.3902
   1815.1500      48.2513       2.3382       0.2388       6.1732       9.4499
   1815.3000      51.6055       2.3647       0.2429       6.5549       9.6336
