~VERSION -------------------------------------------
 VERS.                 2.0 : CWLS LOG ASCII STANDARD - VERSION 2.0
 WRAP.                  NO : ONE LINE PER DEPTH STEP
~WELL -----------------------------------------------
 WELL.                CAMPOS-2 : Well name
 UWI .                BR-CAM-002        : Unique Well ID
 LAT .                -22.3456        : Latitude
 LON .                -40.1234        : Longitude
 STRT.M               1800.00 : START DEPTH
 STOP.M               3499.95 : STOP DEPTH
 STEP.M               0.1500 : STEP
 NULL.                -9999 : NULL VALUE
~CURVE -----------------------------------------------
 DEPTH .M               : Depth
 GR    .GAPI            : Gamma Ray
 RHOB  .G/C3            : Bulk Density
 NPHI  .V/V             : Neutron Porosity
 RT    .OHMM            : Resistivity
 CALI  .IN              : Caliper
~A  DEPTH              GR        RHOB        NPHI          RT        CALI
# ...
   3484.0500      63.7299       2.3627       0.2346       5.7830       9.6018
   3484.2000      65.1107       2.3676       0.2362       6.4253       9.6268
   3484.3500      64.3607       2.3510       0.2360       6.1404       9.5635
   3484.5000      66.9863       2.3525       0.2413       6.1400       9.5296
   3484.6500      67.7546       2.3724       0.2443       6.2889       9.5248
   3484.8000      69.5935       2.4012       0.2473       6.4909       9.5674
   3484.9500      72.7742       2.4008       0.2450       7.4733       9.6762
   3485.1000      72.0378       2.4121       0.2547       7.8039       9.6954
   3485.2500      69.7527       2.4070       0.2477       7.6026       9.5957
   3485.4000      71.5298       2.4028       0.2457       8.0113       9.6883
   3485.5500      71.6381       2.4017       0.2340       8.0295       9.6426
   3485.7000      71.5148       2.4123       0.2259       8.6748       9.6675
   3485.8500      72.1473       2.4039       0.2265       8.3624       9.6293
   3486.0000      73.2098       2.4035       0.2211       7.9622       9.6243
   3486.1500      72.3895       2.4106       0.2228       7.4148       9.6118
   3486.3000      73.6459       2.4224       0.2241       7.2594       9.5028
   3486.4500      69.7789       2.4113       0.2244       7.1328       9.5243
   3486.6000      66.7306       2.4317       0.2212       8.1400       9.5456
   3486.7500      64.8848       2.4305       0.2272       8.3943       9.5786
   3486.9000      65.1109       2.4227       0.2305       8.1296       9.6171
   3487.0500      63.8209       2.4324       0.2296       8.4866       9.5986
   3487.2000      64.8639       2.4290       0.2342       8.5875       9.5160
   3487.3500      64.0321       2.4543       0.2389       8.7759       9.6084
   3487.5000      61.4416       2.4510       0.2365       8.5311       9.6992
   3487.6500      59.4566       2.4512       0.2364       7.9969       9.7891
   3487.8000      58.9020       2.4501       0.2335       7.7553       9.8169
   3487.9500      56.0061       2.4456       0.2360       7.4787       9.6914
   3488.1000      56.5447       2.4401       0.2304       7.9850       9.6046
   3488.2500      55.6131       2.4413       0.2309       7.4296       9.4913
   3488.4000      56.7100       2.4553       0.2282       7.4268       9.4133
   3488.5500      54.8390       2.4456       0.2363       7.6277       9.4835
   3488.7000      56.4934       2.4527       0.2418       7.8415       9.3989
   3488.8500      55.8986       2.4717       0.2435       7.8893       9.2806
   3489.0000      56.0368       2.4835       0.2546       8.5394       9.1636
   3489.1500      53.6825       2.4698       0.2613       9.2130       9.0646
   3489.3000      51.7499       2.4657       0.2641       9.6429       9.1333
   3489.4500      54.4358       2.4699       0.2563       9.2902       9.2262
   3489.6000      57.6432       2.4791       0.2580       8.9949       9.2519
   3489.7500      54.3332       2.4881       0.2574       8.2956       9.2777
   3489.9000      56.1137       2.4778       0.2507       8.7789       9.2246
   3490.0500      57.2080       2.4647       0.2445       8.3506       9.2211
   3490.2000      60.7841       2.4741       0.2472       7.2811       9.2211
   3490.3500      60.8075       2.4669       0.2501       7.9513       9.3511
   3490.5000      63.7388       2.4685       0.2469       8.5416       9.3538
   3490.6500      63.4153       2.4725       0.2475       8.3561       9.3027
   3490.8000      63.3816       2.4697       0.2489       8.8291       9.2638
   3490.9500      62.7972       2.4672       0.2514       9.2442       9.3114
   3491.1000      63.0038       2.4665       0.2476       9.0581       9.3463
   3491.2500      63.6865       2.4745       0.2559       9.6056       9.3457
   3491.4000      61.7850       2.4701       0.2651       9.3901       9.4764
   3491.5500      61.2063       2.4556       0.2601       8.4821       9.4468
   3491.7000      60.3429       2.4441       0.2655       8.7839       9.4468
   3491.8500      61.0356       2.4263       0.2579       8.6145       9.3420
   3492.0000      63.0192       2.4132       0.2550       8.1989       9.3836
   3492.1500      64.3348       2.4274       0.2534       8.6471       9.3561
   3492.3000      65.9744       2.4165       0.2549       8.8439       9.3439
   3492.4500      66.7861       2.4162       0.2596       8.7255       9.2301
   3492.6000      64.4887       2.3983       0.2615       9.4330       9.2278
   3492.7500      68.2022       2.3895       0.2617       9.5606       9.2386
   3492.9000      66.4803       2.3933       0.2629       9.3881       9.3261
   3493.0500      64.6161       2.3934       0.2656       9.7777       9.3697
   3493.2000      59.8692       2.3887       0.2601      10.3526       9.4304
   3493.3500      59.9884       2.3823       0.2542       9.8240       9.3974
   3493.5000      58.6000       2.4013       0.2588       9.1311       9.3876
   3493.6500      61.3163       2.3917       0.2571       9.3774       9.3429
   3493.8000      61.8509       2.3867       0.2602       8.9624       9.3169
   3493.9500      63.6338       2.3877       0.2547       8.4007       9.3474
   3494.1000      62.5996       2.3841       0.2596       8.3061       9.4473
   3494.2500      60.9912       2.3675       0.2438       8.4867       9.5336
   3494.4000      59.4898       2.3603       0.2372       7.8836       9.3374
   3494.5500      59.8028       2.3517       0.2421       8.7352       9.3526
   3494.7000      60.2684       2.3666       0.2431       7.5372       9.3326
   3494.8500      57.8313       2.3837       0.2483       8.3747       9.4785
   3495.0000      57.5986       2.3939       0.2457       8.1998       9.4112
   3495.1500      58.5530       2.3870       0.2404       7.9434       9.4774
   3495.3000      59.4490       2.3910       0.2403       7.7887       9.4653
   3495.4500      59.2761       2.4009       0.2404       7.6532       9.6034
   3495.6000      60.4649       2.3949       0.2372       7.6176       9.4652
   3495.7500      59.9945       2.4098       0.2311       8.2248       9.4596
   3495.9000      60.8204       2.4132       0.2351       8.1550       9.5923
   3496.0500      62.1689       2.4180       0.2294       7.5031       9.5935
   3496.2000      65.1337       2.4099       0.2304       7.1247       9.6568
   3496.3500      64.2006       2.4194       0.2274       6.6989       9.5983
   3496.5000      62.5577       2.3895       0.2211       6.8562       9.5992
   3496.6500      61.2018       2.3848       0.2233       6.9939       9.6666
   3496.8000      59.6017       2.3757       0.2256       6.7263       9.6843
   3496.9500      56.3479       2.3888       0.2261       6.5377       9.6386
   3497.1000      58.4097       2.3946       0.2298       6.5627       9.6696
   3497.2500      60.1138       2.3968       0.2301       6.2460       9.5489
   3497.4000      62.0644       2.3835       0.2354       6.8947       9.5252
   3497.5500      63.4313       2.3939       0.2339       7.1369       9.4986
   3497.7000      62.6821       2.3880       0.2283       9.4764       9.4250
   3497.8500      62.2552       2.3784       0.2303      11.7213       9.4723
   3498.0000      58.9813       2.3784       0.2362      14.7811       9.5690
   3498.1500      57.3398       2.3761       0.2349      18.5555       9.4738
   3498.3000      54.2964       2.3629       0.2438      24.2352       9.5624
   3498.4500      50.7503       2.3536       0.2435      34.1989       9.4489
   3498.6000      53.7186       2.3716       0.2410      41.8851       9.5256
   3498.7500      49.7107       2.2452       0.2321      35.9056       9.5676
   3498.9000      46.9637       2.1257       0.2206      32.1265       9.5274
   3499.0500      43.7137       2.0063       0.2156      30.4834       9.5246
   3499.2000      38.9958       1.8967       0.2026      29.0087       9.5098
   3499.3500      36.6992       1.7702       0.1933      27.1847       9.3551
