~VERSION -------------------------------------------
 VERS.                 2.0 : CWLS LOG ASCII STANDARD - VERSION 2.0
 WRAP.                  NO : ONE LINE PER DEPTH STEP
~WELL -----------------------------------------------
 WELL.                CAMPOS-2 : Well name
 UWI .                BR-CAM-002        : Unique Well ID
 LAT .                -22.3456        : Latitude
 LON .                -40.1234        : Longitude
 STRT.M               1800.00 : START DEPTH
 STOP.M               3499.95 : STOP DEPTH
 STEP.M               0.1500 : STEP
 NULL.                -9999 : NULL VALUE
~CURVE -----------------------------------------------
 DEPTH .M               : Depth
 GR    .GAPI            : Gamma Ray
 RHOB  .G/C3            : Bulk Density
 NPHI  .V/V             : Neutron Porosity
 RT    .OHMM            : Resistivity
 CALI  .IN              : Caliper
~A  DEPTH              GR        RHOB        NPHI          RT        CALI
# ...
   1908.1500      51.4341       2.4191       0.2336       6.0623       9.7252
   1908.3000      51.0058       2.4086       0.2403       5.4793       9.6043
   1908.4500      52.3373       2.3905       0.2355       5.3971       9.7092
   1908.6000      53.8631       2.3929       0.2332       5.3528       9.6408
   1908.7500      52.5109       2.3781       0.2295       5.1121       9.4741
   1908.9000      53.4475       2.3782       0.2282       5.2894       9.4360
   1909.0500      52.6405       2.3917       0.2337       6.1080       9.2991
   1909.2000      53.6092       2.3915       0.2416       6.6814       9.2842
   1909.3500      52.3951       2.3886       0.2382       7.2411       9.3986
   1909.5000      50.5724       2.3731       0.2334       7.4432       9.4143
   1909.6500      50.5000       2.3661       0.2365       8.3368       9.3407
   1909.8000      51.5737       2.3668       0.2322       7.8939       9.3822
   1909.9500      52.0893       2.3611       0.2345       8.1902       9.3767
   1910.1000      51.8396       2.3585       0.2404       7.9333       9.3487
   1910.2500      52.4417       2.3704       0.2400       9.6064       9.3535
   1910.4000      52.1918       2.3912       0.2506      10.5356       9.3831
   1910.5500      51.9883       2.4017       0.2521       9.4379       9.4132
   1910.7000      53.8989       2.3901       0.2458       9.7370       9.4711
   1910.8500      52.7205       2.3857       0.2443      10.5046       9.4578
   1911.0000      54.0526       2.3985       0.2493      10.4557       9.3475
   1911.1500      54.1127       2.3971       0.2434      11.1344       9.3871
   1911.3000      58.0355       2.4028       0.2362      12.7326       9.4347
   1911.4500      58.2514       2.4001       0.2380      12.5102       9.4009
   1911.6000      57.1582       2.4017       0.2272      12.8666       9.4781
   1911.7500      57.8841       2.4066       0.2324      12.9923       9.5172
   1911.9000      58.6607       2.4089       0.2311      13.0712       9.5071
   1912.0500      57.6649       2.4137       0.2303      12.1131       9.5605
   1912.2000      61.1094       2.4259       0.2356      11.7066       9.4642
   1912.3500      60.7840       2.4296       0.2425      10.6238       9.3731
   1912.5000      62.0406       2.4464       0.2420       9.6934       9.4634
   1912.6500      65.6620       2.4438       0.2345       9.2239       9.6078
   1912.8000      66.0802       2.4555       0.2354       9.2171       9.5171
   1912.9500      65.9757       2.4554       0.2289       8.7716       9.5330
   1913.1000      67.6181       2.4506       0.2252       8.1175       9.5123
   1913.2500      65.6679       2.4630       0.2333       7.3035       9.5646
   1913.4000      66.7054       2.4670       0.2283       6.6781       9.6525
   1913.5500      68.9079       2.4546       0.2216       6.8776       9.5812
   1913.7000      70.7282       2.4672       0.2253       6.9657       9.6390
   1913.8500      72.7304       2.4864       0.2249       6.4731       9.7281
   1914.0000      72.9753       2.4916       0.2231       6.4397       9.7454
   1914.1500      74.0335       2.4934       0.2235       6.0676       9.6554
   1914.3000      71.3471       2.4977       0.2265       5.5477       9.6147
   1914.4500      70.9590       2.5070       0.2280       5.8556       9.6929
   1914.6000      72.5235       2.5188       0.2381       6.0394       9.7916
   1914.7500      73.6552       2.5297       0.2376       6.1692       9.6935
   1914.9000      70.8281       2.5115       0.2407       6.2014       9.5890
   1915.0500      72.2267       2.4794       0.2357       6.3906       9.5726
   1915.2000      70.5070       2.4556       0.2291       6.5451       9.5019
   1915.3500      72.0161       2.4478       0.2245       6.8165       9.4131
   1915.5000      70.7021       2.4401       0.2304       7.1331       9.3752
   1915.6500      66.1758       2.4467       0.2404       6.8796       9.4189
   1915.8000      64.3345       2.4435       0.2385       6.9775       9.3958
   1915.9500      63.3856       2.4231       0.2423       6.4734       9.2829
   1916.1000      64.1543       2.4472       0.2480       6.9854       9.2123
   1916.2500      66.0783       2.4282       0.2453       7.5768       9.2122
   1916.4000      66.7109       2.4085       0.2473       7.9169       9.2127
   1916.5500      66.6540       2.4140       0.2449       8.3191       9.2477
   1916.7000      64.0614       2.4161       0.2473       7.6235       9.3146
   1916.8500      61.6452       2.4012       0.2435       8.7189       9.3506
   1917.0000      60.8242       2.3996       0.2449       9.3280       9.4113
   1917.1500      62.4728       2.3975       0.2497       8.5187       9.3822
   1917.3000      61.6770       2.4071       0.2512       8.7940       9.4605
   1917.4500      62.0995       2.3906       0.2419       8.1721       9.5467
   1917.6000      59.0760       2.3784       0.2393       8.0830       9.4373
   1917.7500      60.2908       2.3808       0.2395       8.1705       9.4263
   1917.9000      61.0617       2.3853       0.2354       8.2122       9.5016
   1918.0500      61.7140       2.3968       0.2370       7.7932       9.5436
   1918.2000      62.7850       2.4018       0.2418       7.3906       9.5232
   1918.3500      61.8118       2.4229       0.2425       7.4210       9.4592
   1918.5000      62.1511       2.4340       0.2431       8.1435       9.5011
   1918.6500      63.2144       2.4339       0.2333       7.8315       9.5952
   1918.8000      62.7237       2.4249       0.2332       8.1126       9.6449
   1918.9500      61.2589       2.4290       0.2315       8.1840       9.7074
   1919.1000      60.0702       2.4093       0.2339       8.0192       9.6901
   1919.2500      61.4809       2.4089       0.2334       7.2781       9.7363
   1919.4000      61.6906       2.4283       0.2328       7.1281       9.5943
   1919.5500      62.4033       2.4239       0.2338       6.2541       9.6169
   1919.7000      63.6770       2.4096       0.2374       6.6244       9.7029
   1919.8500      64.3948       2.3937       0.2408       6.1538       9.8001
   1920.0000      64.0595       2.3915       0.2438       5.7199       9.6467
   1920.1500      63.2837       2.3911       0.2364       6.1772       9.5326
   1920.3000      65.1498       2.3850       0.2401       6.4223       9.4848
   1920.4500      65.8618       2.3995       0.2464       5.9801       9.3075
   1920.6000      69.5122       2.4021       0.2484       5.7946       9.3681
   1920.7500      69.1444       2.3946       0.2530       5.4400       9.3300
   1920.9000      70.5701       2.3996       0.2575       5.2592       9.3588
   1921.0500      68.4277       2.4025       0.2585       5.4912       9.2043
   1921.2000      68.1166       2.4080       0.2479       5.2766       9.2501
   1921.3500      67.6118       2.4075       0.2541       5.2789       9.2404
   1921.5000      68.6103       2.3968       0.2443       4.6539       9.3742
   1921.6500      69.9484       2.3986       0.2500       4.9472       9.3865
   1921.8000      71.7316       2.3938       0.2414       4.6329       9.4128
   1921.9500      74.0234       2.3945       0.2382       4.5283       9.3853
   1922.1000      72.7362       2.4031       0.2380       4.6608       9.3865
   1922.2500      69.1872       2.3998       0.2438       4.6301       9.4138
   1922.4000      69.6895       2.3841       0.2495       4.9812       9.3804
   1922.5500      69.7516       2.3856       0.2567       4.9665       9.5704
   1922.7000      68.1264       2.3987       0.2503       4.7460       9.4482
   1922.8500      70.1475       2.4222       0.2464       4.4640       9.4346
   1923.0000      71.3127       2.4179       0.2398       4.1979       9.3613
   1923.1500      70.6687       2.4110       0.2443       4.7748       9.3567
   1923.3000      68.7201       2.3998       0.2323       4.5852       9.2754
   1923.4500      66.0355       2.4062       0.2349       5.6054       9.4690
