~VERSION -------------------------------------------
 VERS.                 2.0 : CWLS LOG ASCII STANDARD - VERSION 2.0
 WRAP.                  NO : ONE LINE PER DEPTH STEP
~WELL -----------------------------------------------
 WELL.                CAMPOS-2 : Well name
 UWI .                BR-CAM-002        : Unique Well ID
 LAT .                -22.3456        : Latitude
 LON .                -40.1234        : Longitude
 STRT.M               1800.00 : START DEPTH
 STOP.M               3499.95 : STOP DEPTH
 STEP.M               0.1500 : STEP
 NULL.                -9999 : NULL VALUE
~CURVE -----------------------------------------------
 DEPTH .M               : Depth
 GR    .GAPI            : Gamma Ray
 RHOB  .G/C3            : Bulk Density
 NPHI  .V/V             : Neutron Porosity
 RT    .OHMM            : Resistivity
 CALI  .IN              : Caliper
~A  DEPTH              GR        RHOB        NPHI          RT        CALI
# ...
   2479.8000      65.0679       2.3172       0.2395      10.1458       9.2364
   2479.9500      63.7594       2.3212       0.2453       9.0462       9.2688
   2480.1000      65.6027       2.3223       0.2301       8.0744       9.3319
   2480.2500      63.7349       2.3069       0.2275       8.2165       9.3280
   2480.4000      64.3348       2.3052       0.2260       9.0374       9.3524
   2480.5500      62.9902       2.3135       0.2326       8.2583       9.4442
   2480.7000      63.4057       2.2846       0.2379       8.1123       9.4782
   2480.8500      63.1663       2.2819       0.2494       9.2981       9.5093
   2481.0000      60.1072       2.3045       0.2442      10.2890       9.5702
   2481.1500      56.4446       2.3229       0.2481      10.8620       9.5084
   2481.3000      57.3410       2.3242       0.2585       9.7780       9.5349
   2481.4500      56.2934       2.3287       0.2646      10.0554       9.6237
   2481.6000      53.5054       2.3311       0.2733       9.9049       9.6094
   2481.7500      49.2358       2.3462       0.2641      10.2871       9.5737
   2481.9000      50.3577       2.3396       0.2668       9.8858       9.6477
   2482.0500      49.7610       2.3565       0.2663      10.0918       9.5809
   2482.2000      50.7923       2.3543       0.2579      10.7698       9.5246
   2482.3500      52.2550       2.3665       0.2614      11.2208       9.6330
   2482.5000      49.9306       2.3641       0.2552      10.6348       9.6112
   2482.6500      52.2169       2.3657       0.2617      11.8790       9.7658
   2482.8000      54.0417       2.3699       0.2525      12.1637       9.7775
   2482.9500      56.5394       2.3716       0.2442      12.5243       9.7614
   2483.1000      55.7593       2.3834       0.2526      12.8432       9.8289
   2483.2500      55.5961       2.3812       0.2616      11.2372       9.9128
   2483.4000      58.1321       2.3728       0.2564      10.0800       9.7460
   2483.5500      58.5104       2.3760       0.2450      10.5613       9.6400
   2483.7000      59.9071       2.3992       0.2412      10.8920       9.5706
   2483.8500      61.6600       2.4236       0.2333      10.7066       9.4295
   2484.0000      63.3797       2.4137       0.2327       9.6461       9.4263
   2484.1500      65.1770       2.4116       0.2299       8.9842       9.3323
   2484.3000      64.5682       2.4238       0.2215      10.3720       9.2552
   2484.4500      63.7916       2.4273       0.2165      10.3893       9.2415
   2484.6000      65.4666       2.4382       0.2098      10.5583       9.2297
   2484.7500      70.8266       2.4228       0.2145       9.5517       9.1240
   2484.9000      69.6894       2.4382       0.2153      10.4177       9.2012
   2485.0500      69.6701       2.4181       0.2141       9.7152       9.2835
   2485.2000      70.4954       2.4268       0.2093      10.1726       9.5377
   2485.3500      70.4300       2.4189       0.2025      10.1246       9.5630
   2485.5000      72.0103       2.4186       0.2006      10.8533       9.7135
   2485.6500      70.9546       2.4115       0.1980      10.5275       9.7455
   2485.8000      71.2543       2.4152       0.2016      10.4753       9.8368
   2485.9500      68.9640       2.4266       0.2062      11.5461       9.8271
   2486.1000      70.8396       2.4052       0.2062      11.3830       9.8489
   2486.2500      68.7115       2.4303       0.2017      12.7494       9.7804
   2486.4000      67.3879       2.4406       0.2019      12.3120       9.7550
   2486.5500      64.9354       2.4277       0.2080      12.1892       9.7072
   2486.7000      65.5346       2.4182       0.2106      11.5888       9.6316
   2486.8500      65.4806       2.4066       0.2101      10.7220       9.7220
   2487.0000      66.2129       2.4072       0.2094      10.9192       9.5952
   2487.1500      66.2032       2.4141       0.2144      10.6486       9.4965
   2487.3000      66.1267       2.4063       0.2180       9.1248       9.3896
   2487.4500      66.6942       2.4152       0.2150       8.6351       9.4652
   2487.6000      64.9954       2.4094       0.2221       8.0845       9.4164
   2487.7500      61.6480       2.4231       0.2320       8.4789       9.5271
   2487.9000      60.7965       2.4200       0.2352       7.8991       9.5728
   2488.0500      60.9525       2.4215       0.2370       7.8755       9.5944
   2488.2000      59.5988       2.4098       0.2397       7.2176       9.4894
   2488.3500      59.4836       2.3957       0.2389       6.4870       9.5031
   2488.5000      58.6654       2.3910       0.2424       6.4705       9.4069
   2488.6500      57.5489       2.3985       0.2463       6.2095       9.3502
   2488.8000      57.9934       2.3901       0.2500       6.2797       9.3937
   2488.9500      57.0120       2.3732       0.2474       5.8128       9.3813
   2489.1000      54.4021       2.3917       0.2402       6.0781       9.3809
   2489.2500      59.0169       2.3649       0.2373       5.7280       9.3941
   2489.4000      59.5619       2.3733       0.2458       5.6131       9.4190
   2489.5500      60.3450       2.3844       0.2443       5.4460       9.4214
   2489.7000      61.2858       2.3761       0.2374       5.4784       9.3837
   2489.8500      60.2018       2.3532       0.2378       5.2053       9.2612
   2490.0000      60.1318       2.3489       0.2433       4.8810       9.4769
   2490.1500      59.8731       2.3357       0.2414       4.4901       9.6340
   2490.3000      60.6532       2.3327       0.2433       4.9011       9.6112
   2490.4500      58.8029       2.3171       0.2465       4.7837       9.5901
   2490.6000      61.0234       2.3183       0.2410       4.8319       9.6667
   2490.7500      59.4917       2.3029       0.2377       5.2333       9.5766
   2490.9000      62.3015       2.3011       0.2371       5.5155       9.6129
   2491.0500      60.0654       2.3093       0.2321       5.6034       9.6807
   2491.2000      57.3205       2.3098       0.2356       6.0382       9.7870
   2491.3500      56.3009       2.3256       0.2412       6.3677       9.8538
   2491.5000      59.4967       2.3263       0.2401       6.1931       9.7343
   2491.6500      60.3789       2.3289       0.2339       5.7779       9.6821
   2491.8000      58.9060       2.3399       0.2244       5.4243       9.7854
   2491.9500      61.3782       2.3352       0.2227       5.3463       9.8656
   2492.1000      60.7172       2.3290       0.2245       5.1216       9.7624
   2492.2500      58.3160       2.3375       0.2294       5.8556       9.7585
   2492.4000      58.2156       2.3296       0.2255       6.2358       9.7785
   2492.5500      58.4288       2.3279       0.2287       5.9634       9.7913
   2492.7000      55.6043       2.3349       0.2296       6.2131       9.7385
   2492.8500      54.1985       2.3549       0.2299       6.7190       9.7366
   2493.0000      55.8810       2.3633       0.2263       6.7959       9.7356
   2493.1500      57.6164       2.3749       0.2208       7.3773       9.6639
   2493.3000      55.2043       2.3796       0.2244       7.3324       9.6400
   2493.4500      57.3623       2.3885       0.2244       8.2844       9.5047
   2493.6000      56.1381       2.3865       0.2231       8.5412       9.5071
   2493.7500      61.0171       2.3787       0.2165       7.6130       9.6950
   2493.9000      60.9823       2.3852       0.2162       7.2699       9.6480
   2494.0500      64.9390       2.3903       0.2194       7.9352       9.6285
   2494.2000      65.1667       2.4079       0.2183       7.7456       9.5755
   2494.3500      65.5997       2.4099       0.2194       7.9631       9.5161
   2494.5000      64.1666       2.4169       0.2260       7.7298       9.5678
   2494.6500      62.7893       2.4185       0.2276       8.4194       9.5654
   2494.8000      63.0124       2.4146       0.2326       8.1813       9.5773
   2494.9500      59.9806       2.4202       0.2313       8.6832       9.5867
   2495.1000      61.2084       2.4187       0.2394       7.8830       9.7126
