~VERSION -------------------------------------------
 VERS.                 2.0 : CWLS LOG ASCII STANDARD - VERSION 2.0
 WRAP.                  NO : ONE LINE PER DEPTH STEP
~WELL -----------------------------------------------
 WELL.                CAMPOS-2 : Well name
 UWI .                BR-CAM-002        : Unique Well ID
 LAT .                -22.3456        : Latitude
 LON .                -40.1234        : Longitude
 STRT.M               1800.00 : START DEPTH
 STOP.M               3499.95 : STOP DEPTH
 STEP.M               0.1500 : STEP
 NULL.                -9999 : NULL VALUE
~CURVE -----------------------------------------------
 DEPTH .M               : Depth
 GR    .GAPI            : Gamma Ray
 RHOB  .G/C3            : Bulk Density
 NPHI  .V/V             : Neutron Porosity
 RT    .OHMM            : Resistivity
 CALI  .IN              : Caliper
~A  DEPTH              GR        RHOB        NPHI          RT        CALI
# ...
   3036.0000      62.5823       2.3841       0.2620       6.9759       9.6305
   3036.1500      63.2472       2.3974       0.2617       7.2739       9.6655
   3036.3000      59.1266       2.4002       0.2670       7.5748       9.7703
   3036.4500      58.0984       2.4092       0.2671       7.4935       9.8640
   3036.6000      57.9085       2.4102       0.2725       7.8581       9.8949
   3036.7500      56.6667       2.4203       0.2641       7.7260       9.8897
   3036.9000      56.2117       2.4284       0.2704       8.4380       9.8049
   3037.0500      54.0444       2.4484       0.2703       7.6490       9.6459
   3037.2000      54.9831       2.4361       0.2657       8.6602       9.6165
   3037.3500      50.1622       2.4305       0.2585       8.7281       9.6140
   3037.5000      49.1424       2.4263       0.2512       8.6181       9.5998
   3037.6500      50.3797       2.4377       0.2462       8.2725       9.5562
   3037.8000      50.7797       2.4225       0.2403       8.8965       9.5490
   3037.9500      49.4032       2.4336       0.2355       9.1888       9.4269
   3038.1000      47.7512       2.4281       0.2263       9.3166       9.4187
   3038.2500      47.9556       2.4177       0.2369      10.1484       9.3463
   3038.4000      47.9011       2.4025       0.2350       9.2586       9.3339
   3038.5500      48.4120       2.4163       0.2369       8.9713       9.3913
   3038.7000      51.1283       2.3983       0.2377       8.5153       9.4408
   3038.8500      51.7437       2.3914       0.2353       9.4023       9.3967
   3039.0000      51.1019       2.3892       0.2378       9.5076       9.3645
   3039.1500      50.4974       2.3696       0.2340       9.5289       9.3150
   3039.3000      53.0040       2.3604       0.2243       9.8324       9.3729
   3039.4500      51.6808       2.3552       0.2256      10.4602       9.3796
   3039.6000      52.2893       2.3674       0.2242      11.0112       9.4230
   3039.7500      53.4078       2.3635       0.2217      12.0722       9.5676
   3039.9000      57.7174       2.3655       0.2211      11.2759       9.5748
   3040.0500      59.3303       2.3715       0.2196      11.1138       9.6174
   3040.2000      57.4748       2.3668       0.2228      10.6730       9.7302
   3040.3500      59.0661       2.3562       0.2232      11.3798       9.7056
   3040.5000      57.0357       2.3452       0.2252      11.2132       9.6702
   3040.6500      54.7564       2.3331       0.2192      11.9249       9.8105
   3040.8000      52.8715       2.3427       0.2263      11.2260       9.7744
   3040.9500      55.5479       2.3419       0.2324      11.3772       9.8525
   3041.1000      56.0471       2.3452       0.2354      11.0380       9.7119
   3041.2500      54.2215       2.3459       0.2307      10.3687       9.6350
   3041.4000      53.0546       2.3483       0.2354      11.8354       9.6755
   3041.5500      52.9740       2.3530       0.2382      11.8014       9.6066
   3041.7000      52.8400       2.3827       0.2354      11.2265       9.5175
   3041.8500      53.8351       2.3829       0.2363      11.1045       9.5175
   3042.0000      54.9144       2.3841       0.2276      10.4934       9.6296
   3042.1500      54.2871       2.3991       0.2334      10.5878       9.5966
   3042.3000      54.6434       2.4063       0.2407      10.0592       9.4902
   3042.4500      53.1094       2.4131       0.2318       8.9483       9.4643
   3042.6000      52.5148       2.3847       0.2310       7.9758       9.4957
   3042.7500      52.7565       2.3782       0.2386       7.6420       9.5089
   3042.9000      49.8793       2.3780       0.2404       8.2592       9.4875
   3043.0500      49.0670       2.3751       0.2406       8.0908       9.5049
   3043.2000      50.6238       2.3781       0.2375       8.0448       9.5434
   3043.3500      53.4490       2.4130       0.2348       7.8600       9.7092
   3043.5000      58.8239       2.4251       0.2313       7.5433       9.5401
   3043.6500      61.3506       2.4353       0.2293       7.1287       9.5293
   3043.8000      63.1427       2.4377       0.2195       7.9868       9.6313
   3043.9500      61.6365       2.4209       0.2166       7.7333       9.5512
   3044.1000      65.8137       2.4258       0.2175       7.9017       9.6072
   3044.2500      64.0254       2.4480       0.2171       7.4113       9.5577
   3044.4000      65.3641       2.4455       0.2191       7.2219       9.5692
   3044.5500      65.9108       2.4277       0.2220       6.6743       9.5787
   3044.7000      63.5772       2.3995       0.2204       6.9305       9.4804
   3044.8500      63.6677       2.3873       0.2218       6.4495       9.3609
   3045.0000      61.3491       2.3922       0.2274       6.3114       9.4101
   3045.1500      66.4701       2.3973       0.2211       6.2069       9.2617
   3045.3000      66.3495       2.3931       0.2213       6.8216       9.3152
   3045.4500      69.0825       2.3994       0.2276       6.7431       9.3655
   3045.6000      68.5471       2.3978       0.2282       7.1785       9.3561
   3045.7500      67.1209       2.4054       0.2166       6.8672       9.4183
   3045.9000      67.4833       2.4001       0.2132       6.7316       9.5058
   3046.0500      67.0269       2.3905       0.2115       6.5235       9.5049
   3046.2000      66.5059       2.3870       0.2092       6.2579       9.5946
   3046.3500      65.7446       2.3651       0.2176       6.5519       9.6565
   3046.5000      63.9856       2.3798       0.2248       6.8885       9.7113
   3046.6500      61.1691       2.3771       0.2339       6.9470       9.7540
   3046.8000      60.9344       2.3730       0.2426       6.5661       9.6639
   3046.9500      60.1908       2.3705       0.2428       7.1258       9.7266
   3047.1000      57.3709       2.3466       0.2485       6.6836       9.7299
   3047.2500      57.7783       2.3268       0.2425       6.7844       9.6451
   3047.4000      55.9297       2.3259       0.2423       6.1546       9.5498
   3047.5500      55.1142       2.3263       0.2410       5.9443       9.5242
   3047.7000      56.2758       2.3451       0.2311       6.0601       9.5157
   3047.8500      58.7307       2.3505       0.2327       6.1484       9.4173
   3048.0000      60.3886       2.3517       0.2330       6.1843       9.4391
   3048.1500      56.7332       2.3471       0.2318       6.3265       9.4989
   3048.3000      57.6905       2.3704       0.2387       5.7537       9.5454
   3048.4500      59.7169       2.3646       0.2437       5.5198       9.4511
   3048.6000      59.7369       2.3817       0.2388       5.2563       9.4421
   3048.7500      59.5229       2.3637       0.2508       5.0622       9.5111
   3048.9000      60.2688       2.3608       0.2532       5.2212       9.4574
   3049.0500      61.9177       2.3560       0.2532       5.3953       9.4242
   3049.2000      63.5189       2.3727       0.2526       5.5702       9.3864
   3049.3500      62.1679       2.3714       0.2469       4.9811       9.4818
   3049.5000      61.6269       2.3731       0.2479       4.7782       9.4849
   3049.6500      62.4153       2.3848       0.2440       4.5468       9.4534
   3049.8000      62.2818       2.3730       0.2374       4.2134       9.3163
   3049.9500      63.2671       2.3843       0.2292       3.9343       9.3360
   3050.1000      63.0682       2.3990       0.2223       4.2647       9.3733
   3050.2500      64.8870       2.4067       0.2293       4.4422       9.3037
   3050.4000      69.2003       2.4182       0.2344       4.8320       9.3769
   3050.5500      68.0967       2.4174       0.2314       5.3169       9.3843
   3050.7000      68.2828       2.4006       0.2401       5.4384       9.3735
   3050.8500      62.6489       2.4143       0.2367       5.4877       9.3845
   3051.0000      61.2920       2.3924       0.2360       5.4095       9.4430
   3051.1500      62.3863       2.3981       0.2442       5.2983       9.4162
   3051.3000      61.3485       2.3768       0.2305       5.0451       9.5405
