~VERSION -------------------------------------------
 VERS.                 2.0 : CWLS LOG ASCII STANDARD - VERSION 2.0
 WRAP.                  NO : ONE LINE PER DEPTH STEP
~WELL -----------------------------------------------
 WELL.                CAMPOS-2 : Well name
 UWI .                BR-CAM-002        : Unique Well ID
 LAT .                -22.3456        : Latitude
 LON .                -40.1234        : Longitude
 STRT.M               1800.00 : START DEPTH
 STOP.M               3499.95 : STOP DEPTH
 STEP.M               0.1500 : STEP
 NULL.                -9999 : NULL VALUE
~CURVE -----------------------------------------------
 DEPTH .M               : Depth
 GR    .GAPI            : Gamma Ray
 RHOB  .G/C3            : Bulk Density
 NPHI  .V/V             : Neutron Porosity
 RT    .OHMM            : Resistivity
 CALI  .IN              : Caliper
~A  DEPTH              GR        RHOB        NPHI          RT        CALI
# ...
   3252.3000      62.2667       2.3793       0.2302       6.4456       9.4109
   3252.4500      62.9096       2.3688       0.2250       6.2872       9.4855
   3252.6000      65.8748       2.3667       0.2310       6.6074       9.4632
   3252.7500      67.3149       2.3484       0.2265       6.5911       9.4294
   3252.9000      68.9017       2.3442       0.2217       6.6178       9.4739
   3253.0500      68.9105       2.3695       0.2186       6.4612       9.5627
   3253.2000      68.9343       2.3563       0.2184       5.9281       9.5536
   3253.3500      66.9095       2.3377       0.2174       5.5651       9.4417
   3253.5000      66.5562       2.3254       0.2152       5.9172       9.3945
   3253.6500      61.8616       2.3334       0.2083       5.7523       9.3207
   3253.8000      62.5430       2.3453       0.2062       6.1685       9.3835
   3253.9500      62.8463       2.3421       0.2046       7.0075       9.3866
   3254.1000      59.1449       2.3556       0.1965       6.3580       9.3743
   3254.2500      58.8753       2.3664       0.2049       6.4980       9.4857
   3254.4000      56.8924       2.3823       0.2114       6.2606       9.5137
   3254.5500      58.6662       2.3983       0.2183       6.3543       9.4031
   3254.7000      59.4592       2.4098       0.2190       5.4178       9.4562
   3254.8500      62.1752       2.4031       0.2218       5.7314       9.5057
   3255.0000      60.2532       2.3934       0.2360       6.0828       9.5096
   3255.1500      56.2741       2.3991       0.2295       5.8134       9.5669
   3255.3000      55.3557       2.4029       0.2230       6.8029       9.4284
   3255.4500      53.1756       2.4058       0.2261       6.8846       9.3176
   3255.6000      51.3478       2.4063       0.2213       6.1971       9.3008
   3255.7500      52.4551       2.4228       0.2220       6.0837       9.2143
   3255.9000      50.5256       2.4231       0.2290       6.1677       9.2556
   3256.0500      49.9679       2.4118       0.2405       6.2460       9.2545
   3256.2000      49.6920       2.4205       0.2380       6.9540       9.1997
   3256.3500      49.0844       2.4169       0.2351       6.5521       9.2227
   3256.5000      50.1924       2.4251       0.2369       6.2668       9.1748
   3256.6500      50.7328       2.4178       0.2351       6.1982       9.1836
   3256.8000      49.2609       2.4205       0.2403       5.9927       9.2073
   3256.9500      49.5873       2.4161       0.2406       6.0148       9.2511
   3257.1000      50.5173       2.3966       0.2471       6.5241       9.3051
   3257.2500      53.4478       2.3789       0.2452       7.2215       9.4249
   3257.4000      53.5535       2.3530       0.2441       6.7963       9.5071
   3257.5500      52.3737       2.3403       0.2424       6.2290       9.5787
   3257.7000      53.7139       2.3473       0.2494       6.4198       9.5009
   3257.8500      53.2767       2.3339       0.2469       6.4637       9.4599
   3258.0000      52.1810       2.3354       0.2386       6.0986       9.4803
   3258.1500      54.4994       2.3384       0.2427       6.5141       9.4831
   3258.3000      55.5920       2.3431       0.2494       5.6785       9.5340
   3258.4500      56.7081       2.3518       0.2493       5.3785       9.6226
   3258.6000      58.8932       2.3576       0.2527       5.6121       9.5787
   3258.7500      58.6575       2.3761       0.2496       5.5168       9.5361
   3258.9000      57.6280       2.3653       0.2462       5.0949       9.4015
   3259.0500      58.7473       2.3659       0.2513       5.3889       9.4072
   3259.2000      59.8382       2.3501       0.2594       5.7046       9.4942
   3259.3500      61.1435       2.3706       0.2598       6.9242       9.4896
   3259.5000      57.9369       2.3734       0.2653       7.0366       9.4723
   3259.6500      57.7816       2.3623       0.2711       6.9216       9.4826
   3259.8000      59.7526       2.3566       0.2613       7.0949       9.5220
   3259.9500      57.4997       2.3630       0.2624       6.9974       9.3993
   3260.1000      56.4537       2.3709       0.2588       6.7773       9.5286
   3260.2500      54.1660       2.3906       0.2571       6.7467       9.3879
   3260.4000      52.6254       2.3954       0.2574       6.9214       9.4985
   3260.5500      53.7007       2.3932       0.2565       7.0838       9.3875
   3260.7000      52.0051       2.3641       0.2369       7.4301       9.4003
   3260.8500      50.7057       2.3732       0.2305       6.7708       9.4769
   3261.0000      50.4191       2.3645       0.2390       6.9407       9.5591
   3261.1500      48.9220       2.3519       0.2397       6.7541       9.5046
   3261.3000      49.6721       2.3486       0.2385       7.1481       9.4615
   3261.4500      48.8866       2.3331       0.2372       7.7324       9.5157
   3261.6000      47.8995       2.3280       0.2358       8.2129       9.3345
   3261.7500      48.6557       2.3152       0.2330       8.9186       9.3562
   3261.9000      52.1881       2.3317       0.2387       9.2973       9.3373
   3262.0500      50.9364       2.3372       0.2400       9.2499       9.4151
   3262.2000      49.6752       2.3492       0.2356       8.4254       9.3819
   3262.3500      50.3740       2.3431       0.2365       7.5022       9.2924
   3262.5000      52.4444       2.3451       0.2263       7.3730       9.2717
   3262.6500      53.4447       2.3532       0.2175       7.3552       9.4116
   3262.8000      52.6380       2.3553       0.2311       7.1288       9.4637
   3262.9500      55.3635       2.3486       0.2264       6.6042       9.4670
   3263.1000      56.1473       2.3567       0.2269       6.4843       9.5317
   3263.2500      53.1249       2.3578       0.2223       6.0971       9.6427
   3263.4000      58.4801       2.3580       0.2236       5.7435       9.5466
   3263.5500      58.3978       2.3496       0.2272       5.5565       9.5769
   3263.7000      59.9620       2.3632       0.2374       5.5621       9.7113
   3263.8500      58.8553       2.3588       0.2420       5.8782       9.6565
   3264.0000      60.4738       2.3679       0.2403       5.8407       9.5745
   3264.1500      58.7768       2.3934       0.2392       6.2812       9.4789
   3264.3000      57.9396       2.3778       0.2376       6.4864       9.3771
   3264.4500      57.5306       2.3829       0.2348       6.6270       9.3938
   3264.6000      55.1652       2.3981       0.2341       6.0577       9.3374
   3264.7500      54.3759       2.3778       0.2326       5.9269       9.3658
   3264.9000      53.2665       2.3826       0.2335       5.9464       9.3659
   3265.0500      52.6184       2.3794       0.2210       5.3707       9.3057
   3265.2000      56.4556       2.3680       0.2253       5.4344       9.2525
   3265.3500      54.6075       2.3806       0.2225       5.3827       9.3609
   3265.5000      56.1343       2.3784       0.2213       5.1916       9.4000
   3265.6500      57.4387       2.3808       0.2297       5.3444       9.4354
   3265.8000      57.0310       2.3738       0.2200       5.2928       9.4658
   3265.9500      57.1651       2.3722       0.2142       5.7282       9.4284
   3266.1000      61.4083       2.3534       0.2148       5.4666       9.4527
   3266.2500      61.6903       2.3427       0.2239       5.3198       9.4137
   3266.4000      59.0400       2.3583       0.2198       5.3227       9.5644
   3266.5500      56.2643       2.3708       0.2133       5.8222       9.5577
   3266.7000      57.4737       2.3750       0.2155       6.0204       9.4842
   3266.8500      58.6900       2.3743       0.2174       6.1796       9.4965
   3267.0000      62.7108       2.3722       0.2110       6.1065       9.5720
   3267.1500      65.9865       2.3611       0.2148       5.5896       9.5055
   3267.3000      66.9650       2.3748       0.2142       5.4976       9.5504
   3267.4500      69.3709       2.3812       0.2199       5.1615       9.5256
   3267.6000      73.1415       2.3720       0.2279       5.4023       9.5139
