~VERSION -------------------------------------------
 VERS.                 2.0 : CWLS LOG ASCII STANDARD - VERSION 2.0
 WRAP.                  NO : ONE LINE PER DEPTH STEP
~WELL -----------------------------------------------
 WELL.                CAMPOS-2 : Well name
 UWI .                BR-CAM-002        : Unique Well ID
 LAT .                -22.3456        : Latitude
 LON .                -40.1234        : Longitude
 STRT.M               1800.00 : START DEPTH
 STOP.M               3499.95 : STOP DEPTH
 STEP.M               0.1500 : STEP
 NULL.                -9999 : NULL VALUE
~CURVE -----------------------------------------------
 DEPTH .M               : Depth
 GR    .GAPI            : Gamma Ray
 RHOB  .G/C3            : Bulk Density
 NPHI  .V/V             : Neutron Porosity
 RT    .OHMM            : Resistivity
 CALI  .IN              : Caliper
~A  DEPTH              GR        RHOB        NPHI          RT        CALI
# ...
   2804.2500      61.7190       2.3446       0.2255       6.3709       9.2749
   2804.4000      57.0107       2.3627       0.2295       6.0069       9.4873
   2804.5500      58.1004       2.3695       0.2286       5.7696       9.4009
   2804.7000      58.0495       2.3672       0.2231       5.4246       9.3806
   2804.8500      60.7686       2.3818       0.2218       5.6677       9.4189
   2805.0000      59.6691       2.3871       0.2223       5.7287       9.3333
   2805.1500      61.5116       2.3919       0.2289       5.9341       9.3352
   2805.3000      64.2810       2.4037       0.2227       5.5171       9.3225
   2805.4500      61.7885       2.4150       0.2197       5.4289       9.4247
   2805.6000      62.1705       2.4300       0.2242       5.3642       9.4330
   2805.7500      61.3435       2.4256       0.2287       5.2012       9.4311
   2805.9000      61.3758       2.4383       0.2372       5.4330       9.2984
   2806.0500      60.8747       2.4347       0.2416       5.5753       9.2984
   2806.2000      61.0011       2.4427       0.2364       5.4113       9.3065
   2806.3500      58.8732       2.4579       0.2433       5.6395       9.3568
   2806.5000      55.8200       2.4593       0.2441       5.4652       9.4327
   2806.6500      56.7160       2.4481       0.2375       4.9502       9.5497
   2806.8000      55.8984       2.4475       0.2473       4.9725       9.5098
   2806.9500      55.6266       2.4410       0.2515       5.2133       9.6052
   2807.1000      56.0870       2.4187       0.2567       5.7575       9.5553
   2807.2500      56.7418       2.4503       0.2582       5.2201       9.5757
   2807.4000      61.5216       2.4457       0.2585       5.2328       9.5965
   2807.5500      60.7883       2.4464       0.2584       5.3316       9.6959
   2807.7000      58.7460       2.4386       0.2659       5.9697       9.7263
   2807.8500      57.7041       2.4389       0.2649       5.6148       9.6971
   2808.0000      57.1529       2.4443       0.2714       5.4068       9.7015
   2808.1500      56.6722       2.4362       0.2694       5.4940       9.6874
   2808.3000      54.7040       2.4345       0.2609       5.5946       9.5835
   2808.4500      56.9807       2.4198       0.2664       5.0304       9.3894
   2808.6000      56.8947       2.3949       0.2564       5.1773       9.4577
   2808.7500      57.2842       2.3985       0.2571       5.2516       9.5027
   2808.9000      59.4661       2.3893       0.2570       5.3524       9.4501
   2809.0500      61.4129       2.3806       0.2483       5.3413       9.4433
   2809.2000      59.5048       2.3701       0.2476       5.4711       9.4052
   2809.3500      62.2614       2.3543       0.2391       5.5532       9.3227
   2809.5000      63.8488       2.3467       0.2330       5.4747       9.3451
   2809.6500      61.8527       2.3562       0.2462       6.3619       9.2430
   2809.8000      62.5405       2.3420       0.2376       6.1437       9.3594
   2809.9500      60.8681       2.3511       0.2296       6.1667       9.4518
   2810.1000      60.3044       2.3608       0.2322       6.0304       9.6078
   2810.2500      59.3387       2.3375       0.2285       6.9190       9.6264
   2810.4000      56.1833       2.3462       0.2253       6.4284       9.7326
   2810.5500      59.0205       2.3418       0.2250       6.9791       9.8517
   2810.7000      59.9155       2.3526       0.2209       5.8244       9.8974
   2810.8500      59.9636       2.3515       0.2221       5.8881      10.0761
   2811.0000      62.1334       2.3522       0.2200       6.0575      10.0748
   2811.1500      62.4580       2.3457       0.2151       6.6202      10.0952
   2811.3000      62.7799       2.3458       0.2211       7.1753      10.1405
   2811.4500      62.2418       2.3429       0.2246       7.6922      10.1079
   2811.6000      61.4531       2.3695       0.2291       8.1962       9.9214
   2811.7500      58.8678       2.3756       0.2326       7.3138       9.7972
   2811.9000      58.6372       2.3745       0.2241       7.2773       9.8601
   2812.0500      58.8692       2.3703       0.2234       6.9506       9.8271
   2812.2000      63.3027       2.3638       0.2221       6.6166       9.7617
   2812.3500      63.3304       2.3759       0.2263       6.7787       9.5848
   2812.5000      61.7487       2.3840       0.2214       6.2449       9.6572
   2812.6500      62.5181       2.3929       0.2079       6.0935       9.5488
   2812.8000      59.5703       2.3954       0.2122       6.4964       9.6043
   2812.9500      59.2480       2.3952       0.2145       6.9470       9.6389
   2813.1000      57.7935       2.3943       0.2062       7.0721       9.6165
   2813.2500      61.5016       2.4069       0.2092       6.1370       9.6593
   2813.4000      63.0356       2.3865       0.2009       6.8251       9.5385
   2813.5500      59.6241       2.4035       0.1934       6.3584       9.5166
   2813.7000      59.8823       2.3966       0.1992       6.8769       9.5427
   2813.8500      60.9655       2.4041       0.2073       7.0716       9.6444
   2814.0000      61.8332       2.4078       0.2071       7.5555       9.6175
   2814.1500      61.6804       2.4122       0.2166       7.2985       9.6688
   2814.3000      61.7901       2.4162       0.2144       7.3697       9.5769
   2814.4500      61.4509       2.4171       0.2173       7.6091       9.5417
   2814.6000      62.9935       2.4123       0.2148       7.3886       9.6293
   2814.7500      64.6877       2.4157       0.2048       7.9691       9.5864
   2814.9000      61.2922       2.4114       0.2190       8.7787       9.6694
   2815.0500      62.0455       2.4293       0.2224       9.2022       9.5910
   2815.2000      57.4069       2.4348       0.2296       9.4447       9.6700
   2815.3500      56.4961       2.4283       0.2341       9.8238       9.5562
   2815.5000      58.4376       2.4084       0.2427      12.0021       9.4180
   2815.6500      58.7065       2.3821       0.2437      10.8804       9.4176
   2815.8000      59.2857       2.3902       0.2416      11.8210       9.2948
   2815.9500      58.4596       2.3646       0.2480      11.6544       9.2233
   2816.1000      60.4045       2.3717       0.2552      10.6393       9.1927
   2816.2500      58.4633       2.3739       0.2548      12.0707       9.2971
   2816.4000      56.7150       2.3707       0.2614      11.4683       9.1178
   2816.5500      54.6108       2.3593       0.2641      11.7456       9.0551
   2816.7000      55.8378       2.3635       0.2606      11.2701       9.1330
   2816.8500      57.5057       2.3639       0.2539      12.2765       9.1759
   2817.0000      53.9051       2.3682       0.2559      10.8827       9.2652
   2817.1500      53.3740       2.3766       0.2436       9.3662       9.2935
   2817.3000      51.8013       2.3705       0.2420       8.7263       9.3103
   2817.4500      52.8136       2.3731       0.2397       8.5826       9.3977
   2817.6000      53.0894       2.3729       0.2415       8.8919       9.4043
   2817.7500      53.2690       2.3662       0.2474       8.3832       9.3299
   2817.9000      56.7323       2.3824       0.2447       7.2286       9.4066
   2818.0500      53.1806       2.3691       0.2433       7.3766       9.5905
   2818.2000      55.7727       2.3931       0.2430       6.9463       9.4407
   2818.3500      56.5814       2.3884       0.2359       6.1948       9.4951
   2818.5000      52.4175       2.4100       0.2384       5.6511       9.4789
   2818.6500      53.7096       2.4287       0.2516       6.0391       9.4998
   2818.8000      55.0106       2.4371       0.2476       5.8518       9.5382
   2818.9500      54.0292       2.4435       0.2434       5.2678       9.7081
   2819.1000      53.1847       2.4378       0.2398       6.0341       9.6880
   2819.2500      52.4599       2.4376       0.2432       5.9940       9.8313
   2819.4000      52.7861       2.4546       0.2406       6.3661       9.7816
   2819.5500      54.8835       2.4517       0.2443       6.2514       9.7017
