~VERSION -------------------------------------------
 VERS.                 2.0 : CWLS LOG ASCII STANDARD - VERSION 2.0
 WRAP.                  NO : ONE LINE PER DEPTH STEP
~WELL -----------------------------------------------
 WELL.                CAMPOS-2 : Well name
 UWI .                BR-CAM-002        : Unique Well ID
 LAT .                -22.3456        : Latitude
 LON .                -40.1234        : Longitude
 STRT.M               1800.00 : START DEPTH
 STOP.M               3499.95 : STOP DEPTH
 STEP.M               0.1500 : STEP
 NULL.                -9999 : NULL VALUE
~CURVE -----------------------------------------------
 DEPTH .M               : Depth
 GR    .GAPI            : Gamma Ray
 RHOB  .G/C3            : Bulk Density
 NPHI  .V/V             : Neutron Porosity
 RT    .OHMM            : Resistivity
 CALI  .IN              : Caliper
~A  DEPTH              GR        RHOB        NPHI          RT        CALI
# ...
   3375.9000      66.3125       2.3783       0.2530       7.2361       9.2082
   3376.0500      67.9376       2.3720       0.2501       7.6683       9.1462
   3376.2000      67.0928       2.3620       0.2458       7.5558       9.1636
   3376.3500      63.8100       2.3599       0.2443       8.3166       9.1895
   3376.5000      62.8645       2.3685       0.2474       8.0195       9.3362
   3376.6500      62.5005       2.3739       0.2546       8.1150       9.4278
   3376.8000      61.3211       2.3773       0.2548       7.9538       9.5827
   3376.9500      61.0001       2.3742       0.2680       7.7636       9.5617
   3377.1000      63.7852       2.3782       0.2670       8.1668       9.5863
   3377.2500      65.3402       2.3545       0.2648       8.1067       9.6446
   3377.4000      65.5589       2.3604       0.2616       7.9573       9.6683
   3377.5500      67.1612       2.3694       0.2542       8.2021       9.7188
   3377.7000      65.0842       2.3664       0.2494       8.1375       9.6237
   3377.8500      65.3381       2.3690       0.2443       7.7956       9.6326
   3378.0000      66.7205       2.3609       0.2501       9.3089       9.5653
   3378.1500      65.7520       2.3641       0.2361       9.6768       9.4715
   3378.3000      63.6072       2.3613       0.2436      10.3062       9.3953
   3378.4500      62.0373       2.3668       0.2396       9.1816       9.4170
   3378.6000      64.5254       2.3665       0.2335       9.2722       9.4243
   3378.7500      63.2267       2.3537       0.2353       8.8949       9.4196
   3378.9000      63.1929       2.3539       0.2259       9.0113       9.3625
   3379.0500      60.3093       2.3527       0.2234       8.8070       9.4782
   3379.2000      61.4632       2.3685       0.2293       9.0265       9.5241
   3379.3500      61.2320       2.3798       0.2261       8.8874       9.4947
   3379.5000      61.3881       2.3617       0.2232       8.2679       9.4867
   3379.6500      60.6716       2.3530       0.2170       7.3330       9.5776
   3379.8000      60.7967       2.3465       0.2128       7.0960       9.4943
   3379.9500      61.1157       2.3496       0.2095       7.5036       9.4306
   3380.1000      58.4441       2.3519       0.2142       7.6471       9.3768
   3380.2500      55.5782       2.3656       0.2150       8.8274       9.4624
   3380.4000      54.2699       2.3548       0.2228       8.6600       9.3927
   3380.5500      51.4380       2.3473       0.2279       7.9711       9.2072
   3380.7000      53.0364       2.3410       0.2380       8.5903       9.1680
   3380.8500      54.1693       2.3559       0.2339       8.2246       9.1752
   3381.0000      51.3759       2.3611       0.2293       7.2391       9.2164
   3381.1500      52.9214       2.3577       0.2399       6.5054       9.1344
   3381.3000      54.9263       2.3523       0.2437       6.2633       9.1454
   3381.4500      57.7442       2.3509       0.2509       7.0530       9.2012
   3381.6000      55.2280       2.3661       0.2458       7.1490       9.1833
   3381.7500      54.1248       2.3784       0.2394       6.7006       9.0403
   3381.9000      53.3655       2.3857       0.2388       6.2457       9.1052
   3382.0500      53.2427       2.3835       0.2391       5.9999       9.1052
   3382.2000      57.0727       2.3677       0.2375       6.1944       9.1714
   3382.3500      57.0159       2.3430       0.2459       5.8237       9.1623
   3382.5000      60.2143       2.3598       0.2533       5.7854       9.0311
   3382.6500      61.4902       2.3643       0.2454       6.4035       9.0332
   3382.8000      64.2357       2.3641       0.2533       6.8623       9.0759
   3382.9500      66.6442       2.3731       0.2400       7.3379       8.9805
   3383.1000      67.5724       2.3662       0.2459       7.6973       8.9385
   3383.2500      67.5037       2.3729       0.2368       6.8168       9.0088
   3383.4000      70.0029       2.3759       0.2271       6.5735       8.9900
   3383.5500      71.6141       2.3925       0.2376       6.9949       9.1109
   3383.7000      70.9239       2.3995       0.2309       6.5973       9.0634
   3383.8500      69.8352       2.3792       0.2346       7.2950       9.0643
   3384.0000      69.7740       2.3714       0.2284       7.8333       9.0816
   3384.1500      68.8807       2.3781       0.2232       8.1339       9.1759
   3384.3000      67.6953       2.3827       0.2205       8.5343       9.1833
   3384.4500      68.9548       2.3768       0.2122       7.8638       9.1526
   3384.6000      70.5625       2.3805       0.2190       7.8948       9.2147
   3384.7500      72.8053       2.3603       0.2169       7.5672       9.1424
   3384.9000      71.1148       2.3617       0.2227       8.3830       9.2059
   3385.0500      72.4896       2.3738       0.2254       7.6462       9.2357
   3385.2000      68.9674       2.3896       0.2257       7.7044       9.2930
   3385.3500      71.4823       2.3995       0.2243       7.8968       9.3430
   3385.5000      68.3844       2.3891       0.2250       8.3126       9.3695
   3385.6500      67.0773       2.3973       0.2229       8.2479       9.2940
   3385.8000      64.0492       2.4215       0.2236       7.3125       9.3146
   3385.9500      61.6470       2.4245       0.2229       6.3117       9.4096
   3386.1000      62.1215       2.4312       0.2185       5.7655       9.3737
   3386.2500      64.4114       2.4459       0.2209       5.5005       9.3545
   3386.4000      64.6265       2.4369       0.2207       5.4829       9.2605
   3386.5500      65.8204       2.4438       0.2125       5.6270       9.2325
   3386.7000      64.9806       2.4402       0.2124       6.0596       9.2270
   3386.8500      62.3125       2.4541       0.2135       5.6278       9.2090
   3387.0000      63.6392       2.4413       0.2133       5.1247       9.1931
   3387.1500      63.1022       2.4477       0.2131       4.8219       9.2191
   3387.3000      62.8402       2.4434       0.2131       4.5952       9.2373
   3387.4500      57.8073       2.4452       0.2235       4.7259       9.1436
   3387.6000      55.9292       2.4373       0.2271       4.5567       9.1750
   3387.7500      52.6754       2.4410       0.2399       4.8170       9.2458
   3387.9000      55.5015       2.4479       0.2394       4.6180       9.3848
   3388.0500      55.5566       2.4399       0.2385       5.2439       9.3964
   3388.2000      55.5699       2.4290       0.2416       6.7291       9.5051
   3388.3500      52.5409       2.4505       0.2463       8.6113       9.4706
   3388.5000      52.6851       2.4527       0.2435       8.6501       9.4428
   3388.6500      53.2657       2.4399       0.2630       8.7087       9.4631
   3388.8000      54.5674       2.4182       0.2577       8.7151       9.3482
   3388.9500      52.7305       2.4031       0.2630       9.1974       9.4648
   3389.1000      49.3432       2.3845       0.2596       8.9972       9.4792
   3389.2500      47.8925       2.3493       0.2617       9.8152       9.4694
   3389.4000      45.7746       2.3645       0.2623      11.4186       9.3925
   3389.5500      44.9561       2.3353       0.2597      11.8180       9.3176
   3389.7000      43.3773       2.3499       0.2616      13.8368       9.1043
   3389.8500      46.6106       2.3280       0.2580      17.4984       9.1848
   3390.0000      50.3596       2.3334       0.2591      18.3609       9.3035
   3390.1500      49.0660       2.3155       0.2600      20.3307       9.2425
   3390.3000      47.3557       2.3229       0.2538      20.0286       9.3808
   3390.4500      47.9203       2.3398       0.2539      20.2334       9.3521
   3390.6000      48.5955       2.3345       0.2493      21.2939       9.4533
   3390.7500      48.5349       2.3450       0.2379      19.3200       9.5766
   3390.9000      47.2175       2.3412       0.2433      19.3498       9.5657
   3391.0500      44.5830       2.3579       0.2385      18.4687       9.6223
   3391.2000      44.2469       2.3633       0.2380      13.1675       9.7649
