~VERSION -------------------------------------------
 VERS.                 2.0 : CWLS LOG ASCII STANDARD - VERSION 2.0
 WRAP.                  NO : ONE LINE PER DEPTH STEP
~WELL -----------------------------------------------
 WELL.                SANTOS-1 : Well name
 UWI .                BR-SAN-001        : Unique Well ID
 LAT .                -24.1234        : Latitude
 LON .                -41.9876        : Longitude
 STRT.M               4500.00 : START DEPTH
 STOP.M               6499.95 : STOP DEPTH
 STEP.M               0.1500 : STEP
 NULL.                -9999 : NULL VALUE
~CURVE -----------------------------------------------
 DEPTH .M               : Depth
 GR    .GAPI            : Gamma Ray
 RHOB  .G/C3            : Bulk Density
 NPHI  .V/V             : Neutron Porosity
 RT    .OHMM            : Resistivity
 CALI  .IN              : Caliper
~A  DEPTH              GR        RHOB        NPHI          RT        CALI
# ...
   5164.3500      10.0953       2.1698       0.0027   14919.3657       8.3081
   5164.5000       4.6252       2.1760       0.0235   15353.1095       8.3302
   5164.6500       6.6047       2.1719       0.0193   13929.8985       8.3928
   5164.8000       8.0024       2.1547       0.0142   13759.6762       8.5452
   5164.9500       5.6291       2.1937       0.0000   13702.0578       8.5654
   5165.1000       6.7498       2.1524       0.0079   14451.1490       8.6725
   5165.2500       6.4684       2.1624       0.0000   14117.3774       8.6512
   5165.4000       8.9058       2.1867       0.0037   13522.6954       8.6430
   5165.5500       8.7337       2.1672       0.0018   14000.9984       8.5942
   5165.7000       8.1435       2.1624       0.0000   14187.3048       8.6043
   5165.8500       4.7512       2.1631       0.0098   14761.3659       8.7032
   5166.0000       5.9891       2.1322       0.0011   15075.8373       8.6094
   5166.1500       5.6884       2.1888       0.0053   14006.5199       8.6442
   5166.3000      12.4197       2.1450       0.0015   13618.0728       8.5658
   5166.4500       3.6871       2.1689       0.0231   14649.1074       8.5740
   5166.6000       4.6372       2.1233       0.0123   15183.7651       8.4800
   5166.7500       7.8494       2.1711       0.0150   14371.7500       8.6001
   5166.9000       4.8561       2.1432       0.0087   13400.6960       8.6140
   5167.0500       5.9987       2.1348       0.0097   14309.5377       8.6931
   5167.2000       5.7141       2.1493       0.0123   14709.1522       8.6830
   5167.3500       3.0000       2.1355       0.0252   15044.7889       8.5467
   5167.5000       7.9963       2.1657       0.0210   16027.1636       8.5753
   5167.6500       3.2699       2.1694       0.0110   17664.6511       8.5557
   5167.8000      14.1900       2.1661       0.0006   17883.1823       8.4816
   5167.9500       6.3557       2.1549       0.0168   16160.8525       8.3985
   5168.1000       6.8145       2.1852       0.0053   16597.7581       8.4163
   5168.2500       5.2522       2.1633       0.0056   15090.7256       8.2962
   5168.4000       8.0514       2.1911       0.0081   15754.3642       8.2971
   5168.5500       8.8250       2.1245       0.0115   16294.4074       8.2476
   5168.7000       3.0000       2.1727       0.0197   15208.5196       8.3237
   5168.8500       8.8571       2.1723       0.0001   15359.5204       8.3237
   5169.0000       8.8495       2.1522       0.0154   14158.4396       8.3126
   5169.1500       3.3853       2.1902       0.0070   14747.0015       8.2645
   5169.3000       9.1518       2.1670       0.0405   15445.3328       8.3577
   5169.4500       4.1134       2.1702       0.0087   15046.8479       8.3785
   5169.6000       6.3896       2.1753       0.0207   16032.7316       8.3738
   5169.7500       6.2490       2.2046       0.0274   17355.2657       8.3738
   5169.9000       3.9924       2.1595       0.0000   18612.8795       8.3871
   5170.0500       4.5206       2.1710       0.0098   18656.8523       8.4370
   5170.2000      14.4877       2.1913       0.0150   17969.1038       8.4016
   5170.3500       3.0000       2.1649       0.0011   17969.1038       8.4172
   5170.5000      10.5717       2.1890       0.0060   17042.1640       8.4168
   5170.6500       7.4466       2.1675       0.0071   16165.0662       8.4189
   5170.8000      12.6804       2.1747       0.0180   15915.5182       8.3995
   5170.9500      11.4080       2.1645       0.0263   17560.5556       8.4088
   5171.1000       4.1286       2.1614       0.0081   16863.3519       8.4671
   5171.2500       5.8359       2.1678       0.0004   18157.9666       8.5069
   5171.4000      10.6175       2.1514       0.0317   16440.8286       8.4338
   5171.5500       7.8853       2.1520       0.0157   16440.8286       8.4887
   5171.7000       4.9638       2.1648       0.0179   16549.6939       8.4611
   5171.8500       5.5528       2.1685       0.0000   16129.9738       8.4477
   5172.0000      14.4786       2.1804       0.0000   14811.4612       8.4585
   5172.1500       7.7919       2.1601       0.0064   15305.9670       8.5329
   5172.3000       7.8981       2.1974       0.0158   15728.6054       8.5525
   5172.4500       9.9925       2.1439       0.0103   16404.3173       8.5973
   5172.6000       4.0801       2.1507       0.0038   16404.3173       8.5603
   5172.7500      12.5844       2.1754       0.0000   15796.9305       8.5849
   5172.9000       3.0000       2.1936       0.0185   15796.9305       8.6475
   5173.0500      12.0509       2.1534       0.0152   16033.5431       8.5826
   5173.2000       9.5300       2.1980       0.0036   16647.2101       8.5984
   5173.3500      10.3945       2.1831       0.0092   15815.1627       8.6022
   5173.5000       6.2597       2.1778       0.0017   16675.3646       8.6595
   5173.6500       5.8978       2.1775       0.0015   17242.8333       8.5533
   5173.8000      12.8361       2.1769       0.0120   16250.6430       8.5075
   5173.9500      16.3015       2.1584       0.0303   14150.2756       8.4464
   5174.1000       8.5637       2.1582       0.0130   14000.7189       8.3849
   5174.2500      11.8783       2.1582       0.0158   14639.1106       8.3993
   5174.4000       8.8257       2.1588       0.0073   15099.5042       8.3978
   5174.5500       6.0977       2.1813       0.0077   13492.3519       8.4362
   5174.7000      13.5097       2.1926       0.0160   13883.7356       8.4359
   5174.8500       7.2420       2.1477       0.0124   14245.0061       8.5028
   5175.0000      10.0330       2.1502       0.0154   16829.0909       8.4264
   5175.1500       8.4890       2.1951       0.0000   13620.8426       8.4883
   5175.3000       9.5083       2.1667       0.0088   13620.8426       8.4406
   5175.4500       6.7208       2.1811       0.0099   13620.8426       8.4353
   5175.6000       8.7491       2.1598       0.0160   12251.6311       8.4960
   5175.7500       5.1818       2.2060       0.0137   12409.0525       8.4173
   5175.9000      13.3323       2.1701       0.0029   12409.0525       8.4624
   5176.0500       8.9868       2.1840       0.0213   12842.8584       8.4093
   5176.2000       7.8412       2.1864       0.0236   12842.8584       8.4053
   5176.3500       9.8172       2.1357       0.0043   12250.5902       8.3947
   5176.5000      10.0784       2.1344       0.0002   12250.5902       8.4659
   5176.6500       6.1109       2.1568       0.0031   12145.8430       8.5489
   5176.8000       4.4142       2.1691       0.0033   12539.6752       8.5489
   5176.9500       6.5702       2.1683       0.0099   13518.2504       8.5574
   5177.1000      10.5856       2.1885       0.0205   13431.7748       8.5973
   5177.2500       7.2159       2.1491       0.0091   13146.2589       8.6356
   5177.4000       4.5303       2.1475       0.0220   13323.8473       8.5973
   5177.5500       8.4816       2.1498       0.0266   14910.9281       8.5424
   5177.7000      13.0364       2.1907       0.0202   13349.9938       8.5883
   5177.8500       7.7905       2.1835       0.0198   13349.9938       8.5714
   5178.0000       3.0000       2.1425       0.0190   11813.1870       8.5429
   5178.1500       5.3918       2.1831       0.0107   13565.5432       8.4561
   5178.3000       6.3741       2.1573       0.0000   13565.5432       8.4561
   5178.4500       7.9855       2.1406       0.0215   13565.5432       8.4462
   5178.6000       9.5476       2.1675       0.0186   15081.5943       8.4534
   5178.7500      10.3109       2.1662       0.0000   15462.7950       8.4485
   5178.9000       7.6211       2.1838       0.0081   15363.2346       8.5271
   5179.0500       5.2034       2.1663       0.0099   14883.1674       8.6318
   5179.2000       3.0000       2.1911       0.0060   14240.8319       8.6151
   5179.3500       8.6314       2.1935       0.0196   15256.7088       8.6193
   5179.5000       3.0000       2.1572       0.0181   14967.5140       8.6096
   5179.6500      13.1134       2.1648       0.0172   14811.9335       8.5837
