~VERSION -------------------------------------------
 VERS.                 2.0 : CWLS LOG ASCII STANDARD - VERSION 2.0
 WRAP.                  NO : ONE LINE PER DEPTH STEP
~WELL -----------------------------------------------
 WELL.                SANTOS-1 : Well name
 UWI .                BR-SAN-001        : Unique Well ID
 LAT .                -24.1234        : Latitude
 LON .                -41.9876        : Longitude
 STRT.M               4500.00 : START DEPTH
 STOP.M               6499.95 : STOP DEPTH
 STEP.M               0.1500 : STEP
 NULL.                -9999 : NULL VALUE
~CURVE -----------------------------------------------
 DEPTH .M               : Depth
 GR    .GAPI            : Gamma Ray
 RHOB  .G/C3            : Bulk Density
 NPHI  .V/V             : Neutron Porosity
 RT    .OHMM            : Resistivity
 CALI  .IN              : Caliper
~A  DEPTH              GR        RHOB        NPHI          RT        CALI
# ...
   5813.2500      17.2082       2.3011       0.2123     892.0916       8.4535
   5813.4000      17.0035       2.3011       0.2142     903.0485       8.4888
   5813.5500      17.3559       2.3036       0.2129     812.9862       8.3821
   5813.7000      16.4970       2.2943       0.2224     710.2607       8.3816
   5813.8500      17.5628       2.2933       0.2292     646.4813       8.3959
   5814.0000      17.6471       2.3089       0.2274     691.6119       8.3113
   5814.1500      17.6780       2.2901       0.2227     727.1027       8.3580
   5814.3000      18.2324       2.3095       0.2183     720.1956       8.2928
   5814.4500      18.6215       2.3042       0.2087     748.9085       8.3090
   5814.6000      19.4824       2.3146       0.2094     687.7308       8.3181
   5814.7500      19.6498       2.3112       0.2214     600.1747       8.3813
   5814.9000      19.9632       2.3217       0.2232     564.1302       8.4089
   5815.0500      19.4937       2.3091       0.2268     625.8710       8.4426
   5815.2000      19.1070       2.3201       0.2242     721.5266       8.5274
   5815.3500      19.2781       2.3185       0.2237     666.0037       8.5511
   5815.5000      18.4697       2.3524       0.2182     632.4714       8.7001
   5815.6500      18.5900       2.3540       0.2190     647.6513       8.8457
   5815.8000      18.8020       2.3561       0.2155     645.6426       8.9211
   5815.9500      17.7988       2.3614       0.2198     586.5770       8.9109
   5816.1000      16.6379       2.3659       0.2177     478.5884       8.8430
   5816.2500      17.1859       2.3677       0.2213     490.7400       8.8742
   5816.4000      17.9285       2.3742       0.2170     539.3936       8.7801
   5816.5500      17.5761       2.4021       0.2147     519.8168       8.8080
   5816.7000      17.5761       2.4142       0.2055     531.0965       8.7161
   5816.8500      17.0219       2.4074       0.2084     508.1892       8.6773
   5817.0000      16.9482       2.3817       0.2195     451.3534       8.5656
   5817.1500      17.9572       2.3817       0.2213     379.4644       8.4109
   5817.3000      17.5531       2.3702       0.2293     423.2388       8.4476
   5817.4500      17.2093       2.3753       0.2385     372.1348       8.5027
   5817.6000      16.6790       2.3648       0.2275     371.7813       8.5729
   5817.7500      16.6091       2.3540       0.2224     426.7190       8.5479
   5817.9000      16.0488       2.3417       0.2202     469.0438       8.5224
   5818.0500      16.8940       2.3289       0.2172     393.6920       8.5419
   5818.2000      17.6925       2.3226       0.2127     384.5284       8.5480
   5818.3500      17.9409       2.3375       0.2119     487.5639       8.5270
   5818.5000      18.5393       2.3256       0.2135     550.7830       8.5054
   5818.6500      18.8833       2.3203       0.2073     569.2584       8.6053
   5818.8000      17.7768       2.3185       0.2096     482.7240       8.5538
   5818.9500      17.8324       2.2947       0.2157     478.4185       8.5462
   5819.1000      18.5839       2.2706       0.2195     524.8561       8.5768
   5819.2500      17.6054       2.2789       0.2100     479.0836       8.5295
   5819.4000      17.2053       2.2827       0.2184     370.9853       8.6496
   5819.5500      17.2053       2.2658       0.2216     436.6126       8.5943
   5819.7000      17.7129       2.2646       0.2209     419.3449       8.6310
   5819.8500      17.7915       2.2638       0.2172     406.3119       8.6380
   5820.0000      18.7734       2.2805       0.2158     473.2193       8.6360
   5820.1500      18.1712       2.2927       0.2184     573.5770       8.5416
   5820.3000      18.4345       2.2988       0.2104     559.0229       8.5798
   5820.4500      18.0836       2.2881       0.2052     637.9226       8.6704
   5820.6000      18.3879       2.2882       0.2037     605.7444       8.5503
   5820.7500      18.2110       2.2898       0.1995     559.8111       8.6447
   5820.9000      18.4656       2.2842       0.2063     549.1960       8.5806
   5821.0500      18.0266       2.2994       0.2070     532.2603       8.5948
   5821.2000      18.5848       2.3102       0.2113     547.5355       8.5980
   5821.3500      18.6853       2.2905       0.2129     467.0664       8.6888
   5821.5000      18.5841       2.2760       0.2169     406.9673       8.7577
   5821.6500      17.2798       2.2720       0.2313     413.4153       8.7339
   5821.8000      18.0989       2.2618       0.2207     512.9561       8.7233
   5821.9500      18.8011       2.2902       0.2159     500.3378       8.6120
   5822.1000      18.7571       2.3152       0.2124     450.9698       8.6297
   5822.2500      18.7361       2.3163       0.2226     438.6034       8.5131
   5822.4000      18.9548       2.2977       0.2170     535.0449       8.4605
   5822.5500      20.4278       2.2880       0.2143     504.4363       8.4863
   5822.7000      19.9202       2.2944       0.2164     486.8931       8.4621
   5822.8500      20.3613       2.2985       0.2228     522.7198       8.4187
   5823.0000      19.8429       2.2764       0.2105     444.6766       8.4345
   5823.1500      19.5847       2.2835       0.2116     436.4526       8.4492
   5823.3000      19.8509       2.2850       0.2154     428.9877       8.3989
   5823.4500      20.4491       2.2951       0.2224     384.2070       8.3548
   5823.6000      19.9540       2.3111       0.2229     429.8413       8.4475
   5823.7500      20.7328       2.3218       0.2239     508.8722       8.5458
   5823.9000      20.5548       2.3364       0.2232     500.4895       8.5842
   5824.0500      19.9367       2.3333       0.2223     582.6174       8.5506
   5824.2000      20.0015       2.3178       0.2173     568.7684       8.5714
   5824.3500      20.1651       2.3453       0.2210     565.4463       8.5580
   5824.5000      20.0920       2.3415       0.2182     566.7898       8.5290
   5824.6500      21.2637       2.3406       0.2042     561.3319       8.5418
   5824.8000      21.1109       2.3489       0.2089     480.7682       8.5516
   5824.9500      21.1755       2.3434       0.2105     435.4665       8.6405
   5825.1000      21.5216       2.3544       0.2068     450.8574       8.6083
   5825.2500      21.2737       2.3506       0.2033     444.6751       8.6483
   5825.4000      21.2851       2.3532       0.2158     413.6982       8.7067
   5825.5500      20.2338       2.3609       0.2129     415.8288       8.6746
   5825.7000      21.5836       2.3514       0.2209     391.4518       8.6758
   5825.8500      20.3054       2.3641       0.2202     414.5530       8.6516
   5826.0000      20.2820       2.3889       0.2251     405.4008       8.5813
   5826.1500      21.2124       2.3721       0.2228     385.9527       8.5882
   5826.3000      20.3368       2.3707       0.2192     359.2593       8.6305
   5826.4500      20.1641       2.3716       0.2141     402.9449       8.5782
   5826.6000      21.2655       2.3704       0.2195     404.6646       8.5599
   5826.7500      20.5579       2.3573       0.2203     336.2355       8.4746
   5826.9000      20.5281       2.3339       0.2157     358.7101       8.4407
   5827.0500      20.8096       2.3397       0.2143     337.2743       8.4407
   5827.2000      19.5653       2.3338       0.2242     292.6419       8.5242
   5827.3500      19.0733       2.2992       0.2167     306.8512       8.5637
   5827.5000      18.5559       2.3168       0.2141     301.2957       8.5820
   5827.6500      17.3842       2.3044       0.2205     282.9256       8.6846
   5827.8000      18.0916       2.2985       0.2231     265.9626       8.6225
   5827.9500      17.8810       2.2997       0.2190     327.6935       8.6095
   5828.1000      17.2864       2.2717       0.2225     339.9451       8.6089
   5828.2500      17.3192       2.2751       0.2283     364.0642       8.6240
   5828.4000      17.1857       2.2922       0.2124     359.4349       8.6594
   5828.5500      17.0383       2.2808       0.2221     321.3585       8.7707
