~VERSION -------------------------------------------
 VERS.                 2.0 : CWLS LOG ASCII STANDARD - VERSION 2.0
 WRAP.                  NO : ONE LINE PER DEPTH STEP
~WELL -----------------------------------------------
 WELL.                SANTOS-1 : Well name
 UWI .                BR-SAN-001        : Unique Well ID
 LAT .                -24.1234        : Latitude
 LON .                -41.9876        : Longitude
 STRT.M               4500.00 : START DEPTH
 STOP.M               6499.95 : STOP DEPTH
 STEP.M               0.1500 : STEP
 NULL.                -9999 : NULL VALUE
~CURVE -----------------------------------------------
 DEPTH .M               : Depth
 GR    .GAPI            : Gamma Ray
 RHOB  .G/C3            : Bulk Density
 NPHI  .V/V             : Neutron Porosity
 RT    .OHMM            : Resistivity
 CALI  .IN              : Caliper
~A  DEPTH              GR        RHOB        NPHI          RT        CALI
# ...
   5287.9500       3.0000       2.1835       0.0050   16276.9696       8.7346
   5288.1000       9.4433       2.1712       0.0110   16105.9089       8.6012
   5288.2500       6.9188       2.1437       0.0097   14743.8291       8.5643
   5288.4000       9.4386       2.1547       0.0011   14704.3169       8.3835
   5288.5500       9.4110       2.1792       0.0380   13639.6900       8.4062
   5288.7000       8.0206       2.1613       0.0089   13492.4722       8.3935
   5288.8500       8.4382       2.2112       0.0036   13838.3281       8.3594
   5289.0000       9.5987       2.1380       0.0367   14267.2072       8.4816
   5289.1500       6.9376       2.1681       0.0009   13228.7802       8.4343
   5289.3000      10.1700       2.1376       0.0113   14486.9962       8.4843
   5289.4500      14.7976       2.1372       0.0044   13952.9541       8.5791
   5289.6000       8.5964       2.1473       0.0000   14669.8993       8.5938
   5289.7500       9.0854       2.1344       0.0196   15388.3430       8.6455
   5289.9000      11.9175       2.1811       0.0105   14306.4334       8.6303
   5290.0500      11.3645       2.1540       0.0000   13157.3688       8.6843
   5290.2000       7.6354       2.1481       0.0303   14600.7403       8.7214
   5290.3500       3.0000       2.1693       0.0107   14600.7403       8.6833
   5290.5000       5.1816       2.1658       0.0235   15437.0450       8.7069
   5290.6500       8.6357       2.1650       0.0243   15016.0595       8.7039
   5290.8000       6.7610       2.1617       0.0000   14909.1635       8.7059
   5290.9500       5.5850       2.1774       0.0179   14581.2129       8.6111
   5291.1000       9.0182       2.1823       0.0211   14736.0798       8.6401
   5291.2500       5.9664       2.1493       0.0120   14983.3996       8.5421
   5291.4000      11.9402       2.2029       0.0211   14664.4329       8.5499
   5291.5500       5.7876       2.1697       0.0059   16073.4874       8.5077
   5291.7000       8.0403       2.1932       0.0266   16350.9628       8.4773
   5291.8500       6.9274       2.1720       0.0056   16410.4241       8.5207
   5292.0000       6.8106       2.1865       0.0265   16697.1570       8.4140
   5292.1500       8.8531       2.1399       0.0154   16927.6858       8.4140
   5292.3000       3.0000       2.1469       0.0148   16567.5441       8.4344
   5292.4500       7.9695       2.1578       0.0000   16972.4091       8.5420
   5292.6000      10.3940       2.1443       0.0257   16899.6872       8.5322
   5292.7500      10.5878       2.1754       0.0016   15205.6871       8.6112
   5292.9000       9.3806       2.1695       0.0281   16585.2634       8.7484
   5293.0500       9.5814       2.1498       0.0144   18042.3744       8.7990
   5293.2000       9.5387       2.1807       0.0152   18160.7322       8.8078
   5293.3500      12.0225       2.1857       0.0056   16093.6917       8.7555
   5293.5000       8.7541       2.1281       0.0068   14751.0374       8.7166
   5293.6500       7.5223       2.1905       0.0000   14217.1059       8.8062
   5293.8000       5.7540       2.1826       0.0191   12319.7502       8.7404
   5293.9500       7.2336       2.1383       0.0146   12916.2674       8.7234
   5294.1000       9.8024       2.1560       0.0270   12177.8919       8.6850
   5294.2500      10.3585       2.1566       0.0080   12366.7661       8.6964
   5294.4000       6.5661       2.1506       0.0314   12599.6314       8.5702
   5294.5500       6.5376       2.2005       0.0005   11481.2011       8.4460
   5294.7000       9.5527       2.1597       0.0138   11128.9386       8.4329
   5294.8500      11.6343       2.1238       0.0178   11128.9386       8.4189
   5295.0000      14.6880       2.1637       0.0160   10643.6009       8.4274
   5295.1500       9.6495       2.1578       0.0070   10517.5735       8.4302
   5295.3000       6.3778       2.1556       0.0000   10714.3610       8.4330
   5295.4500       5.1867       2.1764       0.0112   10859.0816       8.4361
   5295.6000      12.9404       2.1416       0.0054   11320.6987       8.5082
   5295.7500       9.1059       2.2055       0.0299   12347.9056       8.4374
   5295.9000       7.0987       2.1674       0.0163   12392.4364       8.4562
   5296.0500       6.3910       2.1706       0.0122   11694.3301       8.4799
   5296.2000      12.5491       2.1611       0.0254   11694.3301       8.4438
   5296.3500       7.1737       2.2011       0.0186   13196.3258       8.5004
   5296.5000      11.6871       2.1562       0.0000   14397.4686       8.5785
   5296.6500      10.3428       2.1742       0.0209   15356.9756       8.5702
   5296.8000       7.1680       2.1771       0.0155   16772.4135       8.6669
   5296.9500      13.2595       2.1655       0.0150   16074.5351       8.6289
   5297.1000       8.0010       2.1813       0.0107   16548.1946       8.6891
   5297.2500       6.6657       2.1874       0.0057   17507.0568       8.6945
   5297.4000      12.2908       2.1846       0.0003   16130.8364       8.7160
   5297.5500      10.4823       2.1679       0.0190   17702.2064       8.8702
   5297.7000       6.7472       2.1648       0.0060   15930.0382       8.9530
   5297.8500      10.5764       2.1727       0.0039   15930.0382       8.9509
   5298.0000      11.3655       2.1619       0.0415   16553.6111       8.9554
   5298.1500      10.0436       2.1490       0.0060   17105.4979       8.9388
   5298.3000       6.4460       2.1731       0.0043   16325.5112       8.9707
   5298.4500       8.9821       2.1994       0.0169   16155.5109       8.9524
   5298.6000       4.8598       2.1801       0.0075   15923.4680       8.8163
   5298.7500       6.9339       2.1434       0.0254   16225.2056       8.8109
   5298.9000       7.0570       2.1717       0.0159   14745.4142       8.7744
   5299.0500      10.4899       2.1883       0.0121   15572.9120       8.6279
   5299.2000      10.8345       2.1666       0.0183   15406.1402       8.5243
   5299.3500       3.9570       2.1735       0.0146   14729.1126       8.5675
   5299.5000       9.3490       2.2411       0.0028   14437.7967       8.5632
   5299.6500       7.8676       2.2074       0.0141   13894.7964       8.6439
   5299.8000       9.1476       2.1703       0.0000   14786.8041       8.5665
   5299.9500      12.6833       2.1848       0.0000   15428.7754       8.6343
   5300.1000       6.8128       2.1658       0.0042   15895.8653       8.6839
   5300.2500       7.2172       2.1644       0.0079   15895.8653       8.6626
   5300.4000      10.1723       2.1898       0.0113   17083.0560       8.6425
   5300.5500       8.2978       2.1893       0.0000   17083.0560       8.7215
   5300.7000       3.4790       2.1839       0.0059   18699.4403       8.8128
   5300.8500      13.2656       2.1663       0.0000   18215.1518       8.7906
   5301.0000       8.8511       2.2076       0.0161   18989.1250       8.7273
   5301.1500      10.9747       2.1488       0.0056   19403.0655       8.7164
   5301.3000       6.7814       2.1728       0.0078   20390.5069       8.6778
   5301.4500       3.9337       2.1478       0.0000   20091.8527       8.6238
   5301.6000       7.8075       2.1731       0.0160   20300.2139       8.6085
   5301.7500       8.7872       2.1650       0.0000   19110.4753       8.6480
   5301.9000      11.6476       2.1982       0.0069   19225.3634       8.7482
   5302.0500       6.7432       2.1708       0.0047   18960.4461       8.6975
   5302.2000      11.0893       2.1988       0.0272   17922.7201       8.6537
   5302.3500       4.1087       2.1672       0.0000   18746.5428       8.5705
   5302.5000       7.0306       2.1612       0.0257   18992.2409       8.6815
   5302.6500       8.7840       2.1794       0.0068   18928.5424       8.5442
   5302.8000       4.8014       2.1289       0.0077   18660.0170       8.5050
   5302.9500      12.8014       2.1641       0.0224   18203.9652       8.5321
   5303.1000       7.4180       2.1753       0.0191   16598.6506       8.5424
   5303.2500       5.8985       2.2164       0.0121   15984.2826       8.5518
