~VERSION -------------------------------------------
 VERS.                 2.0 : CWLS LOG ASCII STANDARD - VERSION 2.0
 WRAP.                  NO : ONE LINE PER DEPTH STEP
~WELL -----------------------------------------------
 WELL.                SANTOS-1 : Well name
 UWI .                BR-SAN-001        : Unique Well ID
 LAT .                -24.1234        : Latitude
 LON .                -41.9876        : Longitude
 STRT.M               4500.00 : START DEPTH
 STOP.M               6499.95 : STOP DEPTH
 STEP.M               0.1500 : STEP
 NULL.                -9999 : NULL VALUE
~CURVE -----------------------------------------------
 DEPTH .M               : Depth
 GR    .GAPI            : Gamma Ray
 RHOB  .G/C3            : Bulk Density
 NPHI  .V/V             : Neutron Porosity
 RT    .OHMM            : Resistivity
 CALI  .IN              : Caliper
~A  DEPTH              GR        RHOB        NPHI          RT        CALI
# ...
   4639.0500      18.7486       2.3195       0.1904     546.1146       8.6038
   4639.2000      19.3753       2.3280       0.1859     532.6452       8.5947
   4639.3500      19.2538       2.3221       0.1829     548.3275       8.6133
   4639.5000      19.4716       2.3497       0.1832     591.3474       8.5794
   4639.6500      19.4494       2.3440       0.1806     691.6374       8.5165
   4639.8000      19.1425       2.3243       0.1873     668.7529       8.5354
   4639.9500      17.9174       2.3458       0.1835     591.9328       8.3846
   4640.1000      18.3016       2.3450       0.1850     524.5174       8.4268
   4640.2500      18.0201       2.3414       0.1845     509.4747       8.4704
   4640.4000      17.7639       2.3375       0.1829     432.2539       8.4769
   4640.5500      18.1046       2.3431       0.1789     453.4149       8.5381
   4640.7000      17.6103       2.3531       0.1840     510.5815       8.4977
   4640.8500      17.5315       2.3474       0.1810     493.7563       8.5350
   4641.0000      17.4631       2.3333       0.1849     523.5995       8.5496
   4641.1500      17.0649       2.3467       0.1825     488.5601       8.6072
   4641.3000      15.5260       2.3684       0.1877     442.9888       8.6797
   4641.4500      15.4837       2.3673       0.1921     350.9873       8.7250
   4641.6000      15.1208       2.4009       0.1948     433.3298       8.6738
   4641.7500      15.0291       2.4102       0.1905     439.0431       8.6742
   4641.9000      14.5927       2.3960       0.1903     407.7494       8.6007
   4642.0500      14.0966       2.3847       0.1968     458.1931       8.4828
   4642.2000      13.4696       2.3858       0.2004     433.4705       8.5013
   4642.3500      13.0349       2.3905       0.2049     417.6527       8.4455
   4642.5000      13.9488       2.3719       0.2044     353.5973       8.4634
   4642.6500      13.2901       2.3673       0.2064     307.0829       8.4640
   4642.8000      13.5063       2.3696       0.2084     319.4823       8.4193
   4642.9500      13.9145       2.3752       0.2202     326.0330       8.4971
   4643.1000      14.4626       2.3585       0.2129     368.3165       8.5237
   4643.2500      14.8708       2.3635       0.2199     385.5609       8.5810
   4643.4000      14.7066       2.3710       0.2176     419.2916       8.6332
   4643.5500      14.7003       2.3606       0.2221     465.3788       8.7666
   4643.7000      14.0063       2.3345       0.2266     389.9941       8.8595
   4643.8500      14.0750       2.3152       0.2265     372.6114       8.8675
   4644.0000      14.0209       2.3141       0.2274     344.9192       8.8803
   4644.1500      14.3812       2.3036       0.2229     319.8476       8.9073
   4644.3000      14.8188       2.2989       0.2198     334.2389       8.9173
   4644.4500      15.0951       2.3002       0.2217     362.6939       8.9451
   4644.6000      16.1036       2.2964       0.2197     301.1408       8.9266
   4644.7500      15.7249       2.2865       0.2155     236.7656       8.8963
   4644.9000      15.3444       2.2890       0.2120     236.4834       8.8403
   4645.0500      14.8219       2.3067       0.2103     227.8775       8.7469
   4645.2000      15.4170       2.2945       0.2121     258.0830       8.6661
   4645.3500      16.0327       2.3001       0.2037     284.3922       8.6639
   4645.5000      15.7235       2.3095       0.2131     318.6230       8.6540
   4645.6500      16.1295       2.3264       0.2114     333.4241       8.7049
   4645.8000      16.4419       2.3296       0.2050     326.3471       8.6749
   4645.9500      16.9442       2.2966       0.1913     340.1843       8.5901
   4646.1000      16.6947       2.3102       0.1960     357.4980       8.5353
   4646.2500      16.4834       2.3215       0.1929     329.3990       8.4558
   4646.4000      17.1106       2.3168       0.1983     338.7296       8.4587
   4646.5500      17.1754       2.3254       0.1976     322.6352       8.4347
   4646.7000      18.3267       2.3499       0.2000     352.7305       8.4023
   4646.8500      19.5172       2.3626       0.2008     391.6497       8.3964
   4647.0000      19.6677       2.3757       0.1992     464.7491       8.3240
   4647.1500      19.7698       2.4023       0.2049     480.1681       8.2459
   4647.3000      19.9743       2.3946       0.1990     424.7259       8.3483
   4647.4500      20.1879       2.3887       0.2011     500.6209       8.3046
   4647.6000      19.9624       2.3703       0.1974     491.5249       8.3725
   4647.7500      20.4485       2.3859       0.2047     562.8137       8.3752
   4647.9000      20.2692       2.3888       0.2102     525.3658       8.3393
   4648.0500      20.6584       2.3805       0.2129     601.7395       8.3213
   4648.2000      20.9212       2.4015       0.2174     508.3499       8.3531
   4648.3500      20.5677       2.3851       0.2204     483.4415       8.3531
   4648.5000      19.6526       2.3782       0.2140     467.4710       8.3531
   4648.6500      19.5187       2.3762       0.2182     450.9366       8.3241
   4648.8000      18.7015       2.3787       0.2282     418.0477       8.2022
   4648.9500      18.0599       2.3986       0.2326     417.5572       8.2501
   4649.1000      18.8486       2.3741       0.2396     358.9035       8.2581
   4649.2500      18.6408       2.3657       0.2399     382.5198       8.2975
   4649.4000      18.5636       2.3532       0.2394     344.6085       8.3864
   4649.5500      17.8285       2.3578       0.2356     377.0055       8.3864
   4649.7000      17.6418       2.3352       0.2314     361.6974       8.4397
   4649.8500      16.3707       2.3288       0.2340     363.3380       8.4818
   4650.0000      17.2652       2.3279       0.2449     319.8857       8.4818
   4650.1500      16.8450       2.3129       0.2466     352.6623       8.5432
   4650.3000      16.6189       2.3013       0.2546     362.1126       8.5849
   4650.4500      16.4426       2.3099       0.2491     335.6021       8.5371
   4650.6000      16.0663       2.3053       0.2422     366.7655       8.5544
   4650.7500      16.0695       2.2987       0.2406     395.4468       8.5642
   4650.9000      16.2549       2.2923       0.2357     433.3555       8.5529
   4651.0500      16.0664       2.2982       0.2389     380.4395       8.6208
   4651.2000      15.1299       2.2880       0.2246     467.4814       8.5345
   4651.3500      15.2240       2.2878       0.2233     431.5550       8.4923
   4651.5000      15.1251       2.2816       0.2204     428.3314       8.4923
   4651.6500      14.6370       2.2792       0.2246     451.2816       8.4668
   4651.8000      15.1656       2.2837       0.2178     421.8614       8.4248
   4651.9500      15.8388       2.2761       0.2194     438.0530       8.4691
   4652.1000      14.7002       2.2941       0.2059     511.8560       8.3886
   4652.2500      15.9695       2.2825       0.2077     542.9507       8.3367
   4652.4000      15.9299       2.2938       0.2043     621.1581       8.3157
   4652.5500      16.4442       2.2728       0.2133     545.9669       8.3429
   4652.7000      15.5637       2.2927       0.2018     610.2919       8.3845
   4652.8500      15.9857       2.2973       0.2068     701.1389       8.4213
   4653.0000      15.8788       2.2752       0.1933     642.6903       8.5186
   4653.1500      15.5663       2.2782       0.1917     536.4598       8.5327
   4653.3000      15.8201       2.2999       0.1913     587.1606       8.6232
   4653.4500      16.6610       2.2891       0.1929     760.5870       8.6541
   4653.6000      16.7894       2.3026       0.1966     749.2396       8.6500
   4653.7500      17.1001       2.2953       0.1891     709.0473       8.6811
   4653.9000      17.2784       2.3223       0.2033     675.6557       8.6608
   4654.0500      17.0776       2.3356       0.1998     667.3345       8.6041
   4654.2000      17.9682       2.3564       0.2047     548.3679       8.5883
   4654.3500      18.1831       2.3752       0.2118     497.7030       8.6262
