~VERSION -------------------------------------------
 VERS.                 2.0 : CWLS LOG ASCII STANDARD - VERSION 2.0
 WRAP.                  NO : ONE LINE PER DEPTH STEP
~WELL -----------------------------------------------
 WELL.                SANTOS-1 : Well name
 UWI .                BR-SAN-001        : Unique Well ID
 LAT .                -24.1234        : Latitude
 LON .                -41.9876        : Longitude
 STRT.M               4500.00 : START DEPTH
 STOP.M               6499.95 : STOP DEPTH
 STEP.M               0.1500 : STEP
 NULL.                -9999 : NULL VALUE
~CURVE -----------------------------------------------
 DEPTH .M               : Depth
 GR    .GAPI            : Gamma Ray
 RHOB  .G/C3            : Bulk Density
 NPHI  .V/V             : Neutron Porosity
 RT    .OHMM            : Resistivity
 CALI  .IN              : Caliper
~A  DEPTH              GR        RHOB        NPHI          RT        CALI
# ...
   5952.3000      18.8469       2.3915       0.1833     448.3509       8.5088
   5952.4500      20.0321       2.3889       0.1867     436.5136       8.3895
   5952.6000      20.5822       2.3757       0.1929     391.4474       8.3677
   5952.7500      20.8927       2.3571       0.1925     395.3208       8.4016
   5952.9000      22.3605       2.3788       0.1957     384.5299       8.4016
   5953.0500      21.5564       2.3508       0.2006     420.1701       8.4910
   5953.2000      22.1901       2.3531       0.2037     407.1600       8.4958
   5953.3500      21.3289       2.3475       0.2111     432.7038       8.4273
   5953.5000      21.6444       2.3417       0.2140     416.8527       8.3934
   5953.6500      21.3989       2.3509       0.2151     425.6177       8.4291
   5953.8000      20.6487       2.3188       0.2121     353.7511       8.4844
   5953.9500      20.3908       2.3227       0.2245     345.9110       8.5029
   5954.1000      20.0873       2.3308       0.2341     346.0433       8.5337
   5954.2500      20.0386       2.3085       0.2310     349.1913       8.5271
   5954.4000      19.3317       2.2931       0.2318     345.1365       8.6138
   5954.5500      21.0274       2.2885       0.2359     383.0629       8.6519
   5954.7000      20.8090       2.2799       0.2394     319.6078       8.6436
   5954.8500      19.9849       2.2902       0.2448     289.2881       8.6570
   5955.0000      18.9322       2.2770       0.2396     266.7593       8.6230
   5955.1500      17.9736       2.2773       0.2369     278.5443       8.6456
   5955.3000      18.1533       2.2850       0.2380     325.2387       8.6208
   5955.4500      17.8066       2.2786       0.2338     352.0098       8.6316
   5955.6000      17.5703       2.2823       0.2300     376.3991       8.5594
   5955.7500      17.3910       2.2818       0.2273     331.6494       8.5051
   5955.9000      16.1446       2.2582       0.2243     331.1881       8.5591
   5956.0500      15.8187       2.2663       0.2235     354.9892       8.6046
   5956.2000      14.8094       2.2832       0.2281     373.6900       8.6588
   5956.3500      14.9564       2.2892       0.2265     319.5913       8.5971
   5956.5000      15.7850       2.2709       0.2303     313.6437       8.6559
   5956.6500      15.0603       2.2845       0.2264     303.9697       8.7467
   5956.8000      14.9739       2.3001       0.2279     350.7092       8.7328
   5956.9500      15.0948       2.2701       0.2278     450.4557       8.7236
   5957.1000      15.2669       2.2635       0.2322     477.7041       8.7738
   5957.2500      14.5801       2.2634       0.2234     497.9923       8.8369
   5957.4000      15.5631       2.2631       0.2254     574.4362       8.7395
   5957.5500      14.6508       2.2714       0.2228     545.6847       8.6284
   5957.7000      14.8784       2.2886       0.2278     636.7780       8.6158
   5957.8500      14.6308       2.2811       0.2265     722.0647       8.6037
   5958.0000      15.6393       2.2890       0.2285     835.7757       8.5217
   5958.1500      16.2895       2.2875       0.2301     828.5559       8.3726
   5958.3000      16.3757       2.2613       0.2366     768.5636       8.4181
   5958.4500      15.2337       2.2706       0.2408     657.8006       8.3913
   5958.6000      16.6495       2.2820       0.2453     702.8769       8.3518
   5958.7500      16.0502       2.2812       0.2530     763.9087       8.2914
   5958.9000      15.5910       2.2820       0.2576     741.9472       8.2780
   5959.0500      16.6170       2.2877       0.2623     708.0347       8.2754
   5959.2000      17.2730       2.2825       0.2682     597.6160       8.2603
   5959.3500      17.8331       2.2741       0.2616     691.9794       8.3391
   5959.5000      16.5481       2.3156       0.2632     675.2321       8.4224
   5959.6500      16.3251       2.3097       0.2637     804.2291       8.4224
   5959.8000      16.8748       2.3121       0.2644     753.0633       8.4519
   5959.9500      16.4935       2.3453       0.2631     623.0412       8.4481
   5960.1000      17.1229       2.3488       0.2473     597.5813       8.4668
   5960.2500      17.1093       2.3443       0.2513     489.2680       8.5844
   5960.4000      16.5420       2.3431       0.2576     416.4115       8.5814
   5960.5500      16.3976       2.3546       0.2628     410.0783       8.5852
   5960.7000      16.4725       2.3491       0.2556     419.5233       8.5589
   5960.8500      16.6969       2.3523       0.2534     414.5794       8.5410
   5961.0000      16.3481       2.3511       0.2490     387.9404       8.5715
   5961.1500      17.1975       2.3571       0.2416     386.7213       8.5987
   5961.3000      16.7971       2.3791       0.2377     351.9581       8.5321
   5961.4500      16.7971       2.3918       0.2402     379.5288       8.6428
   5961.6000      15.9547       2.3741       0.2395     350.2823       8.6305
   5961.7500      16.2982       2.3678       0.2432     402.1502       8.5958
   5961.9000      16.0771       2.3579       0.2422     446.5110       8.6139
   5962.0500      15.9225       2.3642       0.2308     443.4670       8.5925
   5962.2000      16.1309       2.3785       0.2174     441.1594       8.6670
   5962.3500      15.7119       2.4054       0.2131     388.4950       8.6385
   5962.5000      15.7037       2.4054       0.2145     369.3077       8.6025
   5962.6500      16.7938       2.3877       0.2169     383.6146       8.6334
   5962.8000      16.2793       2.3826       0.2144     425.7574       8.6033
   5962.9500      16.6348       2.3588       0.2147     466.9759       8.5479
   5963.1000      15.6359       2.3553       0.2227     459.2274       8.5829
   5963.2500      16.4931       2.3554       0.2295     541.1019       8.4842
   5963.4000      16.8296       2.3683       0.2181     641.8614       8.4549
   5963.5500      17.4076       2.3396       0.2161     621.7619       8.4922
   5963.7000      17.9761       2.3369       0.2130     569.3975       8.4426
   5963.8500      17.7517       2.3483       0.2297     575.5351       8.4101
   5964.0000      17.5536       2.3486       0.2388     526.4978       8.4662
   5964.1500      16.6312       2.3614       0.2436     522.3292       8.4897
   5964.3000      16.7721       2.3591       0.2418     548.0348       8.4897
   5964.4500      18.0075       2.3511       0.2382     660.2888       8.4361
   5964.6000      17.9795       2.3545       0.2338     614.3140       8.4853
   5964.7500      17.5351       2.3539       0.2256     482.0919       8.5743
   5964.9000      17.8849       2.3652       0.2213     427.6611       8.6520
   5965.0500      17.6053       2.3556       0.2299     441.7233       8.5730
   5965.2000      16.9888       2.3535       0.2316     463.0749       8.6291
   5965.3500      17.6887       2.3348       0.2355     517.7799       8.7134
   5965.5000      18.6137       2.3213       0.2255     616.7819       8.7197
   5965.6500      18.3652       2.3395       0.2280     644.1536       8.6727
   5965.8000      19.0890       2.3410       0.2315     674.5862       8.7274
   5965.9500      19.6424       2.3468       0.2281     656.6419       8.8500
   5966.1000      20.1394       2.3573       0.2280     604.1533       8.8284
   5966.2500      20.3049       2.3708       0.2258     625.1185       8.7393
   5966.4000      20.1931       2.3763       0.2257     528.6109       8.7327
   5966.5500      19.2604       2.3784       0.2149     466.3438       8.7380
   5966.7000      19.9665       2.3691       0.2236     464.3023       8.6763
   5966.8500      20.8235       2.3587       0.2170     410.1498       8.6692
   5967.0000      20.5295       2.3609       0.2160     456.1836       8.5572
   5967.1500      20.4279       2.3422       0.2178     475.0304       8.5689
   5967.3000      20.4620       2.3523       0.2181     561.2673       8.6051
   5967.4500      20.2904       2.3335       0.2200     471.8407       8.4961
   5967.6000      19.9105       2.3395       0.2285     521.8326       8.5196
