~VERSION -------------------------------------------
 VERS.                 2.0 : CWLS LOG ASCII STANDARD - VERSION 2.0
 WRAP.                  NO : ONE LINE PER DEPTH STEP
~WELL -----------------------------------------------
 WELL.                SANTOS-1 : Well name
 UWI .                BR-SAN-001        : Unique Well ID
 LAT .                -24.1234        : Latitude
 LON .                -41.9876        : Longitude
 STRT.M               4500.00 : START DEPTH
 STOP.M               6499.95 : STOP DEPTH
 STEP.M               0.1500 : STEP
 NULL.                -9999 : NULL VALUE
~CURVE -----------------------------------------------
 DEPTH .M               : Depth
 GR    .GAPI            : Gamma Ray
 RHOB  .G/C3            : Bulk Density
 NPHI  .V/V             : Neutron Porosity
 RT    .OHMM            : Resistivity
 CALI  .IN              : Caliper
~A  DEPTH              GR        RHOB        NPHI          RT        CALI
# ...
   5427.0000      17.9118       2.3832       0.2226     483.6571       8.6082
   5427.1500      17.7774       2.3865       0.2210     437.1603       8.5319
   5427.3000      17.0414       2.3887       0.2269     465.7621       8.5485
   5427.4500      17.2206       2.4071       0.2241     374.6794       8.6197
   5427.6000      18.4024       2.4030       0.2183     303.1816       8.5190
   5427.7500      18.3331       2.4154       0.2257     336.0459       8.3856
   5427.9000      17.5180       2.3943       0.2276     381.0361       8.3700
   5428.0500      17.8579       2.3837       0.2286     349.2085       8.3637
   5428.2000      18.4983       2.3957       0.2291     406.2357       8.3981
   5428.3500      17.9113       2.3726       0.2320     356.6990       8.4706
   5428.5000      17.9113       2.3605       0.2215     300.2543       8.4588
   5428.6500      17.5921       2.3480       0.2221     249.1052       8.4531
   5428.8000      18.3964       2.3517       0.2217     234.3201       8.4381
   5428.9500      17.5728       2.3417       0.2058     254.7635       8.3352
   5429.1000      16.6532       2.3422       0.2107     250.5337       8.3875
   5429.2500      17.1634       2.3475       0.2098     268.5100       8.4768
   5429.4000      17.3654       2.3390       0.2175     311.4556       8.4409
   5429.5500      16.2656       2.3305       0.2278     281.1297       8.4260
   5429.7000      16.6056       2.3281       0.2292     286.8034       8.3495
   5429.8500      16.1531       2.3154       0.2336     337.3353       8.3474
   5430.0000      17.6956       2.3167       0.2331     287.9126       8.4488
   5430.1500      17.6956       2.2914       0.2393     284.7487       8.4728
   5430.3000      17.1617       2.2845       0.2348     286.9471       8.4487
   5430.4500      17.6434       2.2909       0.2338     349.4376       8.4606
   5430.6000      16.9015       2.2932       0.2317     424.7952       8.4388
   5430.7500      17.3331       2.2685       0.2262     429.4619       8.4514
   5430.9000      17.6328       2.2700       0.2290     373.6709       8.5174
   5431.0500      17.1660       2.2769       0.2287     402.4745       8.5732
   5431.2000      16.6626       2.2811       0.2255     381.4302       8.5732
   5431.3500      17.4428       2.2966       0.2231     440.1764       8.5752
   5431.5000      18.6514       2.3179       0.2302     506.9685       8.5344
   5431.6500      17.1523       2.3298       0.2354     614.8665       8.5924
   5431.8000      16.6012       2.3281       0.2347     609.7918       8.5724
   5431.9500      16.7005       2.3360       0.2364     648.7668       8.5605
   5432.1000      16.6795       2.3448       0.2380     579.8375       8.5300
   5432.2500      16.2585       2.3348       0.2395     582.6642       8.4748
   5432.4000      16.5415       2.3346       0.2358     584.0667       8.4920
   5432.5500      16.2217       2.3404       0.2333     640.1421       8.4100
   5432.7000      15.7134       2.3131       0.2299     674.2716       8.4730
   5432.8500      15.8973       2.3137       0.2297     615.8257       8.4682
   5433.0000      14.0874       2.3045       0.2259     610.1946       8.4075
   5433.1500      14.2523       2.3249       0.2204     657.9175       8.3458
   5433.3000      14.6403       2.3237       0.2123     718.8854       8.4121
   5433.4500      14.3665       2.3293       0.2101     720.8301       8.5721
   5433.6000      13.9262       2.3133       0.2066     652.3360       8.6601
   5433.7500      13.6920       2.3015       0.2103     633.4187       8.6134
   5433.9000      13.8761       2.3156       0.2102     583.9274       8.6407
   5434.0500      13.9273       2.2941       0.2128     464.4346       8.6471
   5434.2000      14.0642       2.2890       0.2130     495.8056       8.6173
   5434.3500      13.9621       2.2833       0.2143     442.5660       8.5361
   5434.5000      13.2030       2.2824       0.2144     451.0190       8.6804
   5434.6500      13.2385       2.2900       0.2183     416.8625       8.6601
   5434.8000      13.0777       2.2874       0.2272     484.4419       8.6026
   5434.9500      12.7566       2.2937       0.2352     471.9201       8.4713
   5435.1000      12.2999       2.2808       0.2353     491.1824       8.4212
   5435.2500      12.3630       2.2893       0.2331     534.5290       8.5251
   5435.4000      12.2119       2.2893       0.2307     526.2436       8.4470
   5435.5500      12.8863       2.2983       0.2303     475.1575       8.5148
   5435.7000      13.4934       2.3143       0.2346     490.8346       8.5418
   5435.8500      13.6122       2.3170       0.2294     469.1066       8.6027
   5436.0000      14.2792       2.3089       0.2213     493.9898       8.5489
   5436.1500      15.1901       2.2973       0.2173     475.8009       8.6011
   5436.3000      15.3348       2.3010       0.2234     417.0812       8.6314
   5436.4500      14.6765       2.2816       0.2288     436.5200       8.7121
   5436.6000      15.0979       2.2869       0.2337     444.9233       8.6744
   5436.7500      15.4609       2.3071       0.2341     399.2387       8.6449
   5436.9000      14.6377       2.3079       0.2338     443.4341       8.7799
   5437.0500      15.0911       2.3061       0.2272     500.5351       8.7006
   5437.2000      14.7093       2.3028       0.2330     570.4698       8.7398
   5437.3500      15.1351       2.2889       0.2330     622.2714       8.6885
   5437.5000      15.4423       2.2920       0.2292     545.9330       8.6549
   5437.6500      16.0642       2.3119       0.2295     630.9116       8.6119
   5437.8000      16.4239       2.3121       0.2223     519.1384       8.6686
   5437.9500      17.4997       2.3085       0.2164     572.9234       8.6346
   5438.1000      18.5388       2.3122       0.2132     615.7954       8.6346
   5438.2500      18.4227       2.3139       0.2158     667.8939       8.6213
   5438.4000      19.0702       2.3205       0.2221     701.0120       8.5132
   5438.5500      18.3700       2.3099       0.2184     712.7990       8.5574
   5438.7000      17.7163       2.2998       0.2237     713.6324       8.5976
   5438.8500      17.9875       2.3035       0.2349     745.8936       8.6022
   5439.0000      18.5606       2.3254       0.2484     804.1657       8.6148
   5439.1500      18.0474       2.3245       0.2520     847.9055       8.6055
   5439.3000      17.7338       2.3069       0.2578     944.3353       8.6051
   5439.4500      18.5019       2.3034       0.2589     858.7919       8.5297
   5439.6000      18.4663       2.3079       0.2523     915.7156       8.5363
   5439.7500      18.3329       2.3069       0.2476     940.3323       8.5249
   5439.9000      19.0176       2.3021       0.2392     914.0442       8.5389
   5440.0500      18.2046       2.3020       0.2402    1010.3094       8.4690
   5440.2000      19.0474       2.2872       0.2372     918.2118       8.4631
   5440.3500      17.8820       2.3198       0.2351     805.6529       8.4873
   5440.5000      17.2980       2.3224       0.2340     915.4639       8.5275
   5440.6500      17.3212       2.2954       0.2246     779.3358       8.5295
   5440.8000      18.3038       2.3054       0.2271     908.7234       8.6192
   5440.9500      17.1416       2.3113       0.2303     814.8386       8.6670
   5441.1000      16.6618       2.3105       0.2304     690.7411       8.7079
   5441.2500      16.5144       2.3245       0.2244     613.2007       8.7278
   5441.4000      16.0737       2.3161       0.2155     527.9164       8.6951
   5441.5500      16.3699       2.3010       0.2214     571.1656       8.7900
   5441.7000      16.9877       2.3148       0.2141     527.9355       8.7164
   5441.8500      17.7433       2.3101       0.2096     565.9978       8.7077
   5442.0000      17.5588       2.3059       0.2029     490.4728       8.6425
   5442.1500      17.4438       2.3140       0.2048     432.6648       8.6537
   5442.3000      18.2026       2.3199       0.2044     452.6425       8.4844
