~VERSION -------------------------------------------
 VERS.                 2.0 : CWLS LOG ASCII STANDARD - VERSION 2.0
 WRAP.                  NO : ONE LINE PER DEPTH STEP
~WELL -----------------------------------------------
 WELL.                SANTOS-1 : Well name
 UWI .                BR-SAN-001        : Unique Well ID
 LAT .                -24.1234        : Latitude
 LON .                -41.9876        : Longitude
 STRT.M               4500.00 : START DEPTH
 STOP.M               6499.95 : STOP DEPTH
 STEP.M               0.1500 : STEP
 NULL.                -9999 : NULL VALUE
~CURVE -----------------------------------------------
 DEPTH .M               : Depth
 GR    .GAPI            : Gamma Ray
 RHOB  .G/C3            : Bulk Density
 NPHI  .V/V             : Neutron Porosity
 RT    .OHMM            : Resistivity
 CALI  .IN              : Caliper
~A  DEPTH              GR        RHOB        NPHI          RT        CALI
# ...
   5689.6500      16.8715       2.2460       0.2251     663.8466       8.4312
   5689.8000      16.4327       2.2555       0.2300     669.6089       8.5713
   5689.9500      16.1936       2.2539       0.2207     802.6694       8.5838
   5690.1000      15.6101       2.2674       0.2240     842.8421       8.5667
   5690.2500      14.6868       2.2610       0.2264     622.5581       8.5205
   5690.4000      15.3984       2.2524       0.2238     684.5895       8.5016
   5690.5500      15.4007       2.2420       0.2274     625.6095       8.5229
   5690.7000      15.6847       2.2251       0.2354     693.7874       8.4519
   5690.8500      15.2232       2.2343       0.2377     677.1175       8.5507
   5691.0000      15.2483       2.2561       0.2276     727.9134       8.6182
   5691.1500      15.1828       2.2751       0.2254     703.6788       8.5207
   5691.3000      15.1755       2.2778       0.2251     612.2406       8.3823
   5691.4500      15.3779       2.2663       0.2245     561.6089       8.4277
   5691.6000      16.1070       2.2722       0.2381     511.1973       8.4277
   5691.7500      15.8611       2.2668       0.2298     490.9582       8.4469
   5691.9000      17.0753       2.2808       0.2353     504.1380       8.4859
   5692.0500      17.1387       2.2800       0.2492     501.0929       8.5878
   5692.2000      18.2842       2.2867       0.2480     574.3463       8.5865
   5692.3500      18.5332       2.2848       0.2369     540.8691       8.5037
   5692.5000      18.6991       2.2893       0.2403     583.3439       8.4981
   5692.6500      17.7973       2.2955       0.2321     598.7315       8.5861
   5692.8000      18.0079       2.2923       0.2189     602.3300       8.6283
   5692.9500      18.1562       2.3071       0.2349     498.0372       8.6036
   5693.1000      20.0761       2.3021       0.2317     498.0617       8.6036
   5693.2500      21.1754       2.3108       0.2317     588.5038       8.6009
   5693.4000      20.4358       2.3238       0.2311     508.3150       8.4951
   5693.5500      21.3655       2.3340       0.2291     522.7304       8.4150
   5693.7000      21.8618       2.3310       0.2307     442.4225       8.4280
   5693.8500      22.1903       2.3365       0.2329     448.0802       8.5193
   5694.0000      22.3680       2.3412       0.2355     493.4258       8.4871
   5694.1500      22.8274       2.3230       0.2406     513.1790       8.4228
   5694.3000      22.8274       2.3320       0.2454     535.4445       8.4278
   5694.4500      23.3666       2.3503       0.2486     571.7112       8.4177
   5694.6000      21.8052       2.3700       0.2410     591.0667       8.5476
   5694.7500      22.2485       2.3919       0.2388     609.0480       8.7478
   5694.9000      21.5969       2.3749       0.2380     522.1917       8.7485
   5695.0500      21.6941       2.3788       0.2264     576.5151       8.7314
   5695.2000      20.9723       2.3787       0.2247     445.6279       8.7256
   5695.3500      20.4159       2.3891       0.2202     418.1420       8.6826
   5695.5000      19.1068       2.4206       0.2180     376.8765       8.7140
   5695.6500      18.6949       2.4206       0.2237     440.9837       8.7555
   5695.8000      18.5330       2.4184       0.2301     436.0242       8.7065
   5695.9500      18.4481       2.4165       0.2160     468.8246       8.7808
   5696.1000      17.6083       2.4164       0.2161     423.7059       8.6509
   5696.2500      16.9214       2.4259       0.2098     363.4899       8.4484
   5696.4000      16.4563       2.4214       0.2143     389.6095       8.4612
   5696.5500      15.2841       2.4192       0.2073     421.3933       8.4271
   5696.7000      13.5760       2.4266       0.1982     417.5542       8.4763
   5696.8500      13.9858       2.4163       0.1972     417.7894       8.4303
   5697.0000      14.1323       2.3942       0.2012     352.7264       8.4921
   5697.1500      14.9832       2.3798       0.1921     371.5809       8.4775
   5697.3000      15.7712       2.3567       0.1934     372.8163       8.5105
   5697.4500      15.1152       2.3532       0.1928     405.7331       8.4398
   5697.6000      15.4190       2.3483       0.1954     409.5469       8.4849
   5697.7500      15.2864       2.3282       0.2013     394.4648       8.5518
   5697.9000      14.9603       2.3451       0.2021     512.4000       8.5383
   5698.0500      14.4048       2.3354       0.2032     493.0537       8.5383
   5698.2000      14.2073       2.3393       0.1991     494.5588       8.5974
   5698.3500      14.9067       2.3336       0.2014     552.2037       8.5790
   5698.5000      15.7427       2.3183       0.1988     617.7266       8.5207
   5698.6500      16.8186       2.3089       0.2052     548.2417       8.5282
   5698.8000      16.4525       2.3076       0.1948     584.6707       8.5271
   5698.9500      17.1627       2.3024       0.1977     632.8121       8.5883
   5699.1000      16.9054       2.2853       0.1991     614.6117       8.5433
   5699.2500      17.3440       2.2834       0.2024     646.4575       8.4643
   5699.4000      17.8523       2.2904       0.1989     602.9827       8.6053
   5699.5500      17.3579       2.2791       0.1996     596.9879       8.6629
   5699.7000      18.6964       2.2711       0.2085     615.1673       8.6273
   5699.8500      18.7598       2.2788       0.2246     645.2867       8.8030
   5700.0000      17.9633       2.2856       0.2317     648.9251       8.7811
   5700.1500      18.3378       2.2922       0.2385     579.0438       8.6934
   5700.3000      18.2083       2.2946       0.2276     556.7535       8.6616
   5700.4500      18.5856       2.3063       0.2178     546.2993       8.6303
   5700.6000      18.4428       2.3001       0.2189     561.2525       8.6303
   5700.7500      18.2190       2.3012       0.2175     533.3320       8.6528
   5700.9000      17.9211       2.2949       0.2177     499.3946       8.6158
   5701.0500      18.2841       2.3155       0.2222     501.8701       8.5860
   5701.2000      18.5238       2.3216       0.2212     521.9174       8.4989
   5701.3500      18.3163       2.3131       0.2231     528.3324       8.4147
   5701.5000      17.4804       2.2930       0.2312     407.9921       8.4046
   5701.6500      16.6513       2.2926       0.2319     382.9120       8.4949
   5701.8000      16.4277       2.2889       0.2435     336.8893       8.5475
   5701.9500      16.1939       2.2970       0.2483     318.4477       8.5588
   5702.1000      16.3573       2.3105       0.2478     364.6675       8.6341
   5702.2500      15.5063       2.3061       0.2473     329.8074       8.5836
   5702.4000      15.3964       2.2942       0.2540     411.6766       8.5616
   5702.5500      16.7455       2.2991       0.2644     394.1939       8.6649
   5702.7000      16.4250       2.3092       0.2658     395.8213       8.6649
   5702.8500      16.0991       2.2878       0.2507     387.5167       8.5734
   5703.0000      16.8226       2.3103       0.2470     443.5770       8.5830
   5703.1500      16.1859       2.3217       0.2443     423.9941       8.4927
   5703.3000      17.0587       2.3374       0.2554     388.1548       8.4401
   5703.4500      17.0283       2.2987       0.2675     385.9025       8.4710
   5703.6000      18.1977       2.2972       0.2670     379.6956       8.4718
   5703.7500      18.2385       2.2982       0.2646     361.5241       8.4424
   5703.9000      18.5889       2.2978       0.2597     343.5130       8.4812
   5704.0500      18.7211       2.2848       0.2573     350.1889       8.5184
   5704.2000      18.8653       2.2933       0.2625     376.2865       8.6016
   5704.3500      18.9662       2.2889       0.2593     356.6935       8.7215
   5704.5000      19.5679       2.3058       0.2500     364.8040       8.7343
   5704.6500      19.7165       2.3156       0.2494     383.2886       8.7947
   5704.8000      19.9061       2.3226       0.2376     439.2063       8.7947
   5704.9500      19.7511       2.3136       0.2356     422.2085       8.7408
