~VERSION -------------------------------------------
 VERS.                 2.0 : CWLS LOG ASCII STANDARD - VERSION 2.0
 WRAP.                  NO : ONE LINE PER DEPTH STEP
~WELL -----------------------------------------------
 WELL.                SANTOS-1 : Well name
 UWI .                BR-SAN-001        : Unique Well ID
 LAT .                -24.1234        : Latitude
 LON .                -41.9876        : Longitude
 STRT.M               4500.00 : START DEPTH
 STOP.M               6499.95 : STOP DEPTH
 STEP.M               0.1500 : STEP
 NULL.                -9999 : NULL VALUE
~CURVE -----------------------------------------------
 DEPTH .M               : Depth
 GR    .GAPI            : Gamma Ray
 RHOB  .G/C3            : Bulk Density
 NPHI  .V/V             : Neutron Porosity
 RT    .OHMM            : Resistivity
 CALI  .IN              : Caliper
~A  DEPTH              GR        RHOB        NPHI          RT        CALI
# ...
   4901.7000      17.6861       2.3147       0.2153     283.8166       8.6125
   4901.8500      17.8565       2.3359       0.2196     287.1396       8.5375
   4902.0000      17.6481       2.3354       0.2272     286.2854       8.6081
   4902.1500      17.5934       2.2978       0.2313     276.5862       8.6106
   4902.3000      17.5871       2.3115       0.2301     234.1735       8.6591
   4902.4500      18.1721       2.3249       0.2303     234.7872       8.6904
   4902.6000      18.2843       2.3362       0.2381     248.6250       8.6980
   4902.7500      19.1699       2.3103       0.2449     247.6600       8.6978
   4902.9000      19.8487       2.3086       0.2442     289.3745       8.6978
   4903.0500      19.6476       2.3020       0.2341     224.3149       8.7054
   4903.2000      18.4789       2.3208       0.2280     263.4411       8.6521
   4903.3500      19.3090       2.3288       0.2360     261.3392       8.6620
   4903.5000      19.7826       2.3351       0.2360     292.7165       8.5551
   4903.6500      19.7920       2.3383       0.2411     339.4560       8.5124
   4903.8000      21.1418       2.3398       0.2414     372.8400       8.3784
   4903.9500      22.1134       2.3591       0.2310     391.0210       8.2607
   4904.1000      21.7555       2.3670       0.2335     465.9363       8.2102
   4904.2500      22.0408       2.3494       0.2346     414.2575       8.1010
   4904.4000      22.2518       2.3393       0.2355     416.8139       8.1232
   4904.5500      22.2847       2.3375       0.2317     431.1797       8.1156
   4904.7000      22.1949       2.3210       0.2323     439.7562       8.2239
   4904.8500      21.6432       2.3075       0.2325     406.0275       8.2957
   4905.0000      21.4264       2.2991       0.2300     457.3284       8.2957
   4905.1500      20.9564       2.3137       0.2288     433.9274       8.3400
   4905.3000      20.8004       2.2911       0.2260     460.7924       8.4456
   4905.4500      19.5210       2.2811       0.2258     417.2029       8.5746
   4905.6000      19.9383       2.2650       0.2196     489.8507       8.5663
   4905.7500      18.9190       2.2811       0.2223     514.9207       8.5690
   4905.9000      18.2402       2.2814       0.2168     432.0496       8.6955
   4906.0500      17.8598       2.3006       0.2248     503.0263       8.6955
   4906.2000      18.8191       2.2983       0.2283     456.5511       8.6750
   4906.3500      18.0837       2.2987       0.2242     494.3028       8.6010
   4906.5000      18.6290       2.2887       0.2229     499.2943       8.6307
   4906.6500      18.4939       2.2790       0.2262     458.3981       8.6012
   4906.8000      17.8966       2.2749       0.2285     472.9163       8.5419
   4906.9500      16.8462       2.2711       0.2264     457.7686       8.4629
   4907.1000      16.6518       2.2662       0.2315     422.6896       8.4327
   4907.2500      17.2578       2.2725       0.2263     464.0752       8.4779
   4907.4000      17.4749       2.2935       0.2147     454.2487       8.3425
   4907.5500      17.5654       2.2638       0.2273     446.3230       8.3859
   4907.7000      18.0362       2.2664       0.2266     454.3032       8.3729
   4907.8500      18.1543       2.2784       0.2214     528.8201       8.3663
   4908.0000      18.3290       2.2828       0.2143     554.9423       8.3713
   4908.1500      18.0573       2.2910       0.2150     589.2612       8.3709
   4908.3000      18.2119       2.3075       0.2159     565.4229       8.3737
   4908.4500      19.4808       2.3105       0.2139     591.6888       8.3687
   4908.6000      19.0711       2.3164       0.2159     556.1735       8.4387
   4908.7500      19.1112       2.3249       0.2054     519.5466       8.4449
   4908.9000      19.9373       2.3109       0.2049     552.5572       8.5742
   4909.0500      20.1364       2.2988       0.2041     485.8564       8.6012
   4909.2000      19.6847       2.2950       0.2071     556.6505       8.5809
   4909.3500      20.8991       2.2949       0.2073     536.2748       8.6146
   4909.5000      19.8704       2.2997       0.2006     548.5245       8.7151
   4909.6500      19.2560       2.3064       0.1931     543.1983       8.8157
   4909.8000      18.6953       2.3171       0.1915     542.7387       8.8642
   4909.9500      19.3552       2.3094       0.1995     579.6029       8.8688
   4910.1000      19.1753       2.3113       0.1937     524.8934       8.8859
   4910.2500      19.1989       2.3103       0.1989     554.6327       8.8767
   4910.4000      18.4771       2.3050       0.2166     607.7354       8.8181
   4910.5500      18.0696       2.3220       0.2080     585.1088       8.7956
   4910.7000      17.8214       2.3349       0.2082     541.1729       8.7849
   4910.8500      17.7066       2.3222       0.2108     504.5404       8.7586
   4911.0000      17.7879       2.3207       0.2144     462.7712       8.6857
   4911.1500      18.0342       2.3177       0.2148     486.9442       8.6674
   4911.3000      18.8694       2.3225       0.2211     494.4425       8.6465
   4911.4500      18.6468       2.3250       0.2198     526.4284       8.6173
   4911.6000      18.6758       2.3428       0.2236     516.7865       8.5778
   4911.7500      20.4266       2.3310       0.2324     536.9244       8.5328
   4911.9000      20.4614       2.3287       0.2350     542.4505       8.4781
   4912.0500      20.9744       2.3302       0.2463     624.0357       8.4481
   4912.2000      21.3508       2.3154       0.2431     630.3062       8.4042
   4912.3500      20.4046       2.2950       0.2458     568.5137       8.4082
   4912.5000      21.0118       2.2976       0.2568     602.8666       8.4822
   4912.6500      21.2348       2.3005       0.2611     738.0900       8.4332
   4912.8000      21.8388       2.2815       0.2611     667.9558       8.4333
   4912.9500      21.1013       2.2935       0.2631     561.6529       8.4644
   4913.1000      20.8430       2.2940       0.2535     600.5660       8.4518
   4913.2500      20.1576       2.3086       0.2472     547.5307       8.5634
   4913.4000      19.7207       2.3242       0.2395     504.7861       8.6645
   4913.5500      19.2595       2.3334       0.2416     520.5580       8.6467
   4913.7000      19.0532       2.3253       0.2335     538.5956       8.7607
   4913.8500      19.5786       2.3270       0.2337     527.4430       8.7871
   4914.0000      18.5552       2.3197       0.2331     472.6465       8.6509
   4914.1500      18.6983       2.3197       0.2337     451.9091       8.6361
   4914.3000      18.2018       2.3085       0.2365     464.2405       8.5851
   4914.4500      17.9695       2.2931       0.2372     440.4571       8.6199
   4914.6000      18.7763       2.2859       0.2314     453.0394       8.6588
   4914.7500      18.3669       2.2903       0.2260     430.3986       8.5812
   4914.9000      18.9822       2.2937       0.2225     397.7450       8.5375
   4915.0500      18.2701       2.2893       0.2114     375.2660       8.5591
   4915.2000      18.2035       2.2907       0.2091     335.8665       8.4758
   4915.3500      18.7234       2.3060       0.2102     358.7901       8.5597
   4915.5000      18.1549       2.3077       0.2045     344.1390       8.5597
   4915.6500      18.4527       2.3144       0.2049     295.2811       8.6189
   4915.8000      18.1789       2.3238       0.2076     358.8183       8.5719
   4915.9500      19.1162       2.3049       0.2086     414.1680       8.5563
   4916.1000      20.1630       2.3030       0.2131     424.0406       8.5386
   4916.2500      20.3353       2.2890       0.2201     474.3226       8.5242
   4916.4000      20.6166       2.2664       0.2206     493.9377       8.4851
   4916.5500      21.2458       2.2560       0.2238     498.0298       8.4673
   4916.7000      21.5248       2.2482       0.2233     445.8020       8.5140
   4916.8500      21.3620       2.2587       0.2269     427.2012       8.4553
   4917.0000      21.3620       2.2690       0.2266     477.3487       8.5679
