~VERSION -------------------------------------------
 VERS.                 2.0 : CWLS LOG ASCII STANDARD - VERSION 2.0
 WRAP.                  NO : ONE LINE PER DEPTH STEP
~WELL -----------------------------------------------
 WELL.                SANTOS-1 : Well name
 UWI .                BR-SAN-001        : Unique Well ID
 LAT .                -24.1234        : Latitude
 LON .                -41.9876        : Longitude
 STRT.M               4500.00 : START DEPTH
 STOP.M               6499.95 : STOP DEPTH
 STEP.M               0.1500 : STEP
 NULL.                -9999 : NULL VALUE
~CURVE -----------------------------------------------
 DEPTH .M               : Depth
 GR    .GAPI            : Gamma Ray
 RHOB  .G/C3            : Bulk Density
 NPHI  .V/V             : Neutron Porosity
 RT    .OHMM            : Resistivity
 CALI  .IN              : Caliper
~A  DEPTH              GR        RHOB        NPHI          RT        CALI
# ...
   5025.3000       7.9747       2.1849       0.0000   13014.2392       8.3416
   5025.4500       9.8856       2.1452       0.0122   11892.5260       8.3607
   5025.6000      10.5308       2.1453       0.0228   12361.0206       8.3465
   5025.7500       5.6854       2.1846       0.0181   13491.8291       8.3262
   5025.9000       7.3236       2.1470       0.0000   13491.8291       8.3875
   5026.0500       5.2984       2.1763       0.0063   12936.3443       8.3213
   5026.2000       7.6257       2.1380       0.0076   13896.9852       8.2981
   5026.3500       6.5506       2.1655       0.0000   13579.0008       8.2901
   5026.5000       7.4016       2.1552       0.0044   14639.6036       8.3040
   5026.6500       6.8202       2.1818       0.0006   15236.5996       8.3820
   5026.8000       9.6602       2.1367       0.0260   14534.3591       8.4148
   5026.9500      13.3613       2.1881       0.0122   14545.8464       8.3313
   5027.1000       7.0322       2.1721       0.0250   14228.6891       8.3876
   5027.2500       9.8749       2.1871       0.0129   15788.8945       8.4190
   5027.4000       6.3196       2.1544       0.0245   14116.2161       8.3698
   5027.5500       3.0000       2.1861       0.0000   13687.0365       8.4142
   5027.7000       8.5066       2.1584       0.0230   13647.7994       8.4301
   5027.8500       8.5365       2.1985       0.0092   13154.2804       8.4261
   5028.0000      13.4130       2.1373       0.0090   12271.9109       8.4762
   5028.1500       9.6953       2.1376       0.0204   13147.1010       8.4457
   5028.3000       6.9236       2.1684       0.0095   13649.9014       8.4855
   5028.4500       3.0000       2.1730       0.0151   15681.9153       8.4855
   5028.6000       8.7755       2.1737       0.0011   13655.4805       8.3971
   5028.7500      10.7143       2.1818       0.0293   11367.7811       8.4110
   5028.9000      15.7339       2.1418       0.0021   11367.7811       8.4519
   5029.0500       8.3061       2.2045       0.0000   11770.6175       8.4527
   5029.2000      10.2892       2.1680       0.0013   11770.6175       8.5728
   5029.3500       8.1551       2.1851       0.0000   12522.6064       8.6526
   5029.5000       9.9745       2.1714       0.0000   11176.3627       8.6391
   5029.6500       8.9312       2.1893       0.0110   11421.7012       8.6103
   5029.8000       4.0558       2.2428       0.0000   11973.5508       8.5893
   5029.9500       8.1166       2.1497       0.0031   11402.4166       8.5997
   5030.1000       7.2192       2.1718       0.0000   11238.5800       8.6535
   5030.2500       8.5208       2.1662       0.0258   12227.1488       8.6227
   5030.4000      10.5820       2.1959       0.0151   12561.7634       8.6897
   5030.5500      10.4113       2.1837       0.0000   13195.0117       8.6848
   5030.7000       6.8009       2.1904       0.0082   12315.8478       8.6059
   5030.8500       8.5351       2.1615       0.0081   11101.8003       8.5348
   5031.0000       5.9011       2.1852       0.0084   11940.9292       8.5658
   5031.1500       4.3598       2.1522       0.0136   11940.9292       8.5470
   5031.3000       6.1502       2.1589       0.0000   12525.6456       8.6121
   5031.4500       7.3172       2.1923       0.0002   12525.6456       8.6813
   5031.6000       9.2203       2.1886       0.0049   12843.3150       8.6306
   5031.7500      16.5557       2.1907       0.0152   15066.2753       8.5667
   5031.9000       9.2394       2.1527       0.0064   15066.2753       8.4468
   5032.0500       4.6917       2.1847       0.0121   15175.4513       8.4921
   5032.2000       8.5685       2.1502       0.0000   14553.2943       8.5379
   5032.3500       7.4250       2.1711       0.0026   14553.2943       8.5529
   5032.5000      11.7479       2.1863       0.0171   16306.3047       8.5578
   5032.6500       6.1972       2.1771       0.0154   16437.2755       8.6441
   5032.8000       9.0698       2.1942       0.0130   14915.5553       8.5276
   5032.9500      11.2876       2.1390       0.0178   16136.7451       8.4480
   5033.1000       7.8079       2.1613       0.0158   15876.5055       8.5055
   5033.2500       6.1106       2.1438       0.0048   15463.0520       8.5040
   5033.4000      10.6966       2.1621       0.0156   16128.9487       8.5040
   5033.5500       7.3013       2.1696       0.0113   16128.9487       8.5402
   5033.7000      12.8876       2.1706       0.0074   16270.6364       8.5260
   5033.8500       7.6237       2.1874       0.0061   18156.9209       8.4575
   5034.0000       7.6404       2.1887       0.0206   18177.5642       8.3573
   5034.1500       9.8081       2.1600       0.0174   16512.3547       8.2973
   5034.3000       8.6769       2.1791       0.0053   15998.9138       8.2973
   5034.4500       4.5532       2.2033       0.0032   15806.1344       8.3849
   5034.6000       6.1222       2.2022       0.0047   16874.4981       8.3243
   5034.7500       6.2143       2.1706       0.0175   16418.4842       8.3735
   5034.9000       3.9801       2.1813       0.0001   16321.6637       8.4164
   5035.0500       5.6638       2.1694       0.0089   15167.0712       8.4159
   5035.2000       8.7163       2.1238       0.0165   15678.2324       8.3321
   5035.3500       9.9694       2.1448       0.0143   14910.9584       8.3321
   5035.5000       7.6350       2.1599       0.0147   14779.9405       8.3785
   5035.6500      10.6038       2.1613       0.0000   14779.9405       8.3522
   5035.8000       5.5138       2.1622       0.0140   16287.8249       8.4345
   5035.9500      13.5504       2.1552       0.0025   16391.6839       8.3498
   5036.1000      11.8857       2.1691       0.0055   17466.0861       8.4289
   5036.2500      10.1821       2.1653       0.0000   17933.0970       8.4412
   5036.4000       9.0615       2.1556       0.0199   17329.3561       8.4597
   5036.5500       3.0000       2.1573       0.0156   17329.3561       8.3385
   5036.7000      12.3979       2.1564       0.0034   17672.2956       8.4280
   5036.8500       5.7798       2.1925       0.0140   18333.8198       8.4867
   5037.0000       7.5743       2.1806       0.0179   18290.8348       8.5209
   5037.1500       6.5321       2.1615       0.0226   19908.4451       8.5430
   5037.3000       7.4550       2.1849       0.0155   20547.3516       8.4907
   5037.4500       7.9637       2.1607       0.0053   18935.7482       8.5119
   5037.6000      14.5904       2.1653       0.0000   18627.3421       8.4719
   5037.7500       7.4705       2.1645       0.0316   18489.0897       8.4104
   5037.9000       7.5450       2.1929       0.0066   17691.7882       8.3740
   5038.0500       9.7482       2.1754       0.0098   19038.5747       8.4277
   5038.2000       8.7958       2.1618       0.0142   19205.2234       8.3406
   5038.3500      10.0821       2.1969       0.0190   20098.6696       8.3354
   5038.5000      12.5336       2.1664       0.0084   19751.9222       8.4506
   5038.6500       6.8978       2.1488       0.0198   19751.9222       8.4768
   5038.8000      11.9709       2.1564       0.0359   18605.3739       8.5508
   5038.9500       8.0529       2.1384       0.0076   19340.6574       8.6934
   5039.1000       6.2178       2.1558       0.0161   19340.6574       8.7787
   5039.2500       5.5887       2.1611       0.0012   19340.6574       8.8988
   5039.4000       9.7449       2.1475       0.0066   19986.4831       8.9501
   5039.5500       9.2682       2.1554       0.0027   18409.0174       8.9137
   5039.7000       7.4698       2.1490       0.0001   19227.1028       9.0094
   5039.8500       9.3926       2.1887       0.0002   18897.5514       8.9709
   5040.0000       6.4700       2.1375       0.0242   18276.2733       8.9427
   5040.1500      12.9500       2.1448       0.0276   17646.6593       8.9825
   5040.3000       6.0399       2.1710       0.0233   17646.6593       8.8784
   5040.4500       8.1177       2.1376       0.0093   18760.7960       8.7661
   5040.6000       3.0000       2.1727       0.0189   18553.5451       8.7218
