~VERSION -------------------------------------------
 VERS.                 2.0 : CWLS LOG ASCII STANDARD - VERSION 2.0
 WRAP.                  NO : ONE LINE PER DEPTH STEP
~WELL -----------------------------------------------
 WELL.                SANTOS-1 : Well name
 UWI .                BR-SAN-001        : Unique Well ID
 LAT .                -24.1234        : Latitude
 LON .                -41.9876        : Longitude
 STRT.M               4500.00 : START DEPTH
 STOP.M               6499.95 : STOP DEPTH
 STEP.M               0.1500 : STEP
 NULL.                -9999 : NULL VALUE
~CURVE -----------------------------------------------
 DEPTH .M               : Depth
 GR    .GAPI            : Gamma Ray
 RHOB  .G/C3            : Bulk Density
 NPHI  .V/V             : Neutron Porosity
 RT    .OHMM            : Resistivity
 CALI  .IN              : Caliper
~A  DEPTH              GR        RHOB        NPHI          RT        CALI
# ...
   6477.6000      21.4352       2.3129       0.2298     421.2919       8.3776
   6477.7500      20.3821       2.3074       0.2284     489.8820       8.4243
   6477.9000      20.4521       2.3088       0.2362     521.8914       8.4976
   6478.0500      20.1947       2.3005       0.2406     577.8414       8.3930
   6478.2000      20.4749       2.2825       0.2426     651.0369       8.3974
   6478.3500      20.3824       2.2966       0.2386     633.3095       8.3462
   6478.5000      19.3559       2.2964       0.2399     517.4984       8.4214
   6478.6500      19.3975       2.3150       0.2381     509.4514       8.4698
   6478.8000      19.4958       2.3192       0.2430     530.7359       8.4524
   6478.9500      20.2361       2.3050       0.2395     497.7273       8.4045
   6479.1000      19.4053       2.3022       0.2471     452.3410       8.5200
   6479.2500      19.1228       2.2931       0.2508     490.2444       8.4572
   6479.4000      19.2031       2.2941       0.2506     489.1710       8.3465
   6479.5500      19.6278       2.2808       0.2426     517.7205       8.3465
   6479.7000      19.1871       2.2854       0.2454     491.7461       8.3519
   6479.8500      18.5293       2.2989       0.2410     533.8344       8.3736
   6480.0000      18.2815       2.2963       0.2373     510.0047       8.3089
   6480.1500      18.3669       2.2816       0.2370     523.6443       8.3209
   6480.3000      18.4567       2.2726       0.2300     481.5872       8.3426
   6480.4500      18.2566       2.2596       0.2321     478.4087       8.4152
   6480.6000      19.3350       2.2640       0.2225     525.2136       8.2812
   6480.7500      19.9384       2.2795       0.2221     489.4008       8.3726
   6480.9000      18.7352       2.2640       0.2219     441.6544       8.4279
   6481.0500      18.2183       2.2713       0.2183     373.1030       8.4629
   6481.2000      17.8114       2.2775       0.2177     401.3353       8.4530
   6481.3500      17.1967       2.2548       0.2200     364.1750       8.4866
   6481.5000      16.9662       2.2648       0.2176     438.6601       8.5425
   6481.6500      17.0579       2.2570       0.2211     500.1293       8.5525
   6481.8000      17.3323       2.2624       0.2218     506.6249       8.5183
   6481.9500      16.4611       2.2796       0.2217     550.9822       8.5316
   6482.1000      16.4730       2.2791       0.2190     603.0840       8.5316
   6482.2500      17.5215       2.3066       0.2154     609.7563       8.4788
   6482.4000      16.8535       2.3131       0.2179     647.3649       8.5404
   6482.5500      17.3294       2.3153       0.2210     618.1072       8.5632
   6482.7000      17.4604       2.3220       0.2207     639.5881       8.5668
   6482.8500      17.7341       2.3283       0.2225     646.2568       8.5056
   6483.0000      17.8186       2.3407       0.2254     730.7936       8.4347
   6483.1500      18.3542       2.3561       0.2216     629.6526       8.3804
   6483.3000      18.7780       2.3730       0.2254     632.7702       8.4245
   6483.4500      19.0936       2.3754       0.2211     670.5682       8.4119
   6483.6000      17.4417       2.3552       0.2206     592.3377       8.4919
   6483.7500      17.8626       2.3551       0.2278     565.8567       8.5156
   6483.9000      19.0457       2.3715       0.2228     657.4267       8.4753
   6484.0500      19.6039       2.3516       0.2182     704.8797       8.5218
   6484.2000      19.1432       2.3364       0.2249     562.0416       8.5944
   6484.3500      19.7727       2.3475       0.2274     619.4427       8.6578
   6484.5000      20.4850       2.3527       0.2262     588.7379       8.6934
   6484.6500      19.5016       2.3474       0.2224     547.6739       8.7225
   6484.8000      18.5613       2.3305       0.2204     527.4967       8.6978
   6484.9500      19.3888       2.3135       0.2255     579.1160       8.6591
   6485.1000      19.5450       2.3116       0.2238     527.3721       8.7741
   6485.2500      19.2357       2.3024       0.2204     473.9095       8.7277
   6485.4000      19.2357       2.2997       0.2179     440.0241       8.6908
   6485.5500      19.1279       2.2850       0.2100     496.7313       8.5916
   6485.7000      19.4093       2.2764       0.2077     486.6825       8.6744
   6485.8500      20.1104       2.2509       0.2139     411.7282       8.6818
   6486.0000      21.0794       2.2365       0.2157     426.2664       8.7444
   6486.1500      21.5921       2.2353       0.2196     464.8521       8.8371
   6486.3000      20.4554       2.2285       0.2157     442.5446       8.8635
   6486.4500      19.9018       2.2178       0.2104     426.4821       8.9181
   6486.6000      21.6104       2.2310       0.2139     436.3809       8.8455
   6486.7500      21.6361       2.2427       0.2043     439.9181       8.8657
   6486.9000      21.3449       2.2540       0.1985     392.9898       8.8591
   6487.0500      22.0486       2.2795       0.2028     459.3907       8.9177
   6487.2000      21.5939       2.2926       0.1935     452.1807       8.7950
   6487.3500      21.2845       2.2794       0.1891     446.4385       8.7439
   6487.5000      21.4689       2.2774       0.1905     476.8375       8.6708
   6487.6500      22.0549       2.2881       0.2003     449.4190       8.5858
   6487.8000      21.7720       2.2915       0.2015     458.6544       8.5726
   6487.9500      21.7477       2.3076       0.1940     389.1661       8.4939
   6488.1000      21.9149       2.3153       0.1965     437.3572       8.4001
   6488.2500      22.0232       2.3025       0.2025     424.7696       8.3967
   6488.4000      22.3318       2.3060       0.1946     447.0128       8.3636
   6488.5500      21.7011       2.3240       0.1992     392.5158       8.3556
   6488.7000      21.2342       2.3370       0.2019     392.4767       8.3265
   6488.8500      19.9779       2.3600       0.1993     425.9332       8.4384
   6489.0000      20.1354       2.3739       0.1962     440.8140       8.4602
   6489.1500      19.8452       2.3695       0.1888     389.4955       8.4569
   6489.3000      20.0013       2.3598       0.1920     445.0082       8.4794
   6489.4500      19.6303       2.3901       0.1953     486.9241       8.4689
   6489.6000      19.0415       2.4012       0.1837     583.7569       8.5034
   6489.7500      19.1118       2.4024       0.1880     620.8445       8.5032
   6489.9000      18.7175       2.3889       0.1951     669.3236       8.5744
   6490.0500      17.4886       2.3701       0.1972     601.1402       8.5620
   6490.2000      17.9350       2.3701       0.2065     674.5238       8.5801
   6490.3500      17.7711       2.3709       0.2127     622.3529       8.4485
   6490.5000      17.6649       2.3598       0.2132     673.1547       8.3866
   6490.6500      18.2639       2.3555       0.2105     775.1332       8.4259
   6490.8000      19.4085       2.3511       0.2180     717.0314       8.3732
   6490.9500      19.0928       2.3562       0.2241     717.0324       8.4314
   6491.1000      18.5358       2.3546       0.2220     728.1327       8.4186
   6491.2500      18.5750       2.3633       0.2200     762.5506       8.3863
   6491.4000      19.0844       2.3663       0.2318     756.9139       8.3257
   6491.5500      18.8046       2.3730       0.2244     780.1161       8.3587
   6491.7000      18.7829       2.3603       0.2187     812.5473       8.4312
   6491.8500      19.1447       2.3514       0.2196     889.8930       8.4794
   6492.0000      17.9338       2.3330       0.2210     747.1424       8.4794
   6492.1500      17.4436       2.3358       0.2284     885.7790       8.4643
   6492.3000      17.9844       2.3464       0.2303     718.8384       8.5489
   6492.4500      18.4240       2.3455       0.2297     665.6776       8.5523
   6492.6000      18.4949       2.3431       0.2379     560.7754       8.5324
   6492.7500      18.3418       2.3252       0.2380     566.0060       8.5324
   6492.9000      17.8441       2.3415       0.2404     536.0823       8.5682
