~VERSION -------------------------------------------
 VERS.                 2.0 : CWLS LOG ASCII STANDARD - VERSION 2.0
 WRAP.                  NO : ONE LINE PER DEPTH STEP
~WELL -----------------------------------------------
 WELL.                SANTOS-1 : Well name
 UWI .                BR-SAN-001        : Unique Well ID
 LAT .                -24.1234        : Latitude
 LON .                -41.9876        : Longitude
 STRT.M               4500.00 : START DEPTH
 STOP.M               6499.95 : STOP DEPTH
 STEP.M               0.1500 : STEP
 NULL.                -9999 : NULL VALUE
~CURVE -----------------------------------------------
 DEPTH .M               : Depth
 GR    .GAPI            : Gamma Ray
 RHOB  .G/C3            : Bulk Density
 NPHI  .V/V             : Neutron Porosity
 RT    .OHMM            : Resistivity
 CALI  .IN              : Caliper
~A  DEPTH              GR        RHOB        NPHI          RT        CALI
# ...
   6075.9000      18.1624       2.3234       0.2341     434.2661       8.6523
   6076.0500      18.6098       2.3174       0.2324     438.8360       8.7104
   6076.2000      17.5909       2.3085       0.2314     443.9855       8.7887
   6076.3500      16.7529       2.3276       0.2334     463.1494       8.7489
   6076.5000      16.4925       2.3054       0.2328     406.4010       8.7351
   6076.6500      15.8555       2.3139       0.2339     405.9310       8.6570
   6076.8000      16.8451       2.2974       0.2297     398.3900       8.6074
   6076.9500      17.6086       2.3004       0.2354     459.3411       8.6237
   6077.1000      16.7813       2.2979       0.2416     442.8027       8.5830
   6077.2500      16.3236       2.3098       0.2407     446.3480       8.6027
   6077.4000      15.6797       2.3014       0.2523     388.1168       8.4564
   6077.5500      14.9963       2.3059       0.2472     441.8077       8.4087
   6077.7000      16.0352       2.2978       0.2444     421.5033       8.2814
   6077.8500      15.3455       2.3298       0.2429     396.2112       8.2881
   6078.0000      15.9526       2.3336       0.2352     439.6488       8.2948
   6078.1500      15.9765       2.3335       0.2443     444.2894       8.2948
   6078.3000      16.7585       2.3458       0.2474     460.5953       8.3817
   6078.4500      17.0736       2.3437       0.2448     526.0141       8.4146
   6078.6000      16.6981       2.3318       0.2367     468.9325       8.4083
   6078.7500      18.0859       2.3172       0.2374     505.3762       8.3886
   6078.9000      18.3677       2.3076       0.2481     529.5977       8.4581
   6079.0500      17.4599       2.3361       0.2547     595.6974       8.5051
   6079.2000      18.6371       2.3505       0.2620     526.3632       8.5383
   6079.3500      19.8485       2.3510       0.2506     499.7727       8.5591
   6079.5000      19.7469       2.3719       0.2528     593.9141       8.5596
   6079.6500      19.7239       2.3627       0.2561     565.1534       8.6462
   6079.8000      19.7936       2.3559       0.2645     585.4500       8.6143
   6079.9500      19.9663       2.3600       0.2671     460.8466       8.5295
   6080.1000      19.8429       2.3703       0.2652     533.8810       8.5568
   6080.2500      19.9220       2.3659       0.2631     523.8835       8.5568
   6080.4000      20.0738       2.3910       0.2598     429.4785       8.5329
   6080.5500      20.1406       2.3805       0.2545     406.0168       8.4390
   6080.7000      20.0404       2.3753       0.2533     442.8244       8.4839
   6080.8500      20.6904       2.3567       0.2488     441.4783       8.3913
   6081.0000      20.9326       2.3564       0.2410     408.9233       8.3774
   6081.1500      20.4106       2.3518       0.2334     343.5548       8.3459
   6081.3000      21.1985       2.3652       0.2298     343.6217       8.2585
   6081.4500      20.6456       2.3566       0.2356     306.2371       8.3359
   6081.6000      20.5606       2.3533       0.2385     324.6103       8.3602
   6081.7500      19.4209       2.3506       0.2330     312.4420       8.3941
   6081.9000      19.8530       2.3491       0.2288     273.8828       8.4372
   6082.0500      20.4916       2.3360       0.2360     263.8113       8.4985
   6082.2000      19.8327       2.3227       0.2281     289.2772       8.4713
   6082.3500      18.8795       2.3173       0.2312     266.7813       8.5274
   6082.5000      20.1820       2.3097       0.2324     250.0656       8.4945
   6082.6500      20.7466       2.2950       0.2310     272.6630       8.4886
   6082.8000      20.9065       2.3182       0.2255     321.0250       8.5492
   6082.9500      21.7116       2.3191       0.2244     329.7844       8.5268
   6083.1000      22.5980       2.3173       0.2217     280.4148       8.4576
   6083.2500      23.1960       2.3111       0.2221     333.6508       8.4920
   6083.4000      22.4035       2.2961       0.2249     382.7042       8.4239
   6083.5500      22.2667       2.2850       0.2250     385.2074       8.4498
   6083.7000      23.0384       2.2903       0.2207     373.0370       8.3968
   6083.8500      22.9169       2.2851       0.2180     416.9113       8.4659
   6084.0000      21.8099       2.2774       0.2326     446.3428       8.5076
   6084.1500      22.3532       2.2814       0.2383     538.7942       8.4585
   6084.3000      20.8313       2.2593       0.2482     562.7362       8.4504
   6084.4500      20.3433       2.2733       0.2363     582.3644       8.4836
   6084.6000      20.3584       2.2731       0.2431     549.0190       8.4836
   6084.7500      20.1184       2.2745       0.2431     570.9790       8.4591
   6084.9000      19.8327       2.2737       0.2362     633.4970       8.4386
   6085.0500      19.0652       2.2725       0.2335     662.3319       8.4738
   6085.2000      19.2715       2.2776       0.2413     660.2929       8.5267
   6085.3500      20.0342       2.2702       0.2415     724.4103       8.5095
   6085.5000      18.5500       2.2684       0.2413     733.2627       8.5442
   6085.6500      18.9116       2.2948       0.2381     704.7839       8.5442
   6085.8000      18.6701       2.2856       0.2361     583.0251       8.4918
   6085.9500      17.7612       2.2906       0.2292     633.3808       8.4064
   6086.1000      17.3038       2.3033       0.2264     642.0796       8.4289
   6086.2500      17.2660       2.3067       0.2216     539.4497       8.4417
   6086.4000      18.3493       2.3150       0.2132     518.4404       8.4436
   6086.5500      18.6634       2.3171       0.2115     567.3259       8.3779
   6086.7000      18.9488       2.3094       0.2281     534.6026       8.4036
   6086.8500      18.4664       2.3140       0.2296     534.1553       8.2959
   6087.0000      19.9391       2.3226       0.2241     566.0154       8.2358
   6087.1500      19.9818       2.3426       0.2181     549.5657       8.3586
   6087.3000      20.3739       2.3653       0.2081     575.5543       8.4415
   6087.4500      21.1066       2.3730       0.2177     515.0152       8.4641
   6087.6000      21.1545       2.3918       0.2121     529.2756       8.5461
   6087.7500      22.3178       2.3879       0.2133     514.8426       8.5151
   6087.9000      21.9056       2.3972       0.2168     511.1916       8.5801
   6088.0500      23.1904       2.3918       0.2098     421.8773       8.5235
   6088.2000      23.1606       2.3944       0.2010     439.7764       8.5280
   6088.3500      22.3620       2.3988       0.2086     397.1240       8.5750
   6088.5000      22.5208       2.4006       0.2104     390.6623       8.6136
   6088.6500      21.4962       2.4074       0.2151     436.9487       8.5165
   6088.8000      20.7439       2.4168       0.2161     446.9016       8.5626
   6088.9500      21.1152       2.4073       0.2178     409.8855       8.6335
   6089.1000      21.1140       2.3931       0.2227     417.0317       8.5434
   6089.2500      21.3963       2.4081       0.2267     428.2196       8.5376
   6089.4000      21.0396       2.3957       0.2212     426.6860       8.5334
   6089.5500      20.3813       2.4112       0.2260     401.3941       8.5334
   6089.7000      19.2131       2.4044       0.2145     393.1266       8.4959
   6089.8500      19.8369       2.4027       0.2205     364.8494       8.4912
   6090.0000      18.3642       2.4093       0.2198     298.2300       8.4959
   6090.1500      18.1306       2.3807       0.2170     307.9939       8.4902
   6090.3000      17.9214       2.3597       0.2228     315.0612       8.4274
   6090.4500      16.7901       2.3353       0.2244     367.9238       8.3657
   6090.6000      17.0161       2.3251       0.2232     377.1028       8.4176
   6090.7500      16.2833       2.3242       0.2228     419.1687       8.4476
   6090.9000      17.3135       2.3230       0.2275     409.9662       8.4304
   6091.0500      17.0820       2.3373       0.2291     437.2973       8.4804
   6091.2000      16.6284       2.3305       0.2314     450.3869       8.4347
