~VERSION -------------------------------------------
 VERS.                 2.0 : CWLS LOG ASCII STANDARD - VERSION 2.0
 WRAP.                  NO : ONE LINE PER DEPTH STEP
~WELL -----------------------------------------------
 WELL.                SANTOS-1 : Well name
 UWI .                BR-SAN-001        : Unique Well ID
 LAT .                -24.1234        : Latitude
 LON .                -41.9876        : Longitude
 STRT.M               4500.00 : START DEPTH
 STOP.M               6499.95 : STOP DEPTH
 STEP.M               0.1500 : STEP
 NULL.                -9999 : NULL VALUE
~CURVE -----------------------------------------------
 DEPTH .M               : Depth
 GR    .GAPI            : Gamma Ray
 RHOB  .G/C3            : Bulk Density
 NPHI  .V/V             : Neutron Porosity
 RT    .OHMM            : Resistivity
 CALI  .IN              : Caliper
~A  DEPTH              GR        RHOB        NPHI          RT        CALI
# ...
   5550.6000      21.5415       2.3431       0.2040     285.0292       8.6900
   5550.7500      21.6734       2.3314       0.2042     309.3299       8.6404
   5550.9000      22.7792       2.3231       0.1950     294.8867       8.6404
   5551.0500      22.4027       2.3187       0.1934     306.4690       8.6915
   5551.2000      22.9375       2.3324       0.2003     248.9260       8.7885
   5551.3500      22.1581       2.3583       0.1932     261.0854       8.7923
   5551.5000      21.7494       2.3450       0.1868     316.2686       8.8220
   5551.6500      21.3490       2.3458       0.1963     275.0339       8.7928
   5551.8000      20.7208       2.3219       0.1942     317.7471       8.6753
   5551.9500      19.6644       2.3132       0.2010     310.8138       8.6227
   5552.1000      19.0294       2.3115       0.2045     314.6078       8.6759
   5552.2500      18.6868       2.3075       0.2059     337.4629       8.6915
   5552.4000      17.5178       2.3064       0.2031     432.2993       8.7774
   5552.5500      15.8324       2.2977       0.2115     449.2314       8.7490
   5552.7000      15.9147       2.2985       0.2156     437.4685       8.6687
   5552.8500      15.3705       2.3104       0.2073     468.9722       8.5836
   5553.0000      15.6587       2.3087       0.2142     445.3501       8.5245
   5553.1500      16.3811       2.2818       0.2204     481.5363       8.5357
   5553.3000      14.8171       2.2808       0.2268     456.4210       8.5573
   5553.4500      14.4271       2.2954       0.2246     435.5172       8.4972
   5553.6000      14.6197       2.3180       0.2243     434.4395       8.4063
   5553.7500      14.5703       2.3160       0.2179     388.0469       8.5100
   5553.9000      14.6328       2.3134       0.2255     384.9815       8.5098
   5554.0500      15.0691       2.3167       0.2274     384.4021       8.5274
   5554.2000      14.7280       2.3140       0.2276     523.8292       8.5734
   5554.3500      14.6567       2.2996       0.2223     487.8197       8.6035
   5554.5000      15.2216       2.2948       0.2257     481.1111       8.6682
   5554.6500      16.6942       2.2900       0.2164     520.7207       8.6230
   5554.8000      16.3866       2.2995       0.2139     408.5363       8.5733
   5554.9500      17.2990       2.2879       0.2122     398.1096       8.5631
   5555.1000      17.1176       2.2821       0.2202     358.1914       8.5959
   5555.2500      17.0499       2.2884       0.2183     329.3433       8.4497
   5555.4000      18.2566       2.2887       0.2178     309.4954       8.4072
   5555.5500      18.8567       2.2899       0.2209     312.9005       8.3759
   5555.7000      19.6839       2.3074       0.2165     327.5104       8.3040
   5555.8500      20.7462       2.2960       0.2270     312.9612       8.3282
   5556.0000      21.1402       2.3025       0.2180     329.9892       8.2852
   5556.1500      19.9254       2.3015       0.2120     327.1016       8.2671
   5556.3000      20.0946       2.3129       0.2157     306.6840       8.3669
   5556.4500      20.4301       2.3067       0.2220     323.7736       8.3810
   5556.6000      19.8671       2.3110       0.2227     312.3564       8.3482
   5556.7500      19.4233       2.2996       0.2344     312.7684       8.3482
   5556.9000      18.3925       2.3073       0.2332     327.6447       8.4051
   5557.0500      17.9930       2.3002       0.2323     284.0108       8.4642
   5557.2000      18.0855       2.2850       0.2280     248.1318       8.5381
   5557.3500      18.2798       2.3034       0.2349     244.7497       8.6201
   5557.5000      17.7759       2.3152       0.2373     235.8725       8.5737
   5557.6500      16.3291       2.3205       0.2373     261.8633       8.6889
   5557.8000      15.9122       2.3209       0.2436     331.8935       8.6024
   5557.9500      15.2601       2.3285       0.2448     335.0434       8.6090
   5558.1000      15.0886       2.3358       0.2353     363.0601       8.7024
   5558.2500      15.7707       2.3307       0.2428     377.0655       8.7024
   5558.4000      14.7661       2.3298       0.2423     323.5695       8.6023
   5558.5500      14.9853       2.3214       0.2365     294.4399       8.5341
   5558.7000      14.6596       2.2961       0.2389     293.4336       8.4345
   5558.8500      13.5972       2.2894       0.2397     332.1241       8.2763
   5559.0000      12.9015       2.2858       0.2469     351.7694       8.2589
   5559.1500      12.6329       2.3061       0.2454     411.0836       8.2409
   5559.3000      13.5240       2.3107       0.2415     409.0183       8.2974
   5559.4500      14.6553       2.3082       0.2353     424.5237       8.3057
   5559.6000      15.7562       2.3007       0.2344     463.3919       8.2869
   5559.7500      16.2227       2.3187       0.2250     510.5693       8.4199
   5559.9000      16.6765       2.3059       0.2270     467.4419       8.4935
   5560.0500      17.5744       2.3131       0.2251     457.4097       8.5918
   5560.2000      16.9960       2.3251       0.2292     512.7880       8.6256
   5560.3500      17.0120       2.2906       0.2271     613.1351       8.7115
   5560.5000      17.2626       2.2899       0.2312     608.7859       8.7928
   5560.6500      17.7736       2.2921       0.2330     552.8777       8.6957
   5560.8000      17.9759       2.2908       0.2274     492.3086       8.7968
   5560.9500      17.9053       2.3020       0.2221     536.9148       8.7945
   5561.1000      17.5248       2.3213       0.2263     575.7312       8.7415
   5561.2500      17.0967       2.3267       0.2128     609.1931       8.6540
   5561.4000      17.6813       2.3176       0.2189     681.2093       8.7233
   5561.5500      17.4502       2.3181       0.2279     645.3248       8.6250
   5561.7000      17.0668       2.3198       0.2284     707.9078       8.6747
   5561.8500      18.2006       2.3380       0.2289     679.4391       8.6234
   5562.0000      18.3772       2.3310       0.2224     741.6201       8.6101
   5562.1500      18.9202       2.3258       0.2297     694.1367       8.6280
   5562.3000      18.8348       2.3261       0.2288     715.4531       8.5000
   5562.4500      18.6056       2.3217       0.2339     826.5184       8.4889
   5562.6000      17.9188       2.3124       0.2345     754.1645       8.5241
   5562.7500      18.2192       2.3169       0.2395     721.6813       8.4912
   5562.9000      18.0107       2.3329       0.2356     684.4639       8.4028
   5563.0500      17.2511       2.3226       0.2369     707.9502       8.4739
   5563.2000      17.8707       2.3108       0.2408     608.9691       8.5454
   5563.3500      18.1476       2.3324       0.2419     545.5863       8.5700
   5563.5000      17.7423       2.3378       0.2375     513.8394       8.5125
   5563.6500      18.4133       2.3318       0.2423     554.3984       8.5100
   5563.8000      18.4303       2.3408       0.2437     576.7646       8.4736
   5563.9500      18.1645       2.3227       0.2491     542.0886       8.4815
   5564.1000      19.0432       2.3119       0.2497     439.0533       8.4388
   5564.2500      19.5549       2.3112       0.2633     402.0519       8.5377
   5564.4000      19.0514       2.3071       0.2585     435.7514       8.5336
   5564.5500      18.4246       2.3058       0.2476     398.0032       8.4983
   5564.7000      19.2751       2.3113       0.2435     372.9140       8.3989
   5564.8500      18.8787       2.2989       0.2405     343.0671       8.4434
   5565.0000      19.8677       2.2945       0.2458     291.0744       8.4246
   5565.1500      19.7291       2.3031       0.2396     267.1358       8.4524
   5565.3000      19.5705       2.2938       0.2409     244.7786       8.5839
   5565.4500      18.0719       2.3109       0.2398     187.8352       8.5604
   5565.6000      17.8044       2.3051       0.2435     189.8402       8.5548
   5565.7500      17.3626       2.2967       0.2503     182.4053       8.5260
   5565.9000      18.3249       2.2876       0.2488     201.9619       8.4997
