~VERSION -------------------------------------------
 VERS.                 2.0 : CWLS LOG ASCII STANDARD - VERSION 2.0
 WRAP.                  NO : ONE LINE PER DEPTH STEP
~WELL -----------------------------------------------
 WELL.                SANTOS-1 : Well name
 UWI .                BR-SAN-001        : Unique Well ID
 LAT .                -24.1234        : Latitude
 LON .                -41.9876        : Longitude
 STRT.M               4500.00 : START DEPTH
 STOP.M               6499.95 : STOP DEPTH
 STEP.M               0.1500 : STEP
 NULL.                -9999 : NULL VALUE
~CURVE -----------------------------------------------
 DEPTH .M               : Depth
 GR    .GAPI            : Gamma Ray
 RHOB  .G/C3            : Bulk Density
 NPHI  .V/V             : Neutron Porosity
 RT    .OHMM            : Resistivity
 CALI  .IN              : Caliper
~A  DEPTH              GR        RHOB        NPHI          RT        CALI
# ...
   6214.9500      15.6148       2.4198       0.2217     760.4716       8.3760
   6215.1000      15.1838       2.3948       0.2218     705.1973       8.4104
   6215.2500      15.7478       2.3629       0.2225     731.5233       8.4044
   6215.4000      16.0390       2.3773       0.2259     734.6153       8.4083
   6215.5500      15.0048       2.3748       0.2289     694.5176       8.5151
   6215.7000      15.2735       2.3881       0.2176     738.1029       8.5459
   6215.8500      14.8782       2.4020       0.2250     864.3477       8.6069
   6216.0000      14.6348       2.4182       0.2189     703.2993       8.6122
   6216.1500      14.8388       2.3961       0.2148     738.7680       8.5660
   6216.3000      14.0598       2.4035       0.2104     682.2367       8.5401
   6216.4500      13.8091       2.3949       0.2099     625.9375       8.6801
   6216.6000      14.5518       2.3652       0.2096     727.9684       8.6489
   6216.7500      14.6990       2.3471       0.2088     744.2738       8.6088
   6216.9000      15.1436       2.3346       0.2158     734.8229       8.6176
   6217.0500      15.6940       2.3113       0.2192     768.0719       8.5179
   6217.2000      15.1374       2.2988       0.2128     741.1927       8.5668
   6217.3500      14.6717       2.2949       0.2052     696.2681       8.5624
   6217.5000      15.6421       2.3027       0.1985     688.4129       8.5804
   6217.6500      17.1053       2.3106       0.1937     667.6933       8.6203
   6217.8000      16.4966       2.3133       0.2018     671.5146       8.6093
   6217.9500      16.3425       2.3148       0.1992     708.9284       8.5117
   6218.1000      15.5453       2.3131       0.2097     788.7428       8.5576
   6218.2500      14.7704       2.3316       0.2081     686.5891       8.6908
   6218.4000      15.0674       2.3326       0.2095     692.4395       8.5990
   6218.5500      15.9389       2.3541       0.2138     738.5816       8.7086
   6218.7000      15.4283       2.3550       0.2209     665.5342       8.7207
   6218.8500      15.7024       2.3535       0.2206     661.1208       8.7786
   6219.0000      15.8286       2.3381       0.2247     724.8716       8.7165
   6219.1500      15.4649       2.3401       0.2221     693.5782       8.6380
   6219.3000      15.7550       2.3407       0.2249     758.6374       8.7110
   6219.4500      16.6977       2.3266       0.2358     774.9454       8.8045
   6219.6000      16.5841       2.3515       0.2404     702.4257       8.8137
   6219.7500      16.6775       2.3727       0.2376     657.3984       8.6780
   6219.9000      17.1778       2.3802       0.2420     531.7108       8.7246
   6220.0500      16.7490       2.3855       0.2422     493.3842       8.6486
   6220.2000      17.2778       2.3924       0.2494     390.7066       8.6240
   6220.3500      17.6367       2.3957       0.2545     362.3301       8.5501
   6220.5000      16.3716       2.3993       0.2667     338.1451       8.5585
   6220.6500      15.9249       2.3917       0.2651     331.5537       8.6124
   6220.8000      16.5610       2.4010       0.2534     314.7228       8.5442
   6220.9500      17.1809       2.3892       0.2489     364.7550       8.4040
   6221.1000      17.4301       2.4017       0.2354     351.5351       8.3456
   6221.2500      17.9713       2.3817       0.2322     368.3252       8.4296
   6221.4000      18.5370       2.3666       0.2350     386.1523       8.4082
   6221.5500      18.3487       2.3421       0.2307     422.1192       8.4498
   6221.7000      18.6706       2.3313       0.2342     387.5693       8.4277
   6221.8500      19.6507       2.3378       0.2248     385.2786       8.4731
   6222.0000      20.1356       2.3438       0.2311     334.9274       8.4489
   6222.1500      21.5406       2.3316       0.2362     344.2018       8.5350
   6222.3000      21.3675       2.3261       0.2413     339.4122       8.5425
   6222.4500      20.6125       2.3229       0.2382     322.1587       8.6129
   6222.6000      20.7763       2.3143       0.2260     354.2871       8.6256
   6222.7500      19.9955       2.2987       0.2259     348.2421       8.5831
   6222.9000      20.2836       2.2882       0.2267     403.9558       8.5607
   6223.0500      20.9895       2.2903       0.2258     392.9053       8.4784
   6223.2000      20.7297       2.3088       0.2203     526.3748       8.5598
   6223.3500      21.1402       2.3035       0.2110     441.9735       8.5175
   6223.5000      21.6851       2.2885       0.2113     422.8147       8.4947
   6223.6500      21.1688       2.2893       0.2212     398.6180       8.3668
   6223.8000      20.3938       2.3054       0.2355     400.9510       8.3381
   6223.9500      20.7370       2.3166       0.2361     311.6666       8.3803
   6224.1000      21.4521       2.3096       0.2423     279.6188       8.4120
   6224.2500      21.2708       2.3191       0.2335     314.2365       8.3920
   6224.4000      19.8584       2.3305       0.2337     312.3020       8.4920
   6224.5500      19.8715       2.3308       0.2312     309.3669       8.5508
   6224.7000      20.6662       2.3361       0.2295     347.4237       8.5171
   6224.8500      20.6784       2.3458       0.2296     371.0645       8.5400
   6225.0000      20.4089       2.3440       0.2226     465.6535       8.6324
   6225.1500      19.3064       2.3555       0.2188     462.9489       8.6993
   6225.3000      19.2869       2.3468       0.2121     469.1975       8.6993
   6225.4500      19.6994       2.3692       0.2040     470.0607       8.6549
   6225.6000      19.7446       2.3764       0.2113     422.9727       8.6388
   6225.7500      21.3568       2.3693       0.2183     448.7009       8.7248
   6225.9000      20.6847       2.3759       0.2124     462.5096       8.6220
   6226.0500      20.7353       2.3833       0.2199     478.7440       8.6280
   6226.2000      21.1762       2.3663       0.2246     439.6655       8.6171
   6226.3500      20.9431       2.3591       0.2344     557.7554       8.6193
   6226.5000      20.6659       2.3681       0.2213     602.2820       8.6104
   6226.6500      20.9398       2.3589       0.2135     618.3323       8.5678
   6226.8000      20.9437       2.3441       0.2062     736.8202       8.5678
   6226.9500      20.9967       2.3438       0.2043     875.0390       8.6180
   6227.1000      21.7356       2.3437       0.2062     859.4835       8.5613
   6227.2500      21.7002       2.3425       0.2056     850.3780       8.4538
   6227.4000      22.0804       2.3526       0.2039     705.5800       8.4668
   6227.5500      23.7001       2.3677       0.2040     628.4353       8.4712
   6227.7000      23.8075       2.3481       0.2097     589.3774       8.4912
   6227.8500      23.7093       2.3217       0.2125     607.3917       8.5089
   6228.0000      24.0036       2.3204       0.2152     516.3679       8.4254
   6228.1500      23.7729       2.3223       0.2163     506.8443       8.4191
   6228.3000      24.2142       2.3387       0.2215     502.4316       8.4285
   6228.4500      24.2259       2.3221       0.2285     542.9779       8.4041
   6228.6000      23.8079       2.3088       0.2252     641.0987       8.4996
   6228.7500      22.2986       2.3269       0.2226     565.4901       8.4996
   6228.9000      22.0496       2.3171       0.2280     575.5094       8.5412
   6229.0500      20.8192       2.3226       0.2211     565.6055       8.5196
   6229.2000      20.1093       2.3263       0.2198     538.2447       8.4176
   6229.3500      19.3717       2.3461       0.2220     436.2012       8.4227
   6229.5000      19.5057       2.3572       0.2354     386.1992       8.4746
   6229.6500      19.2670       2.3732       0.2450     401.0381       8.5104
   6229.8000      19.7105       2.3691       0.2500     366.5292       8.5830
   6229.9500      20.0741       2.3544       0.2519     347.1612       8.6054
   6230.1000      18.9518       2.3658       0.2521     398.9625       8.5644
   6230.2500      18.2264       2.3760       0.2693     325.2880       8.6214
