~VERSION -------------------------------------------
 VERS.                 2.0 : CWLS LOG ASCII STANDARD - VERSION 2.0
 WRAP.                  NO : ONE LINE PER DEPTH STEP
~WELL -----------------------------------------------
 WELL.                SANTOS-1 : Well name
 UWI .                BR-SAN-001        : Unique Well ID
 LAT .                -24.1234        : Latitude
 LON .                -41.9876        : Longitude
 STRT.M               4500.00 : START DEPTH
 STOP.M               6499.95 : STOP DEPTH
 STEP.M               0.1500 : STEP
 NULL.                -9999 : NULL VALUE
~CURVE -----------------------------------------------
 DEPTH .M               : Depth
 GR    .GAPI            : Gamma Ray
 RHOB  .G/C3            : Bulk Density
 NPHI  .V/V             : Neutron Porosity
 RT    .OHMM            : Resistivity
 CALI  .IN              : Caliper
~A  DEPTH              GR        RHOB        NPHI          RT        CALI
   4500.0000      10.3991       1.1549       0.1234      22.6713       4.2213
   4500.1500      10.6491       1.2846       0.1354      31.3494       5.0264
   4500.3000      11.0679       1.4155       0.1388      43.1487       5.8570
   4500.4500      11.7809       1.5390       0.1550      60.2790       6.7331
   4500.6000      12.9179       1.6666       0.1663      83.5273       7.5331
   4500.7500      13.5679       1.8037       0.1782     113.5945       8.4043
   4500.9000      13.9230       1.9222       0.1891     133.4987       8.3776
   4501.0500      14.9953       2.0478       0.1993     170.6054       8.3127
   4501.2000      15.2453       2.1775       0.2135     229.6229       8.3213
   4501.3500      15.4953       2.2865       0.2252     324.8000       8.4171
   4501.5000      15.9856       2.4161       0.2371     413.1867       8.4853
   4501.6500      15.8550       2.4322       0.2331     429.5018       8.5959
   4501.8000      15.7206       2.4438       0.2433     396.3727       8.6160
   4501.9500      15.6051       2.4523       0.2533     469.8069       8.5793
   4502.1000      15.9822       2.4445       0.2635     416.1293       8.6140
   4502.2500      16.1486       2.4562       0.2731     396.7979       8.5428
   4502.4000      16.4339       2.4573       0.2608     413.0333       8.5516
   4502.5500      16.3720       2.4589       0.2587     481.7939       8.5877
   4502.7000      16.3723       2.4434       0.2615     475.4491       8.5011
   4502.8500      16.9319       2.4435       0.2606     473.8713       8.4064
   4503.0000      16.7821       2.4523       0.2543     478.0758       8.4238
   4503.1500      16.9519       2.4271       0.2534     454.7184       8.3841
   4503.3000      17.5142       2.4048       0.2618     438.4802       8.4145
   4503.4500      17.0519       2.4038       0.2515     466.8298       8.3823
   4503.6000      16.7067       2.3970       0.2539     487.2766       8.4423
   4503.7500      16.8836       2.3742       0.2578     526.0348       8.5142
   4503.9000      18.0186       2.3696       0.2558     675.4227       8.4883
   4504.0500      17.4914       2.3572       0.2547     703.6093       8.5101
   4504.2000      18.3624       2.3337       0.2488     702.0647       8.4931
   4504.3500      18.5265       2.3489       0.2469     638.8260       8.6202
   4504.5000      19.3697       2.3254       0.2414     664.8488       8.5868
   4504.6500      19.9293       2.3247       0.2431     698.1801       8.5107
   4504.8000      19.9501       2.3274       0.2379     675.6177       8.5240
   4504.9500      19.9735       2.3188       0.2284     573.5964       8.5169
   4505.1000      20.8937       2.3391       0.2236     665.1369       8.4803
   4505.2500      20.2886       2.3172       0.2201     618.8679       8.4788
   4505.4000      18.7744       2.3092       0.2211     535.8619       8.5414
   4505.5500      18.8056       2.2882       0.2193     458.4160       8.5143
   4505.7000      17.5605       2.2875       0.2181     515.6407       8.5518
   4505.8500      17.4349       2.2646       0.2183     554.8844       8.5381
   4506.0000      18.0664       2.2840       0.2141     427.8646       8.5493
   4506.1500      18.0347       2.3111       0.2144     447.4354       8.6295
   4506.3000      17.3037       2.3210       0.2111     450.3073       8.5379
   4506.4500      18.4656       2.3072       0.2197     374.3844       8.5991
   4506.6000      19.4408       2.2856       0.2145     328.0815       8.5809
   4506.7500      19.3615       2.2910       0.2137     299.9332       8.5104
   4506.9000      19.4635       2.2929       0.2164     258.4663       8.4511
   4507.0500      20.7015       2.2978       0.2203     253.4301       8.4607
   4507.2000      20.8370       2.3125       0.2256     254.7464       8.5064
   4507.3500      21.3928       2.2944       0.2325     262.8567       8.3918
   4507.5000      21.2988       2.3024       0.2407     263.8043       8.4335
   4507.6500      20.9767       2.3026       0.2411     260.7206       8.5133
   4507.8000      20.7416       2.3117       0.2399     293.2893       8.5713
   4507.9500      20.6109       2.3190       0.2461     318.8778       8.5279
   4508.1000      18.6658       2.3061       0.2507     295.4108       8.5131
   4508.2500      18.5836       2.3066       0.2485     351.3218       8.5131
   4508.4000      19.3941       2.3301       0.2533     395.0217       8.5190
   4508.5500      19.2330       2.3638       0.2520     436.9364       8.4785
   4508.7000      19.7824       2.3435       0.2440     401.4990       8.4346
   4508.8500      19.5309       2.3446       0.2440     380.5657       8.6529
   4509.0000      19.0021       2.3308       0.2455     499.0905       8.6332
   4509.1500      19.5076       2.3135       0.2439     491.4782       8.4904
   4509.3000      20.9391       2.3239       0.2464     499.5614       8.4297
   4509.4500      20.7503       2.3210       0.2454     554.9965       8.4389
   4509.6000      19.4152       2.3292       0.2468     546.6933       8.5073
   4509.7500      19.3467       2.3119       0.2491     526.0344       8.5579
   4509.9000      18.9975       2.3030       0.2494     487.8981       8.6126
   4510.0500      17.9800       2.3024       0.2468     481.6079       8.7418
   4510.2000      17.8802       2.2838       0.2485     532.1939       8.7934
   4510.3500      17.7991       2.3167       0.2445     543.6554       8.6430
   4510.5000      17.5650       2.3002       0.2355     571.8360       8.5917
   4510.6500      17.7676       2.2939       0.2328     522.3411       8.5744
   4510.8000      18.6185       2.2754       0.2371     519.6268       8.6490
   4510.9500      19.6450       2.2799       0.2355     479.5525       8.7266
   4511.1000      19.9644       2.2694       0.2318     441.1174       8.6331
   4511.2500      19.9582       2.2619       0.2365     425.9396       8.6860
   4511.4000      19.9967       2.2411       0.2304     449.0280       8.7012
   4511.5500      19.9371       2.2424       0.2283     488.9805       8.5719
   4511.7000      19.9872       2.2376       0.2345     438.9691       8.5248
   4511.8500      20.2316       2.2636       0.2327     393.0224       8.5231
   4512.0000      19.6795       2.2656       0.2357     395.4281       8.5231
   4512.1500      19.0358       2.2709       0.2377     452.5173       8.6506
   4512.3000      18.6149       2.2690       0.2397     465.0296       8.6908
   4512.4500      17.6410       2.2724       0.2368     414.9451       8.6115
   4512.6000      17.8542       2.2897       0.2381     466.0067       8.6311
   4512.7500      17.9883       2.3049       0.2322     496.2669       8.5970
   4512.9000      17.6039       2.3021       0.2414     543.3065       8.5716
   4513.0500      18.1295       2.2998       0.2441     611.3522       8.5792
   4513.2000      18.2057       2.3131       0.2307     558.1727       8.5513
   4513.3500      18.3360       2.2716       0.2288     599.7060       8.4851
   4513.5000      18.5151       2.2812       0.2292     523.3568       8.4994
   4513.6500      17.3633       2.2905       0.2322     499.9528       8.3919
   4513.8000      16.7873       2.2898       0.2240     478.8555       8.2771
   4513.9500      17.6181       2.2877       0.2174     481.8349       8.3031
   4514.1000      18.0249       2.3084       0.2247     528.2155       8.4057
   4514.2500      18.9227       2.3170       0.2200     507.5501       8.3363
   4514.4000      18.1494       2.3196       0.2239     462.8546       8.3024
   4514.5500      18.6243       2.2889       0.2224     375.2528       8.3160
   4514.7000      18.4307       2.3119       0.2219     423.5669       8.3284
   4514.8500      17.9852       2.2976       0.2260     466.4675       8.4008
   4515.0000      19.5099       2.3055       0.2212     499.0275       8.3690
   4515.1500      20.9306       2.3113       0.2309     440.8539       8.3820
   4515.3000      20.5561       2.3049       0.2339     395.1628       8.4212
