~VERSION -------------------------------------------
 VERS.                 2.0 : CWLS LOG ASCII STANDARD - VERSION 2.0
 WRAP.                  NO : ONE LINE PER DEPTH STEP
~WELL -----------------------------------------------
 WELL.                SANTOS-1 : Well name
 UWI .                BR-SAN-001        : Unique Well ID
 LAT .                -24.1234        : Latitude
 LON .                -41.9876        : Longitude
 STRT.M               4500.00 : START DEPTH
 STOP.M               6499.95 : STOP DEPTH
 STEP.M               0.1500 : STEP
 NULL.                -9999 : NULL VALUE
~CURVE -----------------------------------------------
 DEPTH .M               : Depth
 GR    .GAPI            : Gamma Ray
 RHOB  .G/C3            : Bulk Density
 NPHI  .V/V             : Neutron Porosity
 RT    .OHMM            : Resistivity
 CALI  .IN              : Caliper
~A  DEPTH              GR        RHOB        NPHI          RT        CALI
# ...
   6338.5500      20.4619       2.2474       0.2003     476.3385       8.4267
   6338.7000      19.8451       2.2647       0.2025     494.2938       8.5289
   6338.8500      19.2243       2.2912       0.2099     530.0796       8.4974
   6339.0000      19.6405       2.2888       0.2171     533.6020       8.4971
   6339.1500      19.5350       2.2930       0.2149     549.5370       8.6014
   6339.3000      19.0061       2.2990       0.2219     565.3134       8.5915
   6339.4500      19.4478       2.2773       0.2148     566.8378       8.5267
   6339.6000      18.5170       2.2730       0.2099     641.5630       8.4623
   6339.7500      19.1142       2.2921       0.2101     636.2065       8.4806
   6339.9000      18.4651       2.3007       0.2164     689.7317       8.4225
   6340.0500      17.9203       2.3140       0.2263     626.0905       8.4528
   6340.2000      16.9986       2.3202       0.2254     648.5648       8.4647
   6340.3500      17.0038       2.3188       0.2279     656.5846       8.4172
   6340.5000      18.3456       2.3195       0.2313     625.2781       8.4172
   6340.6500      18.3456       2.3182       0.2422     623.8718       8.3755
   6340.8000      18.0839       2.3217       0.2361     627.8307       8.4381
   6340.9500      18.4675       2.3305       0.2270     627.2445       8.4790
   6341.1000      18.2735       2.3246       0.2279     517.1809       8.4146
   6341.2500      18.5949       2.3523       0.2332     584.8909       8.4369
   6341.4000      18.7710       2.3584       0.2399     591.0011       8.3994
   6341.5500      18.4343       2.3590       0.2361     614.0775       8.5201
   6341.7000      19.6404       2.3683       0.2333     605.2455       8.4734
   6341.8500      19.8699       2.3365       0.2283     730.0760       8.4912
   6342.0000      19.1302       2.3528       0.2249     683.1924       8.6328
   6342.1500      18.9604       2.3594       0.2254     622.7410       8.6951
   6342.3000      19.1562       2.3531       0.2164     577.2056       8.7240
   6342.4500      19.3939       2.3841       0.2148     611.1903       8.7761
   6342.6000      19.8809       2.3747       0.2122     543.6557       8.8013
   6342.7500      20.0791       2.3726       0.2199     571.0828       8.8543
   6342.9000      19.4854       2.3836       0.2149     529.4797       8.8732
   6343.0500      20.2263       2.3765       0.2137     510.6994       8.8178
   6343.2000      20.1384       2.3839       0.2024     487.4107       8.8160
   6343.3500      19.8264       2.3805       0.2058     507.6579       8.9132
   6343.5000      18.4351       2.3728       0.2052     544.4383       8.8442
   6343.6500      19.7225       2.3545       0.2025     498.8815       8.7791
   6343.8000      18.4155       2.3522       0.2033     554.4273       8.6771
   6343.9500      18.2838       2.3617       0.2045     529.2712       8.5697
   6344.1000      18.2279       2.3812       0.2156     649.9981       8.5445
   6344.2500      17.6383       2.3797       0.2071     659.5047       8.4494
   6344.4000      17.7715       2.3673       0.2053     657.0561       8.4774
   6344.5500      18.6645       2.3635       0.2068     664.5528       8.4341
   6344.7000      17.4585       2.3582       0.1996     687.8462       8.3672
   6344.8500      16.5512       2.3714       0.1943     549.8450       8.3770
   6345.0000      17.3405       2.3667       0.2021     503.5646       8.4084
   6345.1500      17.1344       2.3644       0.2000     548.4227       8.3966
   6345.3000      17.6368       2.3767       0.2057     457.2294       8.4705
   6345.4500      18.1529       2.3608       0.2102     450.7877       8.5133
   6345.6000      17.9820       2.3687       0.2211     506.6912       8.6046
   6345.7500      16.8051       2.3616       0.2177     510.3161       8.6394
   6345.9000      17.7310       2.3656       0.2240     525.7478       8.6828
   6346.0500      17.0456       2.3636       0.2262     576.9520       8.6394
   6346.2000      17.5471       2.3509       0.2301     574.0335       8.7899
   6346.3500      17.6377       2.3569       0.2289     486.1078       8.7015
   6346.5000      18.2051       2.3502       0.2365     506.1250       8.5975
   6346.6500      17.9216       2.3662       0.2354     542.9164       8.5407
   6346.8000      18.3281       2.3541       0.2408     426.7239       8.5340
   6346.9500      19.7429       2.3541       0.2453     451.9143       8.5562
   6347.1000      19.8727       2.3573       0.2400     367.2994       8.4648
   6347.2500      19.6394       2.3371       0.2483     326.1541       8.5206
   6347.4000      20.4820       2.3382       0.2380     343.5524       8.4898
   6347.5500      19.8509       2.3300       0.2319     372.4898       8.5637
   6347.7000      19.9681       2.3256       0.2334     331.4015       8.4290
   6347.8500      20.0920       2.3418       0.2410     308.5491       8.4308
   6348.0000      20.8655       2.3325       0.2362     333.6956       8.5174
   6348.1500      21.0146       2.3309       0.2301     362.8764       8.6680
   6348.3000      20.1297       2.3171       0.2295     448.1298       8.5993
   6348.4500      19.8534       2.3217       0.2319     500.5474       8.5685
   6348.6000      20.5033       2.3237       0.2147     529.1404       8.5685
   6348.7500      21.2243       2.3273       0.2258     503.5938       8.5478
   6348.9000      20.2984       2.3135       0.2294     476.2655       8.4883
   6349.0500      20.3654       2.3106       0.2265     461.3703       8.4069
   6349.2000      19.4779       2.3147       0.2303     480.6353       8.4379
   6349.3500      19.3332       2.2988       0.2300     475.7008       8.4102
   6349.5000      20.1462       2.2945       0.2263     479.2206       8.4040
   6349.6500      19.1423       2.2857       0.2234     492.9324       8.3496
   6349.8000      18.7884       2.3074       0.2193     590.1148       8.3818
   6349.9500      16.4963       2.2982       0.2164     493.4634       8.3662
   6350.1000      17.0354       2.2969       0.2165     561.9912       8.3662
   6350.2500      18.3420       2.2990       0.2173     645.6072       8.3381
   6350.4000      17.3329       2.2847       0.2206     551.6005       8.3535
   6350.5500      17.5821       2.3147       0.2206     507.3503       8.3721
   6350.7000      18.0949       2.3246       0.2257     602.2617       8.4238
   6350.8500      18.0850       2.3069       0.2231     667.9369       8.4301
   6351.0000      17.5199       2.3115       0.2197     619.1195       8.3497
   6351.1500      16.9352       2.3137       0.2265     533.4985       8.2635
   6351.3000      17.7135       2.3121       0.2250     444.3632       8.2374
   6351.4500      17.0777       2.3104       0.2215     398.1403       8.2189
   6351.6000      16.7396       2.2887       0.2289     322.9498       8.3759
   6351.7500      16.1551       2.2791       0.2230     303.9677       8.3357
   6351.9000      16.1551       2.2691       0.2114     360.3150       8.3586
   6352.0500      17.0520       2.2791       0.2062     387.2976       8.4122
   6352.2000      17.6401       2.2912       0.2074     381.1452       8.4258
   6352.3500      17.7751       2.2921       0.2014     466.7920       8.4831
   6352.5000      17.9900       2.2988       0.2088     425.4018       8.5996
   6352.6500      18.7070       2.3055       0.2172     439.3288       8.5896
   6352.8000      18.9275       2.2938       0.2215     438.5744       8.5918
   6352.9500      18.9275       2.2996       0.2186     468.8388       8.6693
   6353.1000      18.3712       2.3037       0.2171     459.2862       8.5319
   6353.2500      17.6378       2.2945       0.2105     369.3459       8.5302
   6353.4000      16.8612       2.3029       0.2183     411.0187       8.5003
   6353.5500      17.1606       2.2907       0.2170     468.8890       8.4342
   6353.7000      16.9747       2.2799       0.2160     454.0800       8.3242
   6353.8500      16.9759       2.2796       0.2182     458.3135       8.2831
