~VERSION -------------------------------------------
 VERS.                 2.0 : CWLS LOG ASCII STANDARD - VERSION 2.0
 WRAP.                  NO : ONE LINE PER DEPTH STEP
~WELL -----------------------------------------------
 WELL.                SANTOS-1 : Well name
 UWI .                BR-SAN-001        : Unique Well ID
 LAT .                -24.1234        : Latitude
 LON .                -41.9876        : Longitude
 STRT.M               4500.00 : START DEPTH
 STOP.M               6499.95 : STOP DEPTH
 STEP.M               0.1500 : STEP
 NULL.                -9999 : NULL VALUE
~CURVE -----------------------------------------------
 DEPTH .M               : Depth
 GR    .GAPI            : Gamma Ray
 RHOB  .G/C3            : Bulk Density
 NPHI  .V/V             : Neutron Porosity
 RT    .OHMM            : Resistivity
 CALI  .IN              : Caliper
~A  DEPTH              GR        RHOB        NPHI          RT        CALI
# ...
   4762.6500      18.5382       2.2477       0.2399     557.2197       8.5567
   4762.8000      18.7032       2.2555       0.2301     510.6962       8.5346
   4762.9500      18.5358       2.2435       0.2316     518.2578       8.5046
   4763.1000      18.2361       2.2290       0.2262     564.2623       8.5582
   4763.2500      18.7080       2.2355       0.2348     616.1790       8.6122
   4763.4000      19.6573       2.2444       0.2258     631.3667       8.6091
   4763.5500      20.7739       2.2582       0.2297     573.6892       8.6091
   4763.7000      20.7739       2.2659       0.2302     566.1601       8.5832
   4763.8500      20.2288       2.2722       0.2256     570.6591       8.5371
   4764.0000      20.3710       2.2566       0.2165     533.9678       8.4527
   4764.1500      20.2297       2.2566       0.1994     576.2542       8.4680
   4764.3000      20.0735       2.2653       0.1944     540.2450       8.5333
   4764.4500      19.8152       2.2794       0.1931     539.5900       8.5507
   4764.6000      19.1307       2.2676       0.1951     473.2117       8.5675
   4764.7500      19.5880       2.2665       0.1931     437.8934       8.5699
   4764.9000      19.0527       2.2706       0.1837     417.1298       8.6038
   4765.0500      19.8447       2.2852       0.1827     433.2210       8.6234
   4765.2000      19.7830       2.2838       0.1751     383.6451       8.5425
   4765.3500      19.9442       2.2791       0.1733     356.0257       8.5399
   4765.5000      20.3948       2.2707       0.1832     381.8101       8.5936
   4765.6500      19.0968       2.2867       0.1862     400.2843       8.5358
   4765.8000      19.8158       2.2634       0.1940     424.4613       8.5362
   4765.9500      20.4622       2.2722       0.1928     431.8556       8.5507
   4766.1000      19.7036       2.2705       0.1920     447.2116       8.5347
   4766.2500      19.5795       2.2746       0.1998     548.8384       8.5106
   4766.4000      18.4678       2.2784       0.1978     519.0757       8.5000
   4766.5500      16.9234       2.2596       0.1941     584.5927       8.5079
   4766.7000      17.9788       2.2649       0.1992     640.5655       8.4889
   4766.8500      19.3891       2.2745       0.1928     575.8500       8.4757
   4767.0000      19.3476       2.2967       0.1919     630.5933       8.4718
   4767.1500      19.4543       2.3016       0.1974     615.2518       8.5880
   4767.3000      18.7292       2.3015       0.2076     597.5598       8.5730
   4767.4500      18.4865       2.3071       0.2126     534.0273       8.6473
   4767.6000      18.4867       2.3008       0.2168     551.4768       8.6327
   4767.7500      17.7184       2.2921       0.2224     533.8063       8.5992
   4767.9000      18.2321       2.3139       0.2336     562.4013       8.5872
   4768.0500      18.6339       2.3165       0.2373     526.9410       8.6031
   4768.2000      18.3967       2.3140       0.2334     532.0266       8.7519
   4768.3500      17.5023       2.3062       0.2321     574.0919       8.7680
   4768.5000      17.6234       2.3114       0.2285     545.4507       8.7289
   4768.6500      18.0984       2.3051       0.2251     482.4994       8.6213
   4768.8000      17.5884       2.3437       0.2271     462.7351       8.6727
   4768.9500      16.2231       2.3567       0.2328     464.7949       8.5389
   4769.1000      16.5443       2.3637       0.2357     445.7785       8.4780
   4769.2500      17.1711       2.3533       0.2253     367.4311       8.4453
   4769.4000      18.2318       2.3432       0.2293     411.5428       8.3872
   4769.5500      19.5780       2.3733       0.2270     386.1936       8.4102
   4769.7000      19.0680       2.3771       0.2254     362.8587       8.3142
   4769.8500      18.8092       2.3596       0.2285     367.8590       8.2719
   4770.0000      19.0434       2.3589       0.2384     352.2279       8.2778
   4770.1500      18.4649       2.3604       0.2306     351.5740       8.3311
   4770.3000      18.3689       2.3565       0.2175     412.6466       8.2773
   4770.4500      19.3492       2.3602       0.2175     418.5453       8.2773
   4770.6000      19.4168       2.3878       0.2173     421.1957       8.3704
   4770.7500      20.7388       2.4082       0.2164     370.6696       8.4510
   4770.9000      20.5234       2.3945       0.2075     349.4614       8.4988
   4771.0500      19.8888       2.3886       0.2002     359.6172       8.5459
   4771.2000      21.1048       2.3842       0.2047     365.4185       8.5982
   4771.3500      21.7968       2.3978       0.2041     382.9992       8.5982
   4771.5000      20.9315       2.3929       0.2030     363.7700       8.6464
   4771.6500      20.4565       2.4063       0.2037     387.6756       8.5953
   4771.8000      19.6195       2.3770       0.2015     403.6588       8.5470
   4771.9500      19.3810       2.3590       0.1956     411.8850       8.6136
   4772.1000      19.6629       2.3629       0.1993     405.5428       8.5286
   4772.2500      19.5800       2.3806       0.2018     451.5761       8.5477
   4772.4000      18.8849       2.3898       0.2007     446.6706       8.5645
   4772.5500      19.4548       2.3810       0.1980     461.7909       8.5703
   4772.7000      18.9094       2.3743       0.1930     503.5457       8.5047
   4772.8500      18.5271       2.3748       0.1977     377.3136       8.6058
   4773.0000      18.5220       2.3769       0.1946     384.3879       8.5384
   4773.1500      18.1079       2.3565       0.2029     405.2840       8.6358
   4773.3000      18.4570       2.3523       0.2045     398.8061       8.7071
   4773.4500      18.9580       2.3703       0.2009     402.1561       8.6787
   4773.6000      19.6217       2.3575       0.1989     352.9606       8.8101
   4773.7500      19.1591       2.3461       0.2022     403.3117       8.7135
   4773.9000      18.6922       2.3395       0.2018     411.9079       8.6916
   4774.0500      19.0309       2.3474       0.1991     430.7215       8.6529
   4774.2000      18.8004       2.3377       0.1946     446.2266       8.6946
   4774.3500      19.1910       2.3274       0.2022     491.4816       8.5935
   4774.5000      18.9669       2.3393       0.2151     574.4793       8.5648
   4774.6500      19.7872       2.3296       0.2218     600.1259       8.4809
   4774.8000      20.4003       2.3421       0.2197     578.5835       8.4654
   4774.9500      21.6102       2.3420       0.2181     548.9594       8.4493
   4775.1000      21.5252       2.3506       0.2125     542.3180       8.3649
   4775.2500      20.5187       2.3345       0.2115     532.6832       8.4808
   4775.4000      20.3289       2.3125       0.2129     503.5087       8.5046
   4775.5500      19.2444       2.3184       0.2158     452.9052       8.4702
   4775.7000      20.4754       2.3069       0.2156     438.0015       8.4707
   4775.8500      20.0273       2.3131       0.2174     511.1027       8.4947
   4776.0000      19.9562       2.2981       0.2064     488.7550       8.5127
   4776.1500      19.5178       2.3083       0.2103     439.8072       8.5120
   4776.3000      18.9456       2.3074       0.2076     403.9253       8.5091
   4776.4500      18.3523       2.3008       0.2083     407.5780       8.6068
   4776.6000      18.0450       2.3063       0.2072     479.6324       8.6486
   4776.7500      17.9347       2.3060       0.2068     427.2349       8.6313
   4776.9000      17.7523       2.2996       0.2117     431.7586       8.5648
   4777.0500      18.2318       2.2970       0.2221     445.4548       8.5378
   4777.2000      17.5433       2.3096       0.2287     438.5647       8.5669
   4777.3500      16.8077       2.3084       0.2243     387.5113       8.5964
   4777.5000      17.7912       2.3002       0.2126     372.3220       8.5821
   4777.6500      17.6619       2.3022       0.2142     381.4579       8.6607
   4777.8000      18.3427       2.2919       0.2170     398.5648       8.6079
   4777.9500      18.1427       2.2848       0.2177     452.3189       8.5628
