~VERSION -------------------------------------------
 VERS.                 2.0 : CWLS LOG ASCII STANDARD - VERSION 2.0
 WRAP.                  NO : ONE LINE PER DEPTH STEP
~WELL -----------------------------------------------
 WELL.                ATHABASCA-B1 : Well name
 UWI .                CA-ATH-001        : Unique Well ID
 LAT .                57.2341        : Latitude
 LON .                -111.5432        : Longitude
 STRT.M               300.00 : START DEPTH
 STOP.M               599.85 : STOP DEPTH
 STEP.M               0.1500 : STEP
 NULL.                -9999 : NULL VALUE
~CURVE -----------------------------------------------
 DEPTH .M               : Depth
 GR    .GAPI            : Gamma Ray
 RHOB  .G/C3            : Bulk Density
 NPHI  .V/V             : Neutron Porosity
 RT    .OHMM            : Resistivity
 CALI  .IN              : Caliper
~A  DEPTH              GR        RHOB        NPHI          RT        CALI
# ...
    469.9500      39.4737       2.0880       0.3807     377.2937       7.7681
    470.1000      41.3429       2.0868       0.3793     377.2937       7.8902
    470.2500      43.9254       2.0857       0.3828     377.2937       7.8716
    470.4000      40.8397       2.0799       0.3769     372.3078       7.8777
    470.5500      38.5398       2.0721       0.3784     411.9735       7.9336
    470.7000      38.9634       2.0592       0.3807     373.3593       8.0167
    470.8500      39.5858       2.0520       0.3869     408.2624       7.9711
    471.0000      38.7889       2.0838       0.3887     461.2686       7.9440
    471.1500      38.5898       2.0801       0.3828     389.4210       7.9349
    471.3000      38.2345       2.0968       0.3819     383.0717       7.9170
    471.4500      38.3910       2.0864       0.3929     394.7442       7.9377
    471.6000      40.1941       2.0965       0.3837     397.4084       7.9307
    471.7500      41.8090       2.0819       0.3887     367.1018       7.9883
    471.9000      39.9595       2.0738       0.3911     292.4432       7.9517
    472.0500      41.6160       2.0877       0.3797     296.1686       7.8953
    472.2000      43.0126       2.0808       0.3718     283.9412       7.8589
    472.3500      42.5556       2.0783       0.3717     281.5207       7.7862
    472.5000      43.1001       2.0781       0.3656     281.5207       7.7878
    472.6500      44.4010       2.0863       0.3713     325.8907       7.8846
    472.8000      45.7887       2.0904       0.3666     258.9839       7.8899
    472.9500      43.4798       2.0941       0.3688     289.9449       7.8729
    473.1000      42.9520       2.1116       0.3716     289.9449       7.8179
    473.2500      42.5718       2.1046       0.3740     289.0405       7.8105
    473.4000      43.2535       2.1207       0.3704     332.3547       7.8599
    473.5500      44.8015       2.0997       0.3716     352.6175       7.8084
    473.7000      44.4705       2.1115       0.3770     380.5704       7.8359
    473.8500      43.1875       2.1134       0.3808     362.0262       7.9468
    474.0000      44.3647       2.1168       0.3758     418.6547       7.9932
    474.1500      44.8066       2.1043       0.3636     473.8605       7.9407
    474.3000      43.0176       2.1102       0.3648     409.4534       7.8623
    474.4500      42.0092       2.0982       0.3756     373.6859       7.9257
    474.6000      41.3998       2.1093       0.3754     376.3599       7.9161
    474.7500      40.0353       2.1002       0.3772     376.3599       7.8815
    474.9000      41.3255       2.0964       0.3760     353.8584       7.7792
    475.0500      39.3575       2.0947       0.3874     414.6018       7.8984
    475.2000      40.9512       2.0983       0.3875     414.6018       7.9231
    475.3500      43.0745       2.0779       0.3763     414.6018       7.9611
    475.5000      44.8903       2.0697       0.3699     450.4686       7.8979
    475.6500      44.3148       2.0353       0.3758     485.8858       7.9940
    475.8000      41.0940       2.0308       0.3774     479.3225       7.9903
    475.9500      40.6375       2.0105       0.3692     514.0535       7.9696
    476.1000      41.7712       2.0215       0.3741     503.2821       7.9144
    476.2500      41.2369       2.0379       0.3880     444.1100       7.9540
    476.4000      38.2150       2.0498       0.4050     492.5394       8.0470
    476.5500      39.5444       2.0446       0.4104     596.7570       8.0218
    476.7000      38.2471       2.0630       0.4087     614.7768       8.0128
    476.8500      37.0629       2.0656       0.4065     579.4281       7.9620
    477.0000      38.6294       2.0806       0.4086     557.8581       8.1014
    477.1500      37.6274       2.0775       0.3995     536.1835       8.1263
    477.3000      38.8992       2.0882       0.4017     523.1001       8.1914
    477.4500      37.1278       2.0958       0.4019     516.9465       8.1381
    477.6000      33.7827       2.1072       0.4048     481.2761       8.2895
    477.7500      32.3161       2.1143       0.4067     441.9679       8.3105
    477.9000      33.4091       2.1307       0.4024     441.9679       8.3141
    478.0500      34.9879       2.1537       0.3991     425.2012       8.2901
    478.2000      37.0509       2.1571       0.4023     425.2012       8.2299
    478.3500      35.0813       2.1368       0.3968     441.2100       8.2250
    478.5000      36.6781       2.1374       0.3865     403.1765       8.1373
    478.6500      38.1240       2.1500       0.3780     311.3963       8.1039
    478.8000      37.4902       2.1578       0.3788     311.3963       8.1537
    478.9500      38.3168       2.1531       0.3779     289.8121       8.1953
    479.1000      42.0957       2.1331       0.3829     287.7656       8.1785
    479.2500      40.2642       2.1201       0.3844     298.8922       8.1075
    479.4000      43.3435       2.1497       0.3879     334.9249       8.0870
    479.5500      45.3564       2.1401       0.3788     288.5749       8.1145
    479.7000      45.1957       2.1305       0.3724     292.0100       8.1762
    479.8500      44.8672       2.1338       0.3780     313.6527       8.1917
    480.0000      45.8426       2.1274       0.3711     273.0026       8.1436
    480.1500      44.8370       2.1241       0.3686     219.9867       8.0647
    480.3000      44.3486       2.1248       0.3616     175.3750       7.9715
    480.4500      42.0294       2.1336       0.3605     143.4408       7.9504
    480.6000      45.6522       2.1509       0.3604     108.3847       7.9078
    480.7500      44.1362       2.1202       0.3625     111.0671       7.9777
    480.9000      44.9627       2.0936       0.3618     127.0462       7.9527
    481.0500      45.4206       2.0767       0.3610      93.2300       7.8820
    481.2000      45.7951       2.0906       0.3635      96.7095       7.8491
    481.3500      45.6550       2.0982       0.3710      81.1785       7.7980
    481.5000      47.0547       2.0994       0.3672      60.7801       7.8034
    481.6500      47.8007       2.0837       0.3829      47.0484       7.8447
    481.8000      47.6872       2.0877       0.3910      47.4081       7.8685
    481.9500      48.2910       2.0743       0.3946      36.1894       7.7881
    482.1000      51.2315       2.0693       0.3933      31.0792       7.7629
    482.2500      50.8731       2.0711       0.3963      30.7444       7.7289
    482.4000      52.7676       2.0779       0.4052      30.7640       7.7574
    482.5500      52.3974       2.0604       0.4002      37.6476       7.7633
    482.7000      50.9977       2.0791       0.3989      35.7471       7.7565
    482.8500      49.0688       2.0707       0.4135      42.8260       7.7286
    483.0000      50.8208       2.1007       0.4062      47.7730       7.8315
    483.1500      49.3530       2.1004       0.4111      54.0739       7.8631
    483.3000      49.9697       2.0986       0.4129      70.0480       7.9561
    483.4500      49.0132       2.1003       0.4113      80.4948       8.0100
    483.6000      47.3995       2.1005       0.4093      95.2534       8.0192
    483.7500      46.1486       2.0843       0.4093     113.3435       7.9556
    483.9000      42.9993       2.0730       0.3976     141.8698       7.9843
    484.0500      41.5173       2.0795       0.3897     147.7582       7.9989
    484.2000      41.3866       2.1079       0.4011     163.1008       7.9746
    484.3500      37.5948       2.0988       0.3951     188.4030       8.0762
    484.5000      35.9641       2.1066       0.4087     244.5174       8.0063
    484.6500      33.5599       2.1070       0.3999     296.7334       7.9812
    484.8000      35.0597       2.1136       0.4047     290.0735       7.8916
    484.9500      39.6450       2.1067       0.4110     373.5067       7.9040
    485.1000      38.8157       2.1197       0.3955     424.3507       7.8480
    485.2500      36.0093       2.1036       0.4001     460.3663       7.8364
