~VERSION -------------------------------------------
 VERS.                 2.0 : CWLS LOG ASCII STANDARD - VERSION 2.0
 WRAP.                  NO : ONE LINE PER DEPTH STEP
~WELL -----------------------------------------------
 WELL.                ATHABASCA-B1 : Well name
 UWI .                CA-ATH-001        : Unique Well ID
 LAT .                57.2341        : Latitude
 LON .                -111.5432        : Longitude
 STRT.M               300.00 : START DEPTH
 STOP.M               599.85 : STOP DEPTH
 STEP.M               0.1500 : STEP
 NULL.                -9999 : NULL VALUE
~CURVE -----------------------------------------------
 DEPTH .M               : Depth
 GR    .GAPI            : Gamma Ray
 RHOB  .G/C3            : Bulk Density
 NPHI  .V/V             : Neutron Porosity
 RT    .OHMM            : Resistivity
 CALI  .IN              : Caliper
~A  DEPTH              GR        RHOB        NPHI          RT        CALI
# ...
    500.8500      34.6944       2.1109       0.3920     237.5831       7.8328
    501.0000      38.1078       2.1116       0.3972     243.1770       7.8361
    501.1500      37.1898       2.1226       0.4065     233.1915       7.9869
    501.3000      35.4355       2.1266       0.4171     248.3894       7.9538
    501.4500      36.1425       2.1103       0.4112     249.7535       7.9612
    501.6000      36.6990       2.1156       0.4174     198.4245       8.0018
    501.7500      36.1728       2.1392       0.4207     218.4220       8.0592
    501.9000      39.0024       2.1437       0.4233     258.1813       8.0824
    502.0500      39.9466       2.1359       0.4290     208.6177       8.0483
    502.2000      39.8928       2.1304       0.4359     219.0704       8.1474
    502.3500      43.8125       2.1191       0.4356     226.0005       8.0889
    502.5000      44.6322       2.1329       0.4362     190.1198       8.0870
    502.6500      45.8879       2.1348       0.4354     167.2981       8.0246
    502.8000      43.4355       2.1385       0.4349     171.4926       7.9790
    502.9500      44.1404       2.1226       0.4387     163.1202       8.0068
    503.1000      43.9634       2.1074       0.4387     179.1550       7.9327
    503.2500      39.8616       2.0950       0.4385     170.9648       7.8713
    503.4000      43.1417       2.1070       0.4294     195.6251       7.8248
    503.5500      45.3327       2.0714       0.4243     197.2279       7.8702
    503.7000      44.2782       2.0965       0.4221     199.6352       7.8231
    503.8500      44.9137       2.1051       0.4045     278.5747       7.8425
    504.0000      43.0900       2.0928       0.3992     278.5747       7.8214
    504.1500      40.9162       2.0889       0.3950     262.5122       7.8284
    504.3000      40.1450       2.0869       0.3845     309.1250       7.8821
    504.4500      38.0663       2.1103       0.3758     286.6312       7.8711
    504.6000      38.2775       2.1000       0.3642     274.2725       7.8827
    504.7500      38.6831       2.0769       0.3570     351.1324       7.8511
    504.9000      36.9686       2.0908       0.3644     411.0124       7.8202
    505.0500      37.1848       2.0622       0.3670     393.9088       7.8702
    505.2000      39.4428       2.0610       0.3653     415.2527       7.8762
    505.3500      38.4540       2.0568       0.3696     402.9570       7.9538
    505.5000      37.7702       2.0521       0.3670     446.6008       7.9541
    505.6500      35.8138       2.0473       0.3736     428.6257       7.9380
    505.8000      35.4748       2.0700       0.3715     468.4891       7.9239
    505.9500      34.6264       2.0503       0.3812     484.3400       7.9092
    506.1000      33.7731       2.0318       0.3898     464.8472       7.8862
    506.2500      36.2510       2.0273       0.3896     423.2360       7.9593
    506.4000      36.1301       2.0384       0.3978     413.7251       8.0118
    506.5500      38.0267       2.0429       0.3994     424.0271       7.9315
    506.7000      37.9612       2.0211       0.3927     408.2085       7.9121
    506.8500      35.7019       2.0313       0.4055     426.6023       7.9113
    507.0000      34.7468       2.0391       0.4137     451.1742       7.8516
    507.1500      33.7885       2.0305       0.4037     406.3623       7.9231
    507.3000      35.9602       2.0374       0.3987     456.8892       7.9613
    507.4500      34.8090       2.0456       0.3965     474.8522       8.0383
    507.6000      37.5787       2.0545       0.3857     489.3416       8.0920
    507.7500      38.8617       2.0605       0.3850     495.7302       8.1417
    507.9000      39.5172       2.0597       0.3810     535.0323       8.1493
    508.0500      38.5141       2.0434       0.3864     558.6222       8.1622
    508.2000      36.7858       2.0431       0.3833     558.6222       8.0817
    508.3500      39.4076       2.0669       0.3796     568.0819       8.0330
    508.5000      37.9228       2.0980       0.3876     583.4732       8.1091
    508.6500      39.4200       2.0783       0.3881     599.6909       8.0197
    508.8000      37.8098       2.0704       0.3859     612.1403       8.0015
    508.9500      38.6265       2.0920       0.3948     658.1331       7.9199
    509.1000      39.2977       2.0848       0.3878     646.8840       7.8945
    509.2500      42.9368       2.0764       0.3835     558.4235       7.8436
    509.4000      42.3074       2.0913       0.3876     557.3702       7.7799
    509.5500      39.5326       2.0942       0.3919     547.3135       7.8297
    509.7000      37.6447       2.0895       0.3866     533.3310       7.9073
    509.8500      34.2577       2.0827       0.3908     533.3310       7.9737
    510.0000      35.3385       2.0952       0.3931     533.3310       7.9274
    510.1500      36.0205       2.0773       0.3936     508.5456       7.9227
    510.3000      39.8324       2.0811       0.3882     445.0832       7.8602
    510.4500      43.4028       2.0731       0.3808     373.0331       7.8575
    510.6000      42.7154       2.0603       0.3921     358.0112       7.9102
    510.7500      43.2500       2.0546       0.3760     280.6133       7.9063
    510.9000      43.7597       2.0742       0.3717     245.8662       7.9283
    511.0500      43.0771       2.0846       0.3784     179.8841       7.8652
    511.2000      44.6146       2.0768       0.3754     140.5786       7.8413
    511.3500      45.5398       2.0883       0.3766     128.4175       7.7626
    511.5000      42.4242       2.1015       0.3808     145.0730       7.8301
    511.6500      43.7015       2.0919       0.3783     161.3754       7.8419
    511.8000      46.7105       2.0866       0.3728     175.9693       7.8794
    511.9500      49.0222       2.0980       0.3772     180.5828       7.9449
    512.1000      48.9896       2.1122       0.3794     180.5828       7.9049
    512.2500      47.7374       2.1101       0.3836     166.1532       7.8861
    512.4000      47.0209       2.1101       0.3786     147.6338       7.8594
    512.5500      44.1280       2.1165       0.3792     161.4558       7.8743
    512.7000      40.5576       2.1273       0.3798     174.2711       7.9195
    512.8500      39.4256       2.1239       0.3667     174.6445       7.9389
    513.0000      37.5921       2.1166       0.3768     238.2654       7.8174
    513.1500      36.8911       2.0977       0.3689     244.8482       7.7920
    513.3000      37.5005       2.1221       0.3579     293.9235       7.8240
    513.4500      35.3346       2.1089       0.3579     376.3152       7.7923
    513.6000      33.1520       2.1135       0.3611     419.1157       7.8255
    513.7500      36.4820       2.1036       0.3567     386.5678       7.8720
    513.9000      35.9205       2.1072       0.3635     386.5678       7.9373
    514.0500      34.5280       2.1350       0.3689     344.4070       7.9414
    514.2000      32.2280       2.1218       0.3664     344.4070       7.8960
    514.3500      32.2465       2.1213       0.3603     312.7817       7.8829
    514.5000      29.8169       2.1130       0.3513     329.4752       7.9542
    514.6500      32.2711       2.1207       0.3573     388.8773       7.9772
    514.8000      30.5031       2.1210       0.3600     335.8178       8.0072
    514.9500      30.5031       2.1220       0.3628     332.6807       8.0144
    515.1000      32.4939       2.1286       0.3636     348.0625       8.0215
    515.2500      31.9973       2.1151       0.3654     348.0625       7.9746
    515.4000      33.2046       2.1335       0.3738     402.5512       7.9777
    515.5500      34.9569       2.1141       0.3849     460.4407       7.9965
    515.7000      35.4738       2.1133       0.3869     505.9273       7.9831
    515.8500      35.8843       2.1147       0.3839     505.9273       7.9766
    516.0000      33.3294       2.1273       0.3906     526.8025       7.9769
    516.1500      33.1398       2.1044       0.3817     495.8568       7.9426
