~VERSION -------------------------------------------
 VERS.                 2.0 : CWLS LOG ASCII STANDARD - VERSION 2.0
 WRAP.                  NO : ONE LINE PER DEPTH STEP
~WELL -----------------------------------------------
 WELL.                ATHABASCA-B1 : Well name
 UWI .                CA-ATH-001        : Unique Well ID
 LAT .                57.2341        : Latitude
 LON .                -111.5432        : Longitude
 STRT.M               300.00 : START DEPTH
 STOP.M               599.85 : STOP DEPTH
 STEP.M               0.1500 : STEP
 NULL.                -9999 : NULL VALUE
~CURVE -----------------------------------------------
 DEPTH .M               : Depth
 GR    .GAPI            : Gamma Ray
 RHOB  .G/C3            : Bulk Density
 NPHI  .V/V             : Neutron Porosity
 RT    .OHMM            : Resistivity
 CALI  .IN              : Caliper
~A  DEPTH              GR        RHOB        NPHI          RT        CALI
# ...
    377.2500      37.3075       2.0693       0.3677     481.8325       7.7380
    377.4000      39.1371       2.0788       0.3777     460.2560       7.7132
    377.5500      38.8631       2.0851       0.3814     403.9799       7.8061
    377.7000      40.8517       2.1022       0.3840     403.9799       7.7845
    377.8500      39.7883       2.0991       0.3943     349.1953       7.8442
    378.0000      38.2303       2.0819       0.3808     392.0536       7.7689
    378.1500      39.6092       2.0940       0.3790     408.3086       7.6850
    378.3000      38.0994       2.0871       0.3812     354.6366       7.7639
    378.4500      39.1450       2.0921       0.3857     376.0698       7.8638
    378.6000      40.1027       2.1062       0.3859     418.4802       7.8617
    378.7500      43.8488       2.0861       0.3810     405.7477       7.8292
    378.9000      42.3567       2.0919       0.3742     433.9748       7.8910
    379.0500      41.5547       2.0897       0.3808     442.3249       7.9425
    379.2000      39.0797       2.0996       0.3790     423.4514       7.9943
    379.3500      38.5360       2.0850       0.3663     371.6173       8.0155
    379.5000      37.9982       2.0894       0.3641     325.4844       8.0052
    379.6500      37.6595       2.0830       0.3555     301.3670       8.0976
    379.8000      36.8509       2.0802       0.3677     280.6421       8.0966
    379.9500      33.5755       2.0863       0.3628     280.6421       8.0348
    380.1000      31.9391       2.0591       0.3589     292.6939       8.0774
    380.2500      32.9546       2.0644       0.3659     287.5196       8.0990
    380.4000      32.4087       2.0759       0.3714     282.4269       8.0701
    380.5500      35.6621       2.0919       0.3681     325.1704       8.0475
    380.7000      35.9701       2.0879       0.3616     335.0866       8.0227
    380.8500      36.7068       2.0857       0.3634     352.2465       7.9640
    381.0000      34.9134       2.1041       0.3632     362.7652       8.0323
    381.1500      36.5451       2.1160       0.3788     390.7711       8.0035
    381.3000      34.8104       2.1064       0.3876     400.8844       7.9523
    381.4500      36.8668       2.1139       0.3896     434.7502       7.9796
    381.6000      38.3862       2.1365       0.4002     501.7626       8.0276
    381.7500      38.0185       2.1182       0.3999     572.8805       8.1143
    381.9000      36.1152       2.1201       0.4108     608.8003       8.0592
    382.0500      37.0323       2.1416       0.4036     665.6736       7.9326
    382.2000      37.1413       2.1271       0.4059     604.8510       7.9711
    382.3500      38.6865       2.1577       0.4128     668.3410       8.0893
    382.5000      38.7550       2.1448       0.4193     628.1169       8.1275
    382.6500      38.3737       2.1192       0.4204     638.7844       8.0909
    382.8000      37.4359       2.1291       0.4310     638.7844       8.1457
    382.9500      38.8407       2.1459       0.4310     638.7844       8.1224
    383.1000      36.7704       2.1477       0.4361     641.4612       8.0894
    383.2500      37.4565       2.1393       0.4419     636.9066       7.9999
    383.4000      38.1024       2.1228       0.4265     618.3865       7.9964
    383.5500      38.5305       2.1171       0.4165     634.9227       8.0738
    383.7000      39.6205       2.1064       0.4131     630.1160       7.9921
    383.8500      38.9121       2.0978       0.4098     630.1160       7.9367
    384.0000      40.5864       2.1183       0.4078     630.1160       7.8396
    384.1500      41.9722       2.1213       0.4023     676.3429       7.9573
    384.3000      40.8898       2.1011       0.3915     734.8826       7.9525
    384.4500      41.6144       2.1201       0.3878     790.4289       7.9755
    384.6000      42.2103       2.0963       0.3806     796.2355       7.8932
    384.7500      42.5700       2.1111       0.3776     777.4318       7.9040
    384.9000      40.7135       2.1224       0.3796     691.1537       7.9211
    385.0500      39.7013       2.1147       0.3741     691.1537       7.9137
    385.2000      38.6292       2.1072       0.3799     691.1537       7.9163
    385.3500      40.5675       2.1175       0.3730     664.4739       7.8540
    385.5000      39.5291       2.1123       0.3734     677.3984       7.9244
    385.6500      40.5611       2.1118       0.3767     577.7442       7.8774
    385.8000      40.2698       2.1127       0.3856     566.3212       7.8209
    385.9500      37.1235       2.1019       0.3833     501.7161       7.8329
    386.1000      34.6433       2.0970       0.3770     500.6313       7.8000
    386.2500      33.0292       2.0995       0.3776     441.2969       7.7906
    386.4000      32.5356       2.0968       0.3781     361.0629       7.8777
    386.5500      33.4621       2.1036       0.3884     335.5555       7.9366
    386.7000      35.2033       2.0731       0.3907     343.3463       7.9811
    386.8500      32.7764       2.0799       0.3904     341.9608       7.9678
    387.0000      33.7496       2.0830       0.3870     317.1293       7.9037
    387.1500      33.5820       2.0935       0.3753     357.0851       7.8265
    387.3000      34.0106       2.0768       0.3797     344.4184       7.9018
    387.4500      34.9472       2.0910       0.3758     325.1566       7.9559
    387.6000      33.3843       2.0944       0.3893     317.6594       8.0282
    387.7500      36.1313       2.1010       0.3858     249.4647       8.0864
    387.9000      31.7001       2.1188       0.3896     303.4352       7.9785
    388.0500      33.8201       2.1249       0.3848     284.5634       7.9438
    388.2000      37.0390       2.1246       0.3878     323.6563       7.9614
    388.3500      37.8317       2.1330       0.3911     305.1705       8.0719
    388.5000      39.2263       2.1295       0.3913     323.4006       8.0538
    388.6500      37.4371       2.1244       0.3895     316.4330       8.1330
    388.8000      38.0925       2.1262       0.3920     308.5698       8.1891
    388.9500      37.3246       2.1522       0.4008     308.5698       8.0809
    389.1000      38.2118       2.1635       0.4034     309.8199       8.0178
    389.2500      36.8754       2.1595       0.3993     370.6230       8.0474
    389.4000      38.2055       2.1331       0.4015     370.6230       8.0623
    389.5500      36.9554       2.1326       0.4037     306.4249       8.0430
    389.7000      37.0101       2.1171       0.3935     324.5770       8.0509
    389.8500      40.4600       2.1097       0.3861     299.1245       7.9541
    390.0000      41.2514       2.0869       0.3829     304.9356       8.0138
    390.1500      44.6016       2.0760       0.3942     240.2899       7.9039
    390.3000      43.6580       2.0862       0.3878     220.0700       7.8450
    390.4500      43.8728       2.0930       0.3807     158.9849       7.9390
    390.6000      45.4951       2.0864       0.3867     129.1674       8.0122
    390.7500      44.6164       2.0698       0.3849      97.1814       7.9504
    390.9000      48.3941       2.0828       0.3814      88.2684       7.9676
    391.0500      49.3113       2.0712       0.3735      79.7324       7.9704
    391.2000      48.6236       2.0734       0.3600      76.3305       7.9208
    391.3500      49.9143       2.0667       0.3543      76.3305       7.9918
    391.5000      51.4725       2.0697       0.3609      73.8316       7.9102
    391.6500      51.0061       2.0941       0.3754      70.3970       8.0386
    391.8000      52.1488       2.1051       0.3801      79.5010       8.0116
    391.9500      51.2288       2.1103       0.3974      75.1675       8.0674
    392.1000      46.9021       2.0983       0.3953      89.5783       8.0707
    392.2500      42.0010       2.1041       0.4021     103.2645       8.0706
    392.4000      42.2237       2.0947       0.3901     118.1620       8.0962
    392.5500      41.2898       2.0835       0.3919     140.3500       8.0530
