~VERSION -------------------------------------------
 VERS.                 2.0 : CWLS LOG ASCII STANDARD - VERSION 2.0
 WRAP.                  NO : ONE LINE PER DEPTH STEP
~WELL -----------------------------------------------
 WELL.                ATHABASCA-B1 : Well name
 UWI .                CA-ATH-001        : Unique Well ID
 LAT .                57.2341        : Latitude
 LON .                -111.5432        : Longitude
 STRT.M               300.00 : START DEPTH
 STOP.M               599.85 : STOP DEPTH
 STEP.M               0.1500 : STEP
 NULL.                -9999 : NULL VALUE
~CURVE -----------------------------------------------
 DEPTH .M               : Depth
 GR    .GAPI            : Gamma Ray
 RHOB  .G/C3            : Bulk Density
 NPHI  .V/V             : Neutron Porosity
 RT    .OHMM            : Resistivity
 CALI  .IN              : Caliper
~A  DEPTH              GR        RHOB        NPHI          RT        CALI
# ...
    408.1500      41.4541       2.0754       0.4021     496.0012       7.7832
    408.3000      40.4118       2.0893       0.4114     473.6168       7.7505
    408.4500      41.5965       2.1117       0.4063     469.5241       7.7720
    408.6000      40.5875       2.1042       0.4125     446.4698       7.7581
    408.7500      40.6939       2.1261       0.4168     504.4900       7.7750
    408.9000      42.6657       2.1510       0.4170     462.3963       7.7687
    409.0500      42.2218       2.1568       0.4183     494.5568       7.7298
    409.2000      42.6335       2.1415       0.4166     532.8671       7.8456
    409.3500      39.7775       2.1371       0.4095     514.5180       7.8710
    409.5000      40.4788       2.1431       0.4081     514.5180       7.9426
    409.6500      40.0881       2.1432       0.4152     543.2320       8.0109
    409.8000      39.9176       2.1517       0.4053     480.1467       8.0124
    409.9500      39.0872       2.1498       0.3967     408.2518       7.9434
    410.1000      38.9821       2.1349       0.3976     379.5607       7.9993
    410.2500      38.9958       2.1520       0.3974     356.1607       8.0996
    410.4000      40.5463       2.1496       0.3902     321.5551       8.0752
    410.5500      39.7801       2.1464       0.3883     365.2200       8.1766
    410.7000      38.4835       2.1327       0.3928     355.9410       8.0987
    410.8500      38.9170       2.1230       0.3930     339.5005       8.0481
    411.0000      38.6502       2.1005       0.3818     276.0548       7.9724
    411.1500      38.5674       2.0880       0.3838     233.8812       7.9460
    411.3000      37.7709       2.1060       0.3808     190.3145       7.8941
    411.4500      38.8889       2.1076       0.3799     156.4264       8.0206
    411.6000      41.5241       2.1038       0.3745     162.0107       7.9208
    411.7500      43.0505       2.0921       0.3805     130.4585       7.8864
    411.9000      43.4793       2.0908       0.3804      90.3826       7.9437
    412.0500      45.9193       2.0719       0.3827      84.3375       7.8913
    412.2000      47.9542       2.0760       0.3887      79.4352       7.9351
    412.3500      48.8412       2.0886       0.3884      75.6608       7.8621
    412.5000      47.5139       2.0835       0.3860      77.8544       7.8509
    412.6500      49.1052       2.0932       0.3904      86.2331       7.8399
    412.8000      50.6209       2.1042       0.3879      80.6726       7.9429
    412.9500      50.3313       2.1121       0.3921      82.2932       7.9303
    413.1000      47.8235       2.1193       0.3953      89.4318       7.8996
    413.2500      46.3751       2.1148       0.4062     103.8279       7.8614
    413.4000      45.7370       2.1169       0.4131     133.5835       7.9140
    413.5500      44.5106       2.0930       0.4156     170.6779       7.9374
    413.7000      41.7788       2.1021       0.4138     204.8057       7.8426
    413.8500      41.6525       2.0921       0.4236     206.4340       7.9158
    414.0000      38.4043       2.0835       0.4137     243.8864       7.9717
    414.1500      35.3560       2.0987       0.4070     352.0266       7.9295
    414.3000      35.4349       2.1045       0.4114     426.8260       7.8238
    414.4500      34.7324       2.0964       0.4085     500.9542       7.7879
    414.6000      32.8316       2.1011       0.4095     607.5725       7.8505
    414.7500      32.5833       2.0959       0.4015     653.3568       7.8982
    414.9000      30.3940       2.0884       0.3964     653.3568       7.8191
    415.0500      28.4292       2.0604       0.3893     651.2943       7.8393
    415.2000      27.7633       2.0547       0.3774     684.9689       7.9488
    415.3500      29.4664       2.0556       0.3704     690.3568       7.9129
    415.5000      30.0251       2.0916       0.3660     676.2615       7.8873
    415.6500      29.2332       2.0786       0.3533     676.1949       7.9574
    415.8000      27.8171       2.0970       0.3530     665.3372       7.9497
    415.9500      27.6724       2.0825       0.3591     601.8092       8.0139
    416.1000      25.1088       2.0765       0.3603     601.8092       7.9906
    416.2500      25.8070       2.0628       0.3481     632.5920       7.9029
    416.4000      27.5297       2.0534       0.3543     572.2322       7.8834
    416.5500      25.3991       2.0581       0.3505     510.5157       7.8371
    416.7000      25.2798       2.0576       0.3499     460.0801       7.7581
    416.8500      26.6793       2.0365       0.3518     392.2043       7.7517
    417.0000      28.1561       2.0414       0.3591     345.0244       7.7330
    417.1500      30.2108       2.0457       0.3535     297.3376       7.6916
    417.3000      28.9075       2.0500       0.3654     277.4869       7.7486
    417.4500      30.4374       2.0439       0.3719     262.7266       7.7206
    417.6000      30.8145       2.0518       0.3738     264.4703       7.8308
    417.7500      33.6715       2.0272       0.3770     289.0857       7.8717
    417.9000      32.7028       2.0323       0.3736     292.3058       7.8807
    418.0500      36.0522       2.0225       0.3781     295.8562       7.9449
    418.2000      36.0522       2.0558       0.3678     279.0149       8.0089
    418.3500      39.5919       2.0698       0.3752     272.1302       8.0564
    418.5000      39.2808       2.0724       0.3909     272.1302       8.0365
    418.6500      40.2454       2.0844       0.3862     300.8348       8.0333
    418.8000      39.5100       2.0780       0.3851     324.9241       8.0013
    418.9500      40.3095       2.0788       0.3823     377.8812       7.9584
    419.1000      39.6794       2.0834       0.3758     386.8685       7.8942
    419.2500      42.1798       2.0898       0.3629     452.4523       7.9380
    419.4000      40.3459       2.0719       0.3710     510.7257       7.9961
    419.5500      41.0994       2.0699       0.3632     510.0999       7.9275
    419.7000      39.4229       2.0759       0.3682     538.7579       7.8798
    419.8500      40.3204       2.0670       0.3708     403.1587       7.8480
    420.0000      39.9379       2.0653       0.3630     403.3152       7.8349
    420.1500      40.3551       2.0736       0.3744     362.8182       7.8485
    420.3000      38.0082       2.0809       0.3709     342.0101       7.9115
    420.4500      40.5261       2.0675       0.3733     406.5108       7.9217
    420.6000      40.6944       2.0690       0.3694     416.7953       7.9427
    420.7500      40.8820       2.0720       0.3629     416.7953       7.8734
    420.9000      38.4261       2.0527       0.3639     416.7953       7.7945
    421.0500      39.8785       2.0746       0.3615     432.5459       7.8208
    421.2000      36.3921       2.0731       0.3642     359.4774       7.9517
    421.3500      36.9104       2.0809       0.3624     417.8334       7.9490
    421.5000      32.6833       2.0806       0.3617     355.9291       7.9654
    421.6500      33.4829       2.0993       0.3665     365.8883       7.9765
    421.8000      34.3918       2.1005       0.3739     419.3498       7.9394
    421.9500      34.2199       2.0782       0.3771     396.6753       7.9211
    422.1000      35.2948       2.0740       0.3803     520.2264       7.9256
    422.2500      34.2840       2.0809       0.3840     520.2264       7.9319
    422.4000      35.7759       2.0662       0.3793     574.0787       7.9925
    422.5500      36.5642       2.0622       0.3740     588.9878       7.9795
    422.7000      35.1556       2.0617       0.3787     588.9878       7.8859
    422.8500      35.9320       2.0646       0.3764     588.9878       7.8458
    423.0000      36.3659       2.0655       0.3761     536.4388       7.8353
    423.1500      40.7410       2.0755       0.3818     385.4963       7.7742
    423.3000      38.3027       2.0626       0.3881     374.3134       7.8060
    423.4500      40.4603       2.0801       0.3898     417.3753       7.8635
