~VERSION -------------------------------------------
 VERS.                 2.0 : CWLS LOG ASCII STANDARD - VERSION 2.0
 WRAP.                  NO : ONE LINE PER DEPTH STEP
~WELL -----------------------------------------------
 WELL.                ATHABASCA-B1 : Well name
 UWI .                CA-ATH-001        : Unique Well ID
 LAT .                57.2341        : Latitude
 LON .                -111.5432        : Longitude
 STRT.M               300.00 : START DEPTH
 STOP.M               599.85 : STOP DEPTH
 STEP.M               0.1500 : STEP
 NULL.                -9999 : NULL VALUE
~CURVE -----------------------------------------------
 DEPTH .M               : Depth
 GR    .GAPI            : Gamma Ray
 RHOB  .G/C3            : Bulk Density
 NPHI  .V/V             : Neutron Porosity
 RT    .OHMM            : Resistivity
 CALI  .IN              : Caliper
~A  DEPTH              GR        RHOB        NPHI          RT        CALI
# ...
    454.5000      32.5206       2.0624       0.3744     412.1337       8.0535
    454.6500      34.3084       2.0786       0.3607     402.8248       7.9036
    454.8000      36.6052       2.0894       0.3613     402.8248       7.8134
    454.9500      38.0605       2.0837       0.3632     388.0000       7.7853
    455.1000      35.5394       2.0948       0.3588     319.9982       7.8243
    455.2500      35.8334       2.0788       0.3691     319.9982       7.7999
    455.4000      35.9345       2.0823       0.3671     313.9714       7.7175
    455.5500      34.6819       2.0888       0.3781     279.3865       7.6825
    455.7000      35.2302       2.1047       0.3765     234.2095       7.7537
    455.8500      36.4065       2.0911       0.3774     282.5868       7.7089
    456.0000      37.3623       2.1014       0.3803     322.3705       7.7665
    456.1500      35.4144       2.0863       0.3875     344.0253       7.8266
    456.3000      37.1959       2.0939       0.3886     344.2028       7.8842
    456.4500      37.7070       2.0996       0.3930     350.2921       7.9393
    456.6000      38.4884       2.0955       0.3866     357.9708       7.9469
    456.7500      38.8150       2.0875       0.3776     328.4884       7.8798
    456.9000      37.9197       2.0904       0.3804     391.0653       7.9521
    457.0500      37.4927       2.0796       0.3793     310.4600       7.9905
    457.2000      37.6629       2.0810       0.3776     301.8478       7.9246
    457.3500      38.9724       2.0685       0.3828     333.5060       8.0227
    457.5000      39.6248       2.0771       0.3762     259.3115       7.9801
    457.6500      43.8460       2.0645       0.3732     220.7019       7.9583
    457.8000      43.2199       2.0769       0.3649     211.4186       7.9714
    457.9500      44.8322       2.0570       0.3701     190.3290       7.9865
    458.1000      45.8439       2.0755       0.3764     134.0905       8.0120
    458.2500      49.5217       2.0688       0.3780      99.6427       8.0595
    458.4000      48.5394       2.0709       0.3773      75.2714       7.9904
    458.5500      50.3916       2.0685       0.3776      70.7970       7.9847
    458.7000      50.8854       2.0654       0.3737      56.2924       7.9918
    458.8500      50.5172       2.0701       0.3751      42.3314       7.9284
    459.0000      51.1902       2.0772       0.3677      37.9331       7.9540
    459.1500      54.0535       2.0708       0.3647      30.6929       7.8658
    459.3000      52.3129       2.0983       0.3629      29.5235       7.8099
    459.4500      52.7621       2.1083       0.3696      28.0374       7.7984
    459.6000      54.0678       2.1007       0.3756      22.4104       7.6989
    459.7500      53.6752       2.0971       0.3767      25.8125       7.6500
    459.9000      49.8375       2.1119       0.3807      28.7278       7.6376
    460.0500      53.7787       2.1135       0.3755      36.3775       7.7215
    460.2000      51.3826       2.1241       0.3716      32.9280       7.6939
    460.3500      49.9011       2.1041       0.3688      40.0340       7.7176
    460.5000      44.7092       2.1013       0.3683      44.7364       7.7412
    460.6500      48.1362       2.1105       0.3647      59.2211       7.8128
    460.8000      45.5892       2.1234       0.3646      58.6322       7.8474
    460.9500      44.4489       2.1264       0.3640      57.8231       7.8082
    461.1000      44.4623       2.1236       0.3647      56.7098       7.9003
    461.2500      47.3767       2.1081       0.3713      69.1382       7.9058
    461.4000      46.3795       2.0953       0.3760      70.5137       7.9075
    461.5500      46.1511       2.0895       0.3824      75.2648       7.8193
    461.7000      44.1369       2.0811       0.3852      60.6073       7.8421
    461.8500      42.9182       2.0811       0.3744      83.2112       7.9040
    462.0000      45.0087       2.0804       0.3770      69.3723       7.9317
    462.1500      45.3825       2.0744       0.3777      59.5244       7.9072
    462.3000      43.3144       2.0538       0.3863      51.0585       7.9438
    462.4500      44.1888       2.0448       0.3866      71.2417       8.0129
    462.6000      43.7645       2.0804       0.3833      80.7328       7.9245
    462.7500      45.2932       2.0840       0.3859      87.7288       7.9495
    462.9000      43.5509       2.1102       0.3970      83.4829       7.9660
    463.0500      45.3834       2.1043       0.4067      77.6305       8.0147
    463.2000      46.7328       2.1056       0.4027      91.2255       8.0502
    463.3500      45.7156       2.1045       0.4029     122.8446       7.9581
    463.5000      44.8970       2.1074       0.4034     122.1264       7.9264
    463.6500      43.3546       2.1090       0.4016     143.3025       7.9636
    463.8000      44.0130       2.1089       0.3913     165.2051       7.8827
    463.9500      43.3519       2.0966       0.3864     230.6869       7.8040
    464.1000      42.8819       2.1041       0.3854     230.6869       7.8294
    464.2500      40.2256       2.0850       0.3880     283.0244       7.7982
    464.4000      40.5723       2.0776       0.3872     366.1563       7.8483
    464.5500      38.9504       2.1012       0.3785     426.8681       7.8519
    464.7000      37.0139       2.1088       0.3763     430.4923       7.7954
    464.8500      39.6152       2.0830       0.3795     443.4996       7.8745
    465.0000      40.4803       2.0970       0.3753     464.4256       7.9521
    465.1500      40.9567       2.0609       0.3757     488.0461       7.9225
    465.3000      38.9474       2.0759       0.3690     618.3084       7.9161
    465.4500      37.5652       2.0532       0.3765     615.8791       7.8980
    465.6000      38.5351       2.0551       0.3761     513.6022       7.8450
    465.7500      38.6106       2.0650       0.3834     569.8035       7.8979
    465.9000      37.7149       2.0892       0.3863     564.8570       7.8433
    466.0500      36.9673       2.0694       0.3845     574.0535       7.8559
    466.2000      37.2780       2.0791       0.3814     552.0663       7.8679
    466.3500      37.5376       2.0824       0.3967     552.0663       7.8671
    466.5000      36.9999       2.1064       0.3903     566.9419       7.7503
    466.6500      38.9183       2.1004       0.3924     566.9419       7.7413
    466.8000      38.4401       2.0767       0.4079     530.9374       7.7403
    466.9500      39.7123       2.0824       0.4042     524.5207       7.7096
    467.1000      39.8666       2.0852       0.4135     522.2672       7.8186
    467.2500      39.9870       2.0876       0.4206     552.7112       7.8662
    467.4000      39.2871       2.1117       0.4171     515.2220       7.8554
    467.5500      41.4958       2.0867       0.4069     515.2220       7.8449
    467.7000      39.2466       2.1084       0.4058     526.0729       7.9000
    467.8500      39.1056       2.1104       0.4047     637.7041       7.8215
    468.0000      35.9347       2.1137       0.3946     641.5348       7.8715
    468.1500      37.7178       2.0975       0.3961     577.7692       7.8768
    468.3000      39.8811       2.1089       0.4024     546.7625       7.9471
    468.4500      41.6002       2.1134       0.3969     560.3502       7.9850
    468.6000      41.2093       2.1260       0.3832     512.4447       7.8684
    468.7500      42.6353       2.1001       0.3912     433.7812       7.8323
    468.9000      40.3637       2.1113       0.3914     414.2786       7.8518
    469.0500      42.5847       2.1201       0.3869     423.8624       7.8177
    469.2000      42.9579       2.1189       0.3837     374.2197       7.7208
    469.3500      40.1279       2.1038       0.3811     373.3150       7.8036
    469.5000      37.6138       2.0955       0.3720     349.4700       7.7872
    469.6500      40.8683       2.0928       0.3742     374.8986       7.7058
    469.8000      38.4697       2.0933       0.3871     353.5947       7.7462
