~VERSION -------------------------------------------
 VERS.                 2.0 : CWLS LOG ASCII STANDARD - VERSION 2.0
 WRAP.                  NO : ONE LINE PER DEPTH STEP
~WELL -----------------------------------------------
 WELL.                ATHABASCA-B1 : Well name
 UWI .                CA-ATH-001        : Unique Well ID
 LAT .                57.2341        : Latitude
 LON .                -111.5432        : Longitude
 STRT.M               300.00 : START DEPTH
 STOP.M               599.85 : STOP DEPTH
 STEP.M               0.1500 : STEP
 NULL.                -9999 : NULL VALUE
~CURVE -----------------------------------------------
 DEPTH .M               : Depth
 GR    .GAPI            : Gamma Ray
 RHOB  .G/C3            : Bulk Density
 NPHI  .V/V             : Neutron Porosity
 RT    .OHMM            : Resistivity
 CALI  .IN              : Caliper
~A  DEPTH              GR        RHOB        NPHI          RT        CALI
    300.0000      19.4995       1.1097       0.2212      23.9161       3.9161
    300.1500      20.0329       1.2512       0.2435      36.3810       4.6809
    300.3000      20.5662       1.4034       0.2707      52.3229       5.4554
    300.4500      23.4946       1.5582       0.2989      67.2306       6.2104
    300.6000      27.3409       1.6861       0.3352     106.1443       7.0171
    300.7500      31.2207       1.8348       0.3628     161.9371       7.8272
    300.9000      34.3491       1.9823       0.3828     247.1957       7.8035
    301.0500      38.6117       2.1352       0.4145     339.2539       7.7393
    301.2000      40.3007       2.1299       0.3993     278.4972       7.8667
    301.3500      41.0422       2.1291       0.4005     227.9135       7.9038
    301.5000      40.6511       2.1356       0.4049     172.9522       7.9057
    301.6500      38.4965       2.1275       0.4065     138.8953       7.8991
    301.8000      42.2935       2.1119       0.4061      98.9326       7.8798
    301.9500      43.1934       2.1013       0.4122      82.6256       7.9715
    302.1000      44.5376       2.1022       0.4077      69.6930       7.9347
    302.2500      46.3068       2.0997       0.3988      84.3856       7.8734
    302.4000      49.1793       2.0929       0.4042      83.6516       7.8279
    302.5500      49.1793       2.0755       0.3918      78.2165       7.7920
    302.7000      51.2097       2.0583       0.3897      89.7367       7.6964
    302.8500      50.4622       2.0730       0.3791      66.5525       7.6515
    303.0000      47.1157       2.0526       0.3728      69.1376       7.7398
    303.1500      46.1114       2.0409       0.3781      59.7181       7.7598
    303.3000      43.5550       2.0271       0.3729      55.2501       7.7914
    303.4500      43.1740       2.0060       0.3748      72.6501       7.7646
    303.6000      43.6319       2.0085       0.3826      92.2015       7.8177
    303.7500      44.6640       2.0034       0.3777     118.4345       7.8344
    303.9000      45.9598       2.0271       0.3762     119.5699       7.9284
    304.0500      43.6980       2.0240       0.3805     167.8688       7.9504
    304.2000      46.0976       2.0307       0.3738     203.0133       7.9514
    304.3500      45.5919       2.0486       0.3896     242.1952       8.0185
    304.5000      41.1421       2.0466       0.3968     243.6354       7.9992
    304.6500      38.2696       2.0518       0.3920     216.8257       8.0226
    304.8000      41.4350       2.0427       0.3945     223.3028       8.0114
    304.9500      39.0629       2.0412       0.3906     211.3453       7.9814
    305.1000      40.6272       2.0310       0.3807     271.1942       7.9193
    305.2500      43.3787       2.0462       0.3878     252.0151       7.9353
    305.4000      41.7880       2.0477       0.3865     298.4229       7.8702
    305.5500      41.9427       2.0366       0.3817     349.6156       7.8809
    305.7000      43.1461       2.0675       0.3847     343.8501       7.9661
    305.8500      41.7085       2.0698       0.3791     335.6803       7.9226
    306.0000      42.7519       2.0768       0.3797     344.3732       7.9383
    306.1500      40.4749       2.0595       0.3793     406.7019       7.9319
    306.3000      38.3076       2.0682       0.3764     381.3953       7.9923
    306.4500      34.0372       2.0789       0.3811     364.4568       8.0604
    306.6000      37.0210       2.0603       0.3721     346.1540       8.0692
    306.7500      38.8937       2.0765       0.3740     346.1540       8.0094
    306.9000      41.4145       2.0760       0.3780     408.7985       7.9763
    307.0500      39.3519       2.0735       0.3776     457.0575       8.0060
    307.2000      38.9057       2.0769       0.3776     493.0731       7.9572
    307.3500      37.3194       2.0805       0.3796     447.5897       7.9252
    307.5000      37.2794       2.0754       0.3808     481.6526       7.9579
    307.6500      40.1810       2.0715       0.3822     323.0299       7.9398
    307.8000      42.3349       2.0714       0.3917     344.1697       7.8796
    307.9500      42.6885       2.0495       0.3937     329.2969       7.7997
    308.1000      44.9004       2.0430       0.3949     274.4769       7.8708
    308.2500      42.0163       2.0394       0.4012     274.4769       7.9085
    308.4000      42.3028       2.0444       0.4069     236.4990       8.0096
    308.5500      41.0953       2.0491       0.4069     194.8586       7.9927
    308.7000      42.5622       2.0417       0.4029     205.9426       8.0346
    308.8500      40.4143       2.0436       0.4052     221.1977       8.1043
    309.0000      41.2098       2.0527       0.4006     221.1977       8.0543
    309.1500      41.7059       2.0498       0.3959     215.9726       8.0949
    309.3000      44.6980       2.0613       0.3989     191.0633       8.1130
    309.4500      43.4731       2.0722       0.4008     191.9700       8.0965
    309.6000      40.9297       2.0774       0.4052     196.5684       8.0723
    309.7500      40.0008       2.0623       0.4019     196.5684       8.1001
    309.9000      41.1989       2.0523       0.3994     297.5184       8.0994
    310.0500      41.7733       2.0792       0.3917     280.7723       8.1259
    310.2000      41.1138       2.0876       0.3925     298.0307       8.0947
    310.3500      40.0063       2.0909       0.4009     316.6539       8.1037
    310.5000      41.2322       2.0686       0.3891     311.5379       8.1094
    310.6500      43.0269       2.0724       0.3829     384.4446       8.1016
    310.8000      43.6246       2.0616       0.3815     400.9621       8.0725
    310.9500      43.5297       2.0567       0.3809     346.1198       8.1109
    311.1000      43.0880       2.0550       0.3759     346.1198       8.1022
    311.2500      44.0457       2.0432       0.3715     306.3251       8.1198
    311.4000      44.2759       2.0485       0.3769     286.7417       8.0802
    311.5500      40.1809       2.0572       0.3803     331.7617       8.0395
    311.7000      43.0489       2.0463       0.3798     314.4912       8.0995
    311.8500      45.1630       2.0460       0.3787     345.1287       8.0652
    312.0000      46.3624       2.0461       0.3826     345.1287       8.0752
    312.1500      44.1087       2.0619       0.3892     317.1071       8.0564
    312.3000      42.8519       2.0490       0.3926     336.0203       8.0954
    312.4500      42.6492       2.0475       0.3901     324.7279       8.0515
    312.6000      42.3038       2.0630       0.3875     351.1073       8.0109
    312.7500      40.9436       2.0772       0.3947     281.9571       7.9773
    312.9000      39.1945       2.0662       0.3997     291.7846       7.9112
    313.0500      38.5075       2.0760       0.3988     362.0790       7.9084
    313.2000      38.6785       2.0736       0.3903     437.8805       7.7902
    313.3500      38.1223       2.0643       0.3850     437.8805       7.7426
    313.5000      38.0118       2.0642       0.3976     476.0102       7.7998
    313.6500      37.7825       2.0761       0.3942     417.5052       7.8456
    313.8000      42.5996       2.0692       0.4038     375.9882       7.9152
    313.9500      39.3493       2.0799       0.4080     415.6712       7.9476
    314.1000      39.0263       2.0856       0.4122     427.2605       7.9599
    314.2500      39.8214       2.1244       0.4031     363.1325       7.9964
    314.4000      40.4748       2.1294       0.3956     335.9165       8.0689
    314.5500      39.5183       2.1282       0.3934     265.7739       8.0518
    314.7000      38.2130       2.1297       0.3896     225.8835       8.0586
    314.8500      39.8643       2.1185       0.3870     183.2021       8.1271
    315.0000      41.1244       2.1185       0.3803     231.8788       7.9791
    315.1500      40.9290       2.1261       0.3739     173.8839       7.9578
    315.3000      43.9997       2.1304       0.3800     151.9822       7.8650
