~VERSION -------------------------------------------
 VERS.                 2.0 : CWLS LOG ASCII STANDARD - VERSION 2.0
 WRAP.                  NO : ONE LINE PER DEPTH STEP
~WELL -----------------------------------------------
 WELL.                ATHABASCA-B1 : Well name
 UWI .                CA-ATH-001        : Unique Well ID
 LAT .                57.2341        : Latitude
 LON .                -111.5432        : Longitude
 STRT.M               300.00 : START DEPTH
 STOP.M               599.85 : STOP DEPTH
 STEP.M               0.1500 : STEP
 NULL.                -9999 : NULL VALUE
~CURVE -----------------------------------------------
 DEPTH .M               : Depth
 GR    .GAPI            : Gamma Ray
 RHOB  .G/C3            : Bulk Density
 NPHI  .V/V             : Neutron Porosity
 RT    .OHMM            : Resistivity
 CALI  .IN              : Caliper
~A  DEPTH              GR        RHOB        NPHI          RT        CALI
# ...
    423.6000      39.1028       2.0923       0.3913     404.1083       7.7513
    423.7500      40.1648       2.1010       0.4057     474.3921       7.7380
    423.9000      40.0733       2.1004       0.3923     433.9236       7.7601
    424.0500      42.7639       2.1055       0.3833     420.4002       7.7780
    424.2000      45.5240       2.1340       0.3777     373.8801       7.7626
    424.3500      43.6373       2.1251       0.3763     371.4798       7.8334
    424.5000      41.9262       2.1396       0.3787     371.4798       7.8442
    424.6500      42.5798       2.1635       0.3748     391.8166       7.9285
    424.8000      42.2169       2.1578       0.3907     406.8037       7.8478
    424.9500      41.9541       2.1399       0.3857     396.1868       7.7965
    425.1000      40.3688       2.1301       0.3856     351.3226       7.8451
    425.2500      39.1637       2.1345       0.3845     360.5191       7.9057
    425.4000      36.8291       2.1163       0.3781     501.6818       7.8161
    425.5500      38.5253       2.1058       0.3729     516.6598       7.8584
    425.7000      39.3796       2.1004       0.3709     534.3471       7.8126
    425.8500      38.3070       2.0924       0.3767     551.8899       7.8337
    426.0000      41.6075       2.0803       0.3715     521.1247       7.7977
    426.1500      42.2150       2.0642       0.3779     450.7711       7.7905
    426.3000      39.9596       2.0667       0.3782     420.7684       7.8856
    426.4500      36.4389       2.0696       0.3819     406.3089       7.9338
    426.6000      35.2709       2.0817       0.3804     378.6975       7.9399
    426.7500      36.5786       2.0641       0.3794     305.1868       7.9874
    426.9000      36.0728       2.0637       0.3840     275.4438       8.0674
    427.0500      37.1970       2.0787       0.3693     261.1513       8.0050
    427.2000      37.9730       2.1064       0.3722     246.4625       8.0376
    427.3500      39.0122       2.1103       0.3771     277.9360       8.0786
    427.5000      40.1747       2.1009       0.3772     297.3779       8.0724
    427.6500      40.2540       2.1249       0.3823     239.4626       8.0031
    427.8000      41.1344       2.1266       0.3785     192.3171       7.9505
    427.9500      39.4833       2.1132       0.3690     164.0212       7.8640
    428.1000      39.3306       2.1042       0.3714     157.6767       7.9036
    428.2500      36.5085       2.1115       0.3795     166.9853       7.8744
    428.4000      37.3294       2.1351       0.3809     206.0418       7.8536
    428.5500      37.4164       2.1306       0.3953     215.6381       7.8500
    428.7000      40.0817       2.1219       0.3886     265.4510       7.8752
    428.8500      39.4269       2.1318       0.3830     253.0078       7.8069
    429.0000      37.8081       2.1386       0.3891     310.3362       7.8111
    429.1500      38.6188       2.1316       0.3950     321.7046       7.8584
    429.3000      38.6273       2.1184       0.4019     293.3769       7.9118
    429.4500      37.8791       2.0994       0.3963     285.4239       7.9446
    429.6000      34.4217       2.1033       0.3860     254.0677       8.0043
    429.7500      34.7086       2.1292       0.3810     218.5535       7.9782
    429.9000      34.3924       2.1212       0.3895     226.2264       7.9764
    430.0500      31.2527       2.1207       0.3888     256.1044       8.0100
    430.2000      31.8946       2.1302       0.3947     305.6488       7.9516
    430.3500      31.7857       2.1309       0.3914     270.5370       7.9077
    430.5000      31.4921       2.1375       0.3869     251.9141       8.0176
    430.6500      28.5258       2.1393       0.3880     221.1935       7.9600
    430.8000      28.2925       2.1501       0.3765     234.5841       7.9616
    430.9500      26.5411       2.1401       0.3750     232.9575       8.0539
    431.1000      30.0945       2.1281       0.3773     240.1495       7.9614
    431.2500      32.5981       2.1084       0.3690     212.5817       7.9830
    431.4000      30.0779       2.1013       0.3697     220.7247       8.0055
    431.5500      30.8290       2.1096       0.3645     207.3124       8.0286
    431.7000      31.7881       2.1085       0.3725     219.8712       8.0255
    431.8500      34.3263       2.1236       0.3748     247.0070       8.0607
    432.0000      32.8232       2.1084       0.3739     284.7458       8.0147
    432.1500      33.6861       2.0985       0.3724     235.7724       7.9963
    432.3000      38.0466       2.1058       0.3794     207.4211       7.8665
    432.4500      38.9193       2.1048       0.3868     174.7096       7.8015
    432.6000      40.0640       2.1259       0.3774     180.4659       7.8249
    432.7500      42.4475       2.1118       0.3762     142.6994       7.8064
    432.9000      43.2894       2.0929       0.3803     155.1837       7.7499
    433.0500      44.0797       2.0828       0.3870     122.4424       7.7536
    433.2000      47.9294       2.0980       0.3891      90.5020       7.8128
    433.3500      45.3594       2.1151       0.3967      69.9492       7.8348
    433.5000      45.6370       2.1258       0.4068      61.9636       7.7498
    433.6500      50.0625       2.1315       0.3996      60.3821       7.8570
    433.8000      50.1617       2.1376       0.4058      53.2799       7.8668
    433.9500      51.3788       2.1517       0.4088      46.1018       7.8121
    434.1000      48.2739       2.1239       0.4136      37.5486       7.8477
    434.2500      48.7175       2.1175       0.4265      29.6386       7.7963
    434.4000      49.0748       2.1198       0.4148      41.1913       7.7958
    434.5500      45.9313       2.1243       0.4158      49.6777       7.7697
    434.7000      44.4961       2.1066       0.4134      61.3718       7.7726
    434.8500      46.8580       2.0955       0.4190      64.5316       7.7893
    435.0000      46.2092       2.0942       0.4268      78.1138       7.8950
    435.1500      46.0273       2.0954       0.4190      72.4248       7.8354
    435.3000      46.4006       2.0961       0.4141      82.6629       7.8710
    435.4500      42.1240       2.0928       0.4158      91.9274       7.8702
    435.6000      40.7974       2.0822       0.4028     133.1948       7.8443
    435.7500      40.5344       2.0971       0.3941     139.6254       7.9003
    435.9000      36.2024       2.0907       0.3984     119.7084       8.0277
    436.0500      33.2090       2.0619       0.3923     167.0578       8.0469
    436.2000      30.8878       2.0565       0.3847     203.5784       7.9415
    436.3500      33.1940       2.0616       0.3824     249.9516       7.9643
    436.5000      35.5110       2.0678       0.3830     279.8451       7.8776
    436.6500      33.9479       2.0575       0.3795     291.7555       7.8431
    436.8000      32.7373       2.0576       0.3753     269.5446       7.9192
    436.9500      31.8756       2.0551       0.3760     269.5446       8.0041
    437.1000      28.2154       2.0598       0.3885     279.3905       8.0432
    437.2500      28.2683       2.0694       0.3870     264.7948       8.0073
    437.4000      28.1390       2.0819       0.3811     306.3648       7.9983
    437.5500      27.4026       2.0858       0.3863     323.6906       8.0104
    437.7000      26.5861       2.0612       0.3849     374.1218       8.0409
    437.8500      30.3550       2.0413       0.3847     341.6661       8.0836
    438.0000      29.8940       2.0238       0.3798     420.4892       8.1406
    438.1500      29.4534       2.0486       0.3825     492.1747       8.1924
    438.3000      30.3019       2.0732       0.3846     492.1747       8.1286
    438.4500      31.8884       2.0698       0.3817     492.1747       8.0050
    438.6000      30.4737       2.0641       0.3875     449.3036       7.9920
    438.7500      29.8972       2.0699       0.3858     480.7155       7.9922
    438.9000      31.9809       2.0942       0.3922     480.7155       7.8938
