~VERSION -------------------------------------------
 VERS.                 2.0 : CWLS LOG ASCII STANDARD - VERSION 2.0
 WRAP.                  NO : ONE LINE PER DEPTH STEP
~WELL -----------------------------------------------
 WELL.                ATHABASCA-B1 : Well name
 UWI .                CA-ATH-001        : Unique Well ID
 LAT .                57.2341        : Latitude
 LON .                -111.5432        : Longitude
 STRT.M               300.00 : START DEPTH
 STOP.M               599.85 : STOP DEPTH
 STEP.M               0.1500 : STEP
 NULL.                -9999 : NULL VALUE
~CURVE -----------------------------------------------
 DEPTH .M               : Depth
 GR    .GAPI            : Gamma Ray
 RHOB  .G/C3            : Bulk Density
 NPHI  .V/V             : Neutron Porosity
 RT    .OHMM            : Resistivity
 CALI  .IN              : Caliper
~A  DEPTH              GR        RHOB        NPHI          RT        CALI
# ...
    330.9000      40.5591       2.0478       0.3694     289.7722       7.8912
    331.0500      37.9929       2.0528       0.3735     250.3490       7.8405
    331.2000      35.8402       2.0367       0.3671     232.7786       7.8605
    331.3500      36.4926       2.0568       0.3650     306.7137       7.8148
    331.5000      37.9609       2.0505       0.3684     335.4966       7.8172
    331.6500      38.4717       2.0443       0.3754     353.0436       7.8757
    331.8000      39.0041       2.0481       0.3646     338.6570       7.8611
    331.9500      40.7279       2.0596       0.3501     388.3947       7.8528
    332.1000      35.8296       2.0607       0.3522     450.6166       7.9204
    332.2500      36.4184       2.0636       0.3548     450.6166       8.0091
    332.4000      37.9989       2.0764       0.3540     564.6518       8.0353
    332.5500      36.4140       2.0910       0.3568     589.1708       7.9471
    332.7000      36.5194       2.0876       0.3495     474.2883       7.9217
    332.8500      37.2383       2.1006       0.3563     497.4636       7.9344
    333.0000      39.8376       2.1041       0.3521     497.4636       8.0239
    333.1500      38.4957       2.1260       0.3548     497.4636       8.0560
    333.3000      38.7878       2.1131       0.3548     541.9304       8.0752
    333.4500      40.6656       2.1239       0.3562     569.5295       8.1875
    333.6000      39.0326       2.1150       0.3626     513.2971       8.1633
    333.7500      38.1399       2.1237       0.3588     484.8736       8.2232
    333.9000      38.0269       2.1338       0.3561     488.6191       8.2078
    334.0500      36.3134       2.1405       0.3631     486.9486       8.2579
    334.2000      35.8310       2.1362       0.3816     431.6932       8.2067
    334.3500      34.7297       2.1277       0.3824     462.3014       8.1756
    334.5000      38.2610       2.1389       0.3757     460.2003       8.1182
    334.6500      36.5728       2.1313       0.3827     460.2003       8.0603
    334.8000      38.0529       2.1359       0.3822     460.2003       8.0169
    334.9500      34.8410       2.1309       0.3957     548.7442       7.9873
    335.1000      34.0654       2.1365       0.3964     556.6493       7.9926
    335.2500      32.6663       2.1210       0.3996     556.6493       7.9883
    335.4000      36.3501       2.1022       0.3797     532.7026       7.9919
    335.5500      38.4575       2.0962       0.3788     503.5496       8.0737
    335.7000      38.9148       2.1019       0.3873     515.3144       8.1331
    335.8500      38.7140       2.1031       0.3761     528.5753       8.1393
    336.0000      38.4881       2.0944       0.3717     489.8921       8.1135
    336.1500      38.3091       2.0862       0.3754     489.8921       8.1206
    336.3000      39.3927       2.0700       0.3745     375.8499       8.1419
    336.4500      41.3912       2.0494       0.3702     333.4733       8.1169
    336.6000      43.0430       2.0540       0.3708     331.2821       8.2136
    336.7500      41.0769       2.0426       0.3775     332.7946       8.1070
    336.9000      41.3931       2.0485       0.3815     309.0987       8.0760
    337.0500      40.4521       2.0516       0.3779     309.0987       8.0732
    337.2000      44.0831       2.0514       0.3685     322.0127       8.0846
    337.3500      45.8492       2.0392       0.3720     322.0127       8.0358
    337.5000      45.9268       2.0481       0.3641     301.1188       8.0669
    337.6500      43.3366       2.0557       0.3766     314.6550       8.0382
    337.8000      41.5835       2.0645       0.3827     353.6762       8.0201
    337.9500      41.7667       2.0718       0.3763     252.7568       8.0373
    338.1000      43.5376       2.0737       0.3826     200.3707       7.9670
    338.2500      44.7296       2.1000       0.3911     199.3989       8.0202
    338.4000      44.9739       2.0969       0.3979     186.9394       8.0799
    338.5500      43.5289       2.0980       0.4009     220.3531       8.0352
    338.7000      42.7314       2.1039       0.3953     293.4276       8.0464
    338.8500      44.6420       2.0830       0.4020     276.7275       8.0911
    339.0000      45.7297       2.0605       0.3986     217.7934       8.0907
    339.1500      45.2178       2.0631       0.4015     187.8633       8.0696
    339.3000      46.0699       2.0575       0.4041     175.3718       8.0263
    339.4500      42.4388       2.0560       0.4059     151.7926       7.9588
    339.6000      43.6318       2.0750       0.3969     132.3727       7.9547
    339.7500      43.4391       2.0586       0.3966     141.5577       8.0056
    339.9000      43.8773       2.0501       0.4015     129.2462       7.9101
    340.0500      47.0975       2.0445       0.3985     126.9235       7.9125
    340.2000      45.3914       2.0465       0.3979     168.8431       7.9090
    340.3500      44.4397       2.0658       0.4062     230.3906       7.8702
    340.5000      42.1269       2.0518       0.3995     279.4821       7.8088
    340.6500      40.1627       2.0584       0.3887     274.6747       7.7902
    340.8000      41.5830       2.0728       0.3828     297.5701       7.8479
    340.9500      41.0507       2.1042       0.3810     297.5701       7.8144
    341.1000      37.4883       2.1319       0.3728     322.0297       7.8393
    341.2500      37.3525       2.1370       0.3732     393.6827       7.7799
    341.4000      38.3474       2.1368       0.3649     491.3921       7.8080
    341.5500      38.8587       2.1205       0.3661     480.8524       7.7805
    341.7000      41.3055       2.1455       0.3714     462.6008       7.7857
    341.8500      40.9236       2.1427       0.3760     460.6946       7.8215
    342.0000      42.2527       2.1498       0.3883     372.5045       7.8730
    342.1500      42.2620       2.1698       0.3858     329.8142       7.9910
    342.3000      41.4366       2.1791       0.3809     313.6612       7.9385
    342.4500      43.4040       2.1729       0.3832     314.4260       7.9534
    342.6000      41.6740       2.1564       0.3744     307.3146       7.9555
    342.7500      41.6469       2.1558       0.3803     307.3146       7.9943
    342.9000      42.2963       2.1622       0.3843     333.5343       7.9634
    343.0500      42.8096       2.1730       0.3898     313.5211       7.9599
    343.2000      41.5557       2.1699       0.4017     267.9156       7.9105
    343.3500      41.5557       2.1570       0.4087     248.6800       7.9302
    343.5000      39.2383       2.1517       0.4147     246.3411       7.8530
    343.6500      38.7843       2.1384       0.4239     217.8574       7.8081
    343.8000      38.3941       2.1458       0.4292     201.1613       7.8369
    343.9500      39.8044       2.1354       0.4269     241.5790       7.8297
    344.1000      39.6799       2.1378       0.4267     265.3301       7.7821
    344.2500      38.3703       2.1542       0.4089     285.5350       7.7300
    344.4000      37.0020       2.1508       0.3974     325.7807       7.7543
    344.5500      33.6382       2.1399       0.4001     329.2111       7.8551
    344.7000      31.8123       2.1313       0.3954     313.0431       7.8728
    344.8500      33.0061       2.1210       0.3948     268.1681       7.8650
    345.0000      34.3165       2.1283       0.3930     266.6699       7.8966
    345.1500      36.8565       2.1306       0.3856     255.9587       7.9340
    345.3000      36.8665       2.1200       0.3779     240.3157       7.8903
    345.4500      37.9344       2.0855       0.3637     256.4663       7.9208
    345.6000      39.5364       2.0916       0.3565     280.4113       7.8809
    345.7500      38.8509       2.0986       0.3484     294.2093       7.8088
    345.9000      38.2936       2.1092       0.3416     332.6756       7.7963
    346.0500      36.3944       2.0981       0.3447     338.8867       7.7036
    346.2000      38.1275       2.1022       0.3466     292.5244       7.7414
