~VERSION -------------------------------------------
 VERS.                 2.0 : CWLS LOG ASCII STANDARD - VERSION 2.0
 WRAP.                  NO : ONE LINE PER DEPTH STEP
~WELL -----------------------------------------------
 WELL.                ATHABASCA-B1 : Well name
 UWI .                CA-ATH-001        : Unique Well ID
 LAT .                57.2341        : Latitude
 LON .                -111.5432        : Longitude
 STRT.M               300.00 : START DEPTH
 STOP.M               599.85 : STOP DEPTH
 STEP.M               0.1500 : STEP
 NULL.                -9999 : NULL VALUE
~CURVE -----------------------------------------------
 DEPTH .M               : Depth
 GR    .GAPI            : Gamma Ray
 RHOB  .G/C3            : Bulk Density
 NPHI  .V/V             : Neutron Porosity
 RT    .OHMM            : Resistivity
 CALI  .IN              : Caliper
~A  DEPTH              GR        RHOB        NPHI          RT        CALI
# ...
    516.3000      32.8364       2.0903       0.3752     521.4253       7.8443
    516.4500      32.9287       2.0986       0.3748     499.9117       7.8883
    516.6000      33.2771       2.1043       0.3767     550.4577       7.9523
    516.7500      36.1482       2.1166       0.3902     473.2986       7.9745
    516.9000      33.5354       2.1369       0.3854     413.9297       7.9696
    517.0500      36.2705       2.1378       0.3795     484.6998       7.9483
    517.2000      37.8868       2.1288       0.3715     540.8429       7.9731
    517.3500      37.7417       2.1253       0.3780     530.9811       7.9903
    517.5000      41.0536       2.1423       0.3782     530.9811       7.9961
    517.6500      37.8922       2.1310       0.3813     528.5937       7.9842
    517.8000      37.2482       2.1285       0.3850     528.5937       8.1140
    517.9500      37.3908       2.1476       0.3773     528.5937       8.0076
    518.1000      36.7503       2.1476       0.3754     528.5937       7.9780
    518.2500      37.2350       2.1417       0.3759     564.3791       7.9409
    518.4000      38.4718       2.1533       0.3769     533.8664       7.8415
    518.5500      38.9806       2.1509       0.3842     569.8367       7.8888
    518.7000      40.0716       2.1636       0.3769     594.3596       7.8755
    518.8500      40.9333       2.1747       0.3784     594.3596       7.8171
    519.0000      39.1546       2.1799       0.3686     553.9974       7.8364
    519.1500      40.8199       2.1737       0.3770     575.1194       7.8618
    519.3000      41.6375       2.1671       0.3786     550.7028       7.8638
    519.4500      42.1723       2.1777       0.3903     495.4138       7.8523
    519.6000      40.5743       2.1798       0.3897     429.7841       7.7938
    519.7500      38.3672       2.1766       0.3863     429.7841       7.8591
    519.9000      42.7311       2.1885       0.3840     426.9891       7.9213
    520.0500      41.9812       2.1891       0.3799     426.9891       7.8512
    520.2000      43.1015       2.1809       0.3781     426.9891       7.8540
    520.3500      44.2495       2.1585       0.3808     426.9891       7.9527
    520.5000      41.6989       2.1621       0.3727     423.2271       7.9243
    520.6500      40.3144       2.1618       0.3783     475.3389       7.9303
    520.8000      43.5613       2.1717       0.3749     447.3215       7.8271
    520.9500      40.5463       2.1516       0.3912     447.3215       7.8654
    521.1000      38.3121       2.1484       0.3959     444.8011       7.8461
    521.2500      38.7239       2.1299       0.3952     572.6408       7.8622
    521.4000      35.9360       2.1241       0.3879     567.9088       7.9075
    521.5500      33.5155       2.1296       0.3885     528.0684       7.8886
    521.7000      31.9576       2.1143       0.3896     553.8753       7.8566
    521.8500      32.4729       2.1193       0.3853     566.3418       7.8424
    522.0000      33.9776       2.1168       0.3903     566.3418       7.8705
    522.1500      32.2812       2.1170       0.3904     499.6574       7.8750
    522.3000      31.4311       2.1332       0.3881     486.0204       7.8952
    522.4500      32.5337       2.1252       0.4032     392.3033       7.9129
    522.6000      32.1614       2.1258       0.3982     369.4368       7.9395
    522.7500      35.7229       2.1024       0.4029     372.7206       7.9334
    522.9000      37.3284       2.1038       0.4026     278.3334       7.9330
    523.0500      34.0442       2.1059       0.4020     295.7664       7.9959
    523.2000      35.8617       2.1107       0.3873     254.7639       7.9750
    523.3500      38.3266       2.0910       0.3815     205.3450       7.9204
    523.5000      40.6092       2.1099       0.3770     199.2755       7.8691
    523.6500      42.0990       2.1095       0.3771     197.8087       7.8584
    523.8000      43.3788       2.0966       0.3779     195.5862       7.8755
    523.9500      45.6725       2.1200       0.3836     202.9719       7.9386
    524.1000      43.7684       2.1222       0.3890     213.5852       7.9634
    524.2500      41.3850       2.1166       0.3827     213.5852       7.8652
    524.4000      41.1413       2.1279       0.3793     248.2755       7.8643
    524.5500      40.9622       2.1053       0.3810     255.2417       7.7987
    524.7000      39.3133       2.1162       0.3734     252.7904       7.8604
    524.8500      39.1048       2.1232       0.3760     268.4370       7.8674
    525.0000      40.8936       2.1277       0.3709     234.9639       7.9152
    525.1500      40.2736       2.1225       0.3707     274.1285       7.9507
    525.3000      38.4890       2.1178       0.3713     274.1285       7.9503
    525.4500      39.0767       2.1099       0.3844     313.8405       7.8453
    525.6000      39.9637       2.1136       0.3896     384.6994       7.8132
    525.7500      38.9903       2.0975       0.4015     371.6405       7.8886
    525.9000      39.4431       2.0981       0.4043     377.3400       7.8684
    526.0500      38.1820       2.1038       0.4039     320.5041       7.9951
    526.2000      36.8679       2.0925       0.3966     303.6654       7.9823
    526.3500      37.8692       2.0758       0.3892     303.6012       8.0307
    526.5000      38.7963       2.0732       0.3825     278.8045       7.9915
    526.6500      38.2281       2.0578       0.3734     278.8045       7.9360
    526.8000      40.7298       2.0594       0.3627     266.7484       7.9748
    526.9500      44.9231       2.0620       0.3649     323.2061       7.9875
    527.1000      45.1364       2.0880       0.3654     271.3182       7.9549
    527.2500      42.6401       2.0791       0.3716     237.8525       7.8805
    527.4000      40.7424       2.0801       0.3724     220.7566       7.8872
    527.5500      42.2895       2.0651       0.3760     175.5864       7.7867
    527.7000      44.0599       2.0743       0.3781     135.9067       7.7199
    527.8500      42.8280       2.0818       0.3786      98.1603       7.7649
    528.0000      41.9783       2.0726       0.3793      76.1683       7.6928
    528.1500      45.2265       2.0760       0.3865      71.1101       7.7098
    528.3000      47.7953       2.0912       0.3970      67.8931       7.7281
    528.4500      49.3847       2.0971       0.3939      65.6026       7.7586
    528.6000      50.4319       2.1047       0.4049      54.1426       7.9136
    528.7500      51.7746       2.1114       0.4137      40.2635       7.9980
    528.9000      54.9030       2.1093       0.4193      30.2133       7.9360
    529.0500      56.6527       2.1171       0.4358      20.8639       7.9927
    529.2000      52.0950       2.1151       0.4337      14.7807       8.0305
    529.3500      49.7663       2.0965       0.4253      13.8785       7.9434
    529.5000      49.1115       2.1002       0.4160      12.5459       7.9905
    529.6500      52.2631       2.1039       0.4100      10.8043       7.9808
    529.8000      55.2576       2.1024       0.3997      10.6698       7.9449
    529.9500      53.0753       2.0893       0.3969      10.9958       7.9063
    530.1000      52.4856       2.0795       0.3884      12.5935       7.7304
    530.2500      54.1082       2.0901       0.3826      16.7034       7.7154
    530.4000      49.0097       2.0760       0.3721      18.7572       7.7528
    530.5500      47.1068       2.0664       0.3561      22.1827       7.7596
    530.7000      46.0853       2.0602       0.3496      20.7516       7.7516
    530.8500      46.0746       2.0577       0.3466      25.2661       7.8026
    531.0000      47.4176       2.0490       0.3509      36.9973       7.8714
    531.1500      45.2810       2.0574       0.3400      40.7087       7.9181
    531.3000      41.5841       2.0453       0.3293      53.6172       7.8351
    531.4500      41.9869       2.0475       0.3330      78.1358       7.8690
    531.6000      47.8506       2.0485       0.3434      89.5376       7.9826
