~VERSION -------------------------------------------
 VERS.                 2.0 : CWLS LOG ASCII STANDARD - VERSION 2.0
 WRAP.                  NO : ONE LINE PER DEPTH STEP
~WELL -----------------------------------------------
 WELL.                ATHABASCA-B1 : Well name
 UWI .                CA-ATH-001        : Unique Well ID
 LAT .                57.2341        : Latitude
 LON .                -111.5432        : Longitude
 STRT.M               300.00 : START DEPTH
 STOP.M               599.85 : STOP DEPTH
 STEP.M               0.1500 : STEP
 NULL.                -9999 : NULL VALUE
~CURVE -----------------------------------------------
 DEPTH .M               : Depth
 GR    .GAPI            : Gamma Ray
 RHOB  .G/C3            : Bulk Density
 NPHI  .V/V             : Neutron Porosity
 RT    .OHMM            : Resistivity
 CALI  .IN              : Caliper
~A  DEPTH              GR        RHOB        NPHI          RT        CALI
# ...
    562.6500      43.7094       2.0995       0.3808     392.4930       8.1161
    562.8000      41.6821       2.1058       0.3855     307.8582       8.1771
    562.9500      41.4235       2.1091       0.3804     269.9020       8.2015
    563.1000      43.7343       2.0883       0.3777     261.9215       8.1931
    563.2500      44.1005       2.1102       0.3751     245.9444       8.1529
    563.4000      41.8474       2.1001       0.3713     205.5856       8.0734
    563.5500      43.5270       2.0974       0.3621     177.9908       8.1196
    563.7000      46.1112       2.1109       0.3480     136.3259       7.9880
    563.8500      45.2424       2.1102       0.3433      90.2602       7.8174
    564.0000      46.1150       2.1156       0.3533      82.3182       7.8777
    564.1500      43.9230       2.1297       0.3483      58.7136       7.8836
    564.3000      43.6799       2.1242       0.3434      53.5250       7.8114
    564.4500      46.1866       2.1209       0.3448      45.9486       7.8783
    564.6000      48.3160       2.1145       0.3458      32.7853       7.8513
    564.7500      47.4992       2.0972       0.3507      31.8695       7.8417
    564.9000      45.3214       2.0871       0.3567      32.9701       7.7853
    565.0500      46.1368       2.0894       0.3537      44.8320       7.7301
    565.2000      47.5918       2.0742       0.3620      56.8789       7.8249
    565.3500      45.7193       2.0853       0.3606      59.2633       7.8372
    565.5000      43.8125       2.0732       0.3640      64.1728       7.7950
    565.6500      45.4216       2.0580       0.3663      76.9647       7.7187
    565.8000      43.3414       2.0644       0.3779      99.3680       7.7012
    565.9500      43.2913       2.0550       0.3800     123.6434       7.5322
    566.1000      41.5968       2.0444       0.3808     181.4864       7.4996
    566.2500      44.0186       2.0228       0.3726     192.8373       7.5321
    566.4000      44.7680       2.0357       0.3765     253.9352       7.6202
    566.5500      43.9270       2.0378       0.3789     317.5284       7.6497
    566.7000      39.9425       2.0428       0.3784     381.9963       7.5140
    566.8500      36.9381       2.0533       0.3798     578.1748       7.5647
    567.0000      37.7065       2.0565       0.3753     594.7886       7.6033
    567.1500      41.2049       2.0561       0.3714     669.2755       7.5554
    567.3000      41.0813       2.0620       0.3724     632.9286       7.5548
    567.4500      42.6079       2.0703       0.3750     589.7702       7.6509
    567.6000      43.3411       2.0542       0.3750     589.7702       7.6569
    567.7500      44.7024       2.0552       0.3737     545.1532       7.6104
    567.9000      42.8796       2.0660       0.3792     463.5254       7.6497
    568.0500      43.9994       2.0654       0.3701     463.5254       7.6649
    568.2000      41.8974       2.0726       0.3784     462.7262       7.7502
    568.3500      43.3302       2.0844       0.3859     416.7503       7.6652
    568.5000      41.4374       2.1047       0.3858     410.3573       7.6681
    568.6500      41.8876       2.0888       0.3942     434.6509       7.7208
    568.8000      41.2647       2.0883       0.3959     460.7222       7.8094
    568.9500      43.9335       2.0936       0.3895     423.7953       7.7569
    569.1000      42.1381       2.0784       0.3886     349.4885       7.7884
    569.2500      41.5930       2.0790       0.3888     254.8912       7.8383
    569.4000      39.2325       2.0816       0.3836     240.3547       7.7456
    569.5500      41.4534       2.0815       0.3783     206.6717       7.7455
    569.7000      39.6618       2.0825       0.3666     224.1542       7.7092
    569.8500      41.7970       2.0979       0.3631     166.9566       7.7050
    570.0000      42.2359       2.0970       0.3709     138.3455       7.6895
    570.1500      43.1225       2.0919       0.3672     122.0688       7.7112
    570.3000      44.3649       2.0926       0.3763      91.0629       7.6297
    570.4500      44.0271       2.0909       0.3664      77.0781       7.7217
    570.6000      45.2960       2.0971       0.3575      66.6208       7.7375
    570.7500      44.8552       2.0907       0.3579      52.6615       7.7757
    570.9000      45.2356       2.0990       0.3442      47.2762       7.7264
    571.0500      46.6431       2.0982       0.3505      43.3571       7.7353
    571.2000      46.0433       2.0792       0.3564      45.5555       7.6949
    571.3500      50.0215       2.0771       0.3611      47.7624       7.7109
    571.5000      50.7717       2.1010       0.3587      60.2206       7.6962
    571.6500      49.6138       2.1123       0.3643      60.5379       7.6890
    571.8000      49.8357       2.1162       0.3653      67.0352       7.6985
    571.9500      47.4226       2.1265       0.3771      66.4589       7.6289
    572.1000      43.7496       2.1141       0.3821      71.2790       7.6708
    572.2500      44.9397       2.1202       0.3859      91.0586       7.6116
    572.4000      46.4889       2.1232       0.3901     121.3743       7.7216
    572.5500      42.9849       2.1220       0.3854     142.8618       7.7389
    572.7000      43.6619       2.0977       0.3903     177.4072       7.7916
    572.8500      43.8214       2.0732       0.3988     189.2556       7.8995
    573.0000      43.2401       2.0920       0.4053     238.6902       7.8672
    573.1500      42.4291       2.1041       0.4106     269.8944       7.8125
    573.3000      42.0210       2.0933       0.4157     287.4571       7.8827
    573.4500      42.4296       2.0879       0.4190     274.1617       7.9060
    573.6000      40.5832       2.1156       0.4098     297.4565       7.8126
    573.7500      37.8782       2.1039       0.4140     320.7100       7.7590
    573.9000      39.0878       2.0897       0.4161     337.5171       7.7511
    574.0500      34.8558       2.0744       0.4204     387.8950       7.7173
    574.2000      36.9398       2.0535       0.4092     381.7429       7.7512
    574.3500      37.4768       2.0732       0.4107     477.8658       7.6621
    574.5000      36.5656       2.0672       0.4063     461.3690       7.6992
    574.6500      37.1507       2.0473       0.3941     416.5579       7.7724
    574.8000      37.9555       2.0447       0.3863     474.4047       7.6578
    574.9500      36.5616       2.0762       0.3821     435.8859       7.5925
    575.1000      33.3853       2.0923       0.3810     541.2415       7.7376
    575.2500      34.7449       2.0632       0.3699     624.6035       7.8343
    575.4000      34.3188       2.0414       0.3677     638.7894       7.8431
    575.5500      34.7162       2.0537       0.3601     653.9743       7.9643
    575.7000      33.7336       2.0792       0.3592     666.3538       7.9997
    575.8500      34.7442       2.0661       0.3621     710.3385       8.0204
    576.0000      36.9397       2.0797       0.3619     716.4657       7.9543
    576.1500      37.4508       2.0889       0.3513     718.1789       7.9791
    576.3000      38.9186       2.0837       0.3505     612.6893       8.1103
    576.4500      39.9481       2.1003       0.3518     592.7159       8.1629
    576.6000      42.1870       2.0864       0.3537     592.7159       8.1803
    576.7500      41.0173       2.0794       0.3466     623.2085       8.1810
    576.9000      38.1331       2.0997       0.3473     592.4432       8.1628
    577.0500      39.7479       2.1040       0.3579     523.7456       8.1249
    577.2000      40.0589       2.0911       0.3611     522.2314       8.1041
    577.3500      40.9520       2.0834       0.3573     512.7899       8.1369
    577.5000      40.6008       2.0912       0.3677     494.6828       8.1028
    577.6500      39.8813       2.1076       0.3718     482.8809       8.0692
    577.8000      40.2727       2.1096       0.3722     482.8809       8.0002
    577.9500      40.8349       2.1046       0.3741     501.4404       7.9722
