~VERSION -------------------------------------------
 VERS.                 2.0 : CWLS LOG ASCII STANDARD - VERSION 2.0
 WRAP.                  NO : ONE LINE PER DEPTH STEP
~WELL -----------------------------------------------
 WELL.                ATHABASCA-B1 : Well name
 UWI .                CA-ATH-001        : Unique Well ID
 LAT .                57.2341        : Latitude
 LON .                -111.5432        : Longitude
 STRT.M               300.00 : START DEPTH
 STOP.M               599.85 : STOP DEPTH
 STEP.M               0.1500 : STEP
 NULL.                -9999 : NULL VALUE
~CURVE -----------------------------------------------
 DEPTH .M               : Depth
 GR    .GAPI            : Gamma Ray
 RHOB  .G/C3            : Bulk Density
 NPHI  .V/V             : Neutron Porosity
 RT    .OHMM            : Resistivity
 CALI  .IN              : Caliper
~A  DEPTH              GR        RHOB        NPHI          RT        CALI
# ...
    485.4000      35.0834       2.1136       0.3922     436.6151       7.8917
    485.5500      35.4510       2.1025       0.3850     420.0277       7.9078
    485.7000      37.1116       2.0922       0.3850     420.0277       7.9627
    485.8500      36.4493       2.0881       0.3829     344.8770       7.9416
    486.0000      37.3956       2.1097       0.3822     387.1041       7.9250
    486.1500      36.5402       2.1213       0.3820     399.5314       7.8718
    486.3000      38.7956       2.1220       0.3785     480.9979       7.8083
    486.4500      38.7605       2.1071       0.3760     564.7189       7.7515
    486.6000      40.2621       2.0979       0.3703     483.7719       7.7939
    486.7500      40.6402       2.0921       0.3592     444.2374       7.8095
    486.9000      40.8395       2.0962       0.3659     373.6664       7.6842
    487.0500      39.2073       2.1217       0.3645     408.3746       7.7229
    487.2000      35.8962       2.1088       0.3644     402.0484       7.7654
    487.3500      34.9894       2.0901       0.3589     404.5120       7.6961
    487.5000      34.5608       2.0819       0.3598     404.5120       7.6426
    487.6500      34.1941       2.0881       0.3664     411.9555       7.6878
    487.8000      33.5308       2.1107       0.3712     450.4737       7.8030
    487.9500      31.6192       2.1151       0.3827     450.4737       7.7901
    488.1000      33.1708       2.1352       0.3811     523.6566       7.7655
    488.2500      33.9739       2.1339       0.3806     523.6566       7.7060
    488.4000      34.5645       2.1200       0.3839     523.6566       7.7679
    488.5500      33.5133       2.1189       0.3840     470.8444       7.6910
    488.7000      35.6936       2.1038       0.3790     348.3613       7.6673
    488.8500      35.6654       2.1124       0.3917     396.3663       7.7337
    489.0000      36.7493       2.1041       0.3947     302.6711       7.8619
    489.1500      38.3586       2.1005       0.4014     280.3220       7.9034
    489.3000      40.9161       2.0829       0.3940     213.3819       7.7795
    489.4500      40.7270       2.0816       0.3900     178.2765       7.8215
    489.6000      45.3881       2.0847       0.4052     138.5151       7.9192
    489.7500      44.8625       2.0962       0.3983     128.1378       7.9545
    489.9000      44.8625       2.1012       0.3971     132.6671       7.9290
    490.0500      46.6818       2.1005       0.3979     122.7840       7.9718
    490.2000      48.8030       2.0877       0.3922     106.5139       7.9346
    490.3500      46.9019       2.0726       0.3877     109.2334       7.9175
    490.5000      46.7194       2.0593       0.3948     104.5201       7.8305
    490.6500      45.7212       2.0608       0.3907      99.8253       7.7492
    490.8000      42.8277       2.0419       0.4056     112.2700       7.8306
    490.9500      41.0834       2.0527       0.4093     130.0662       7.8346
    491.1000      40.8137       2.0679       0.4148     134.5148       7.8736
    491.2500      39.7671       2.0851       0.4153     191.8321       7.8839
    491.4000      37.5259       2.0861       0.4086     248.8129       7.8967
    491.5500      35.2173       2.0913       0.4205     283.5185       7.8409
    491.7000      35.6164       2.1058       0.4207     328.6235       7.8575
    491.8500      33.0633       2.1140       0.4030     401.1003       7.8374
    492.0000      35.6106       2.0968       0.4128     433.5836       7.8856
    492.1500      38.1433       2.1135       0.4128     433.5836       7.8945
    492.3000      33.7132       2.1047       0.4164     461.9244       7.8028
    492.4500      31.3852       2.1072       0.4160     518.9834       7.8611
    492.6000      29.7997       2.1213       0.4125     507.5137       7.8125
    492.7500      30.3152       2.1325       0.4092     482.3666       7.8946
    492.9000      30.0892       2.1656       0.4106     476.7474       7.9325
    493.0500      30.0892       2.1746       0.3922     451.6981       7.9895
    493.2000      31.6075       2.1901       0.3972     528.9952       7.9993
    493.3500      32.6588       2.1759       0.3953     522.4769       7.9713
    493.5000      37.3292       2.1636       0.3905     522.4769       7.9337
    493.6500      36.2914       2.1501       0.3946     528.4433       8.0077
    493.8000      36.7857       2.1348       0.3941     615.8997       8.1624
    493.9500      36.0321       2.1393       0.3906     538.4567       8.1245
    494.1000      34.1438       2.1425       0.3991     543.4392       7.9985
    494.2500      32.3031       2.1632       0.3887     514.2852       7.9750
    494.4000      30.4392       2.1268       0.3896     514.2852       7.9962
    494.5500      32.8204       2.1137       0.3840     521.5878       7.9801
    494.7000      34.2608       2.1071       0.3838     481.1577       7.9154
    494.8500      35.5571       2.0898       0.3877     468.3044       7.9901
    495.0000      35.6525       2.0873       0.3817     456.3159       7.9926
    495.1500      37.5279       2.0668       0.3783     482.6189       7.9328
    495.3000      40.7752       2.0841       0.3856     457.7890       7.7848
    495.4500      40.0718       2.0881       0.3771     460.9837       7.7057
    495.6000      40.3624       2.0922       0.3639     461.5980       7.8291
    495.7500      38.2468       2.0834       0.3730     402.5565       7.7654
    495.9000      38.5641       2.0984       0.3641     331.4853       7.7794
    496.0500      37.9825       2.1060       0.3703     234.3776       7.8713
    496.2000      39.4629       2.0983       0.3771     281.1913       7.8698
    496.3500      40.8984       2.1048       0.3832     293.7949       7.8037
    496.5000      40.1004       2.0972       0.3925     242.8563       7.8461
    496.6500      42.5810       2.1260       0.3870     208.5981       7.9216
    496.8000      44.2524       2.1277       0.3873     208.5981       7.9952
    496.9500      45.9866       2.1431       0.3934     210.6002       8.0351
    497.1000      45.1043       2.1407       0.4003     243.5249       7.9862
    497.2500      44.5465       2.1438       0.4080     254.9261       8.0402
    497.4000      43.2648       2.1439       0.4086     190.1161       7.9479
    497.5500      42.2449       2.1311       0.4027     209.2982       7.9169
    497.7000      43.4990       2.1114       0.3989     151.8680       7.9309
    497.8500      44.8743       2.1016       0.4000     138.6711       7.9769
    498.0000      43.0480       2.1122       0.3913     150.4707       7.9792
    498.1500      43.8799       2.1113       0.3985     152.1542       7.9185
    498.3000      46.7497       2.1266       0.3980     175.5364       7.9027
    498.4500      46.5176       2.1198       0.4028     165.0607       7.9278
    498.6000      44.3289       2.0943       0.4058     165.0607       7.9084
    498.7500      46.8105       2.1023       0.3964     192.4006       7.9349
    498.9000      44.7260       2.0725       0.3965     197.0807       7.9512
    499.0500      42.4277       2.1007       0.3947     160.8128       7.8923
    499.2000      41.4003       2.1010       0.3909     168.3709       7.8763
    499.3500      40.1914       2.0976       0.3898     151.8724       7.9358
    499.5000      40.0771       2.0807       0.3853     148.7290       7.9396
    499.6500      38.5945       2.0696       0.3876     168.9942       7.8808
    499.8000      37.5102       2.0779       0.3930     170.8065       7.9125
    499.9500      36.4650       2.0767       0.4011     212.4575       7.8891
    500.1000      33.0369       2.0915       0.4104     228.0517       7.8876
    500.2500      31.9903       2.0976       0.4128     211.5809       7.8273
    500.4000      33.1293       2.0864       0.4112     246.6944       7.8533
    500.5500      31.8374       2.0776       0.4077     255.7054       7.8576
    500.7000      31.7350       2.0913       0.3970     260.9377       7.8994
