~VERSION -------------------------------------------
 VERS.                 2.0 : CWLS LOG ASCII STANDARD - VERSION 2.0
 WRAP.                  NO : ONE LINE PER DEPTH STEP
~WELL -----------------------------------------------
 WELL.                ATHABASCA-B1 : Well name
 UWI .                CA-ATH-001        : Unique Well ID
 LAT .                57.2341        : Latitude
 LON .                -111.5432        : Longitude
 STRT.M               300.00 : START DEPTH
 STOP.M               599.85 : STOP DEPTH
 STEP.M               0.1500 : STEP
 NULL.                -9999 : NULL VALUE
~CURVE -----------------------------------------------
 DEPTH .M               : Depth
 GR    .GAPI            : Gamma Ray
 RHOB  .G/C3            : Bulk Density
 NPHI  .V/V             : Neutron Porosity
 RT    .OHMM            : Resistivity
 CALI  .IN              : Caliper
~A  DEPTH              GR        RHOB        NPHI          RT        CALI
# ...
    315.4500      47.5745       2.1299       0.3959     120.5043       7.8999
    315.6000      46.8187       2.1293       0.4000     101.8850       7.9557
    315.7500      46.2143       2.1199       0.3918      88.7359       7.9634
    315.9000      45.5146       2.1215       0.3922      79.0840       7.9018
    316.0500      43.6968       2.1220       0.3845      87.8165       7.8555
    316.2000      47.5909       2.1191       0.3809      80.4073       7.8227
    316.3500      49.8293       2.1059       0.3794      78.3476       7.7786
    316.5000      47.5209       2.0921       0.3862      92.1835       7.7823
    316.6500      45.0216       2.0916       0.3924      85.5066       7.7559
    316.8000      45.1875       2.1095       0.3919     108.0734       7.7308
    316.9500      46.3140       2.1209       0.3898     112.9310       7.6753
    317.1000      43.2550       2.1252       0.3851     141.0921       7.6304
    317.2500      44.3572       2.1221       0.3913     141.0921       7.6214
    317.4000      44.1078       2.1159       0.3905     188.1501       7.6343
    317.5500      42.6943       2.1103       0.3817     215.2640       7.6755
    317.7000      38.9487       2.1163       0.3742     262.6991       7.7509
    317.8500      39.8566       2.1292       0.3734     285.6065       7.7643
    318.0000      40.7807       2.1480       0.3707     340.3786       7.8158
    318.1500      40.7084       2.1334       0.3753     350.7739       7.8441
    318.3000      42.6710       2.1363       0.3754     283.3315       7.8433
    318.4500      41.7491       2.1434       0.3733     226.7502       7.8987
    318.6000      40.7881       2.1509       0.3757     179.2211       7.9898
    318.7500      41.1804       2.1299       0.3701     135.2051       7.9850
    318.9000      43.2337       2.1357       0.3713     138.4834       7.9987
    319.0500      44.7351       2.1191       0.3726     112.9838       7.9576
    319.2000      46.4348       2.1043       0.3705     127.8242       7.9233
    319.3500      48.9234       2.0885       0.3734     104.3284       7.9425
    319.5000      48.3150       2.1057       0.3667      83.6553       7.9437
    319.6500      48.8283       2.1325       0.3752      83.6553       7.9140
    319.8000      49.1905       2.1275       0.3795      80.1694       7.9452
    319.9500      50.0679       2.1301       0.3811      76.2144       7.8920
    320.1000      50.3972       2.1380       0.3785      82.9125       7.7981
    320.2500      50.0313       2.1152       0.3783      79.0764       7.7543
    320.4000      49.8521       2.1140       0.3763     107.4041       7.7759
    320.5500      46.1847       2.0978       0.3758     114.7385       7.8399
    320.7000      44.9867       2.0834       0.3747     149.2543       7.9155
    320.8500      43.6698       2.1036       0.3773     194.9748       7.8701
    321.0000      44.5300       2.1027       0.3816     241.9097       7.9040
    321.1500      43.8659       2.1106       0.3725     238.3610       7.9400
    321.3000      43.9899       2.1253       0.3707     193.0265       7.9343
    321.4500      42.0478       2.1278       0.3717     169.2469       7.9274
    321.6000      43.7848       2.1415       0.3687     199.2856       7.9831
    321.7500      43.0771       2.1271       0.3703     182.1527       7.9634
    321.9000      43.9682       2.1071       0.3644     154.8466       7.9269
    322.0500      44.9998       2.1153       0.3582     120.5190       7.8778
    322.2000      46.5150       2.1053       0.3533      90.8932       7.7948
    322.3500      47.2984       2.1056       0.3607      68.7513       7.8161
    322.5000      49.4582       2.1223       0.3697      53.5810       7.8461
    322.6500      49.5296       2.1127       0.3624      42.2852       7.7954
    322.8000      48.3563       2.1356       0.3682      45.6155       7.8895
    322.9500      48.6692       2.1426       0.3828      39.4466       7.9522
    323.1000      50.1106       2.1320       0.3785      39.4466       7.8786
    323.2500      50.1291       2.1410       0.3796      42.1435       7.9109
    323.4000      49.5157       2.1331       0.3893      52.9671       7.9513
    323.5500      47.5645       2.1368       0.3890      74.3809       7.9972
    323.7000      46.8440       2.1371       0.3972      90.9961       7.9777
    323.8500      43.8663       2.1334       0.3986      95.4790       7.9579
    324.0000      43.7070       2.1424       0.4052     113.0586       7.8367
    324.1500      43.6248       2.1299       0.4134     132.9957       7.9239
    324.3000      41.3280       2.1152       0.4259     145.7689       7.8453
    324.4500      38.8507       2.1173       0.4264     181.4773       7.7968
    324.6000      38.9623       2.1097       0.4247     237.0933       7.7902
    324.7500      34.3248       2.1104       0.4144     300.1011       7.7876
    324.9000      33.1183       2.1228       0.4144     343.5422       7.7211
    325.0500      38.0615       2.1034       0.4084     332.5665       7.7246
    325.2000      37.4054       2.1073       0.4017     403.4528       7.8022
    325.3500      34.2124       2.0999       0.4014     354.2553       7.8941
    325.5000      31.9528       2.1050       0.4058     354.2553       7.9877
    325.6500      31.1770       2.0999       0.4014     336.1514       7.9473
    325.8000      33.8271       2.0740       0.3985     333.5447       7.9884
    325.9500      34.8102       2.0715       0.3928     336.9548       7.9946
    326.1000      34.3077       2.0602       0.3907     310.4594       7.9677
    326.2500      35.1805       2.0372       0.3923     336.7972       8.0212
    326.4000      36.8413       2.0517       0.3876     280.6362       8.0512
    326.5500      37.5850       2.0806       0.3815     327.9953       8.0411
    326.7000      40.6082       2.0804       0.3864     349.3873       7.9696
    326.8500      39.2123       2.0690       0.3800     296.5691       7.9530
    327.0000      38.7854       2.0733       0.3769     315.6606       7.9553
    327.1500      42.4005       2.0663       0.3763     342.7869       7.8693
    327.3000      38.5077       2.0832       0.3688     380.4039       7.8267
    327.4500      38.4562       2.0786       0.3601     359.4311       7.8746
    327.6000      41.9750       2.0708       0.3640     362.1310       7.9232
    327.7500      43.6754       2.0741       0.3606     351.8292       7.8915
    327.9000      45.6616       2.0692       0.3562     370.7775       7.9587
    328.0500      43.1229       2.0583       0.3518     402.7534       7.9517
    328.2000      42.3312       2.0556       0.3512     402.7534       7.9887
    328.3500      43.9604       2.0579       0.3565     420.1219       7.9740
    328.5000      43.8621       2.0605       0.3542     446.2367       7.8997
    328.6500      41.2814       2.0548       0.3530     484.4465       7.9285
    328.8000      42.2649       2.0450       0.3486     507.0198       7.8560
    328.9500      40.6372       2.0504       0.3485     554.9810       7.8947
    329.1000      41.6020       2.0483       0.3540     502.1378       7.9045
    329.2500      42.7920       2.0327       0.3627     434.3470       7.9471
    329.4000      39.8834       2.0373       0.3644     417.5047       7.8607
    329.5500      41.3392       2.0332       0.3754     417.5047       7.9208
    329.7000      40.4936       2.0240       0.3844     367.8382       7.9125
    329.8500      42.9743       2.0358       0.3754     325.2345       7.9361
    330.0000      40.7937       2.0353       0.3692     334.7575       7.9684
    330.1500      40.1930       2.0303       0.3661     267.1510       7.9523
    330.3000      41.2178       2.0407       0.3717     256.0332       8.0642
    330.4500      43.0792       2.0437       0.3731     256.0332       7.9863
    330.6000      41.7118       2.0348       0.3640     262.1274       7.9347
    330.7500      40.1949       2.0516       0.3653     262.1274       7.8269
