~VERSION -------------------------------------------
 VERS.                 2.0 : CWLS LOG ASCII STANDARD - VERSION 2.0
 WRAP.                  NO : ONE LINE PER DEPTH STEP
~WELL -----------------------------------------------
 WELL.                ATHABASCA-B1 : Well name
 UWI .                CA-ATH-001        : Unique Well ID
 LAT .                57.2341        : Latitude
 LON .                -111.5432        : Longitude
 STRT.M               300.00 : START DEPTH
 STOP.M               599.85 : STOP DEPTH
 STEP.M               0.1500 : STEP
 NULL.                -9999 : NULL VALUE
~CURVE -----------------------------------------------
 DEPTH .M               : Depth
 GR    .GAPI            : Gamma Ray
 RHOB  .G/C3            : Bulk Density
 NPHI  .V/V             : Neutron Porosity
 RT    .OHMM            : Resistivity
 CALI  .IN              : Caliper
~A  DEPTH              GR        RHOB        NPHI          RT        CALI
# ...
    392.7000      40.7653       2.1033       0.3866     194.2751       8.0133
    392.8500      42.0091       2.1007       0.3747     236.3661       7.9703
    393.0000      40.3611       2.1203       0.3765     303.2662       8.0447
    393.1500      39.9032       2.1109       0.3735     417.0703       8.0126
    393.3000      38.3936       2.1064       0.3743     471.7185       8.0081
    393.4500      39.9223       2.0985       0.3791     342.5962       7.9761
    393.6000      41.2432       2.0921       0.3724     255.9329       7.8725
    393.7500      41.7797       2.0845       0.3793     199.3323       7.9443
    393.9000      42.8114       2.0868       0.3706     148.3896       7.9028
    394.0500      42.0182       2.0878       0.3592     127.0335       7.9801
    394.2000      41.5127       2.0855       0.3467     118.9512       8.0707
    394.3500      42.8915       2.0913       0.3495      84.4009       8.0261
    394.5000      46.4699       2.0979       0.3417      64.3192       8.0809
    394.6500      45.7500       2.0940       0.3472      71.1477       8.0697
    394.8000      46.9998       2.1066       0.3551      64.0674       8.1376
    394.9500      45.9315       2.0895       0.3602      55.4767       8.0825
    395.1000      45.2186       2.1055       0.3675      59.0376       8.1760
    395.2500      45.2186       2.1009       0.3724      49.0796       8.0740
    395.4000      45.5567       2.1128       0.3807      34.0446       8.0622
    395.5500      45.4303       2.1248       0.3833      31.4962       8.0323
    395.7000      43.6463       2.1303       0.3781      41.0223       8.0076
    395.8500      42.5923       2.1265       0.3885      53.9517       8.0903
    396.0000      42.8055       2.1233       0.3797      60.1616       7.9920
    396.1500      42.9446       2.1299       0.3809      70.1241       7.9578
    396.3000      45.4270       2.1400       0.3812      79.4288       7.8958
    396.4500      47.3638       2.1554       0.3797      64.6721       7.8065
    396.6000      48.6248       2.1613       0.3826      91.1462       7.8410
    396.7500      44.8085       2.1596       0.3896     124.4319       7.8602
    396.9000      44.2574       2.1894       0.3788     120.0806       7.8887
    397.0500      43.9899       2.1647       0.3720     133.1470       7.9493
    397.2000      43.9505       2.1701       0.3787     141.7584       7.8860
    397.3500      42.4855       2.1458       0.3757     143.1941       7.8208
    397.5000      45.6209       2.1588       0.3692     169.7508       7.7694
    397.6500      41.4775       2.1394       0.3660     244.7174       7.7701
    397.8000      43.4268       2.1351       0.3637     294.2001       7.8042
    397.9500      44.6292       2.1132       0.3622     319.4103       7.8053
    398.1000      41.9777       2.1272       0.3624     302.8844       7.7288
    398.2500      40.0932       2.1329       0.3600     270.1732       7.7451
    398.4000      40.4575       2.1291       0.3558     253.6837       7.7254
    398.5500      40.6106       2.1152       0.3612     238.3238       7.6484
    398.7000      40.2203       2.0868       0.3624     319.1540       7.6938
    398.8500      41.2888       2.0767       0.3594     265.0428       7.8014
    399.0000      43.3379       2.0946       0.3613     260.3599       7.8941
    399.1500      42.8864       2.0869       0.3655     219.0479       7.9062
    399.3000      45.3505       2.1143       0.3706     192.1263       7.8815
    399.4500      45.4985       2.1017       0.3633     155.0891       7.8878
    399.6000      45.2624       2.1061       0.3707     142.7049       7.9421
    399.7500      43.3938       2.1053       0.3745     145.1305       7.8738
    399.9000      45.4469       2.1020       0.3826     135.4156       7.8934
    400.0500      42.4094       2.1049       0.3915     130.4658       7.9552
    400.2000      42.7208       2.1078       0.3977     123.7759       7.9324
    400.3500      44.0621       2.1029       0.4108     110.2357       7.9019
    400.5000      45.2372       2.0887       0.4193     122.0797       7.8312
    400.6500      42.8385       2.0837       0.4280     146.0212       7.8326
    400.8000      38.7821       2.1027       0.4219     174.7740       7.8250
    400.9500      37.2514       2.1235       0.4235     175.6756       7.8103
    401.1000      35.4906       2.1175       0.4217     207.7122       7.8178
    401.2500      34.0853       2.1062       0.4126     219.1382       7.7868
    401.4000      32.5437       2.0949       0.4133     270.6062       7.7924
    401.5500      30.6443       2.0841       0.4107     308.9975       7.7663
    401.7000      30.4122       2.1047       0.4198     415.2120       7.7658
    401.8500      32.2207       2.1130       0.4218     444.8496       7.7293
    402.0000      31.2525       2.1061       0.4193     468.4545       7.8888
    402.1500      30.7151       2.1026       0.4108     439.4484       7.8556
    402.3000      34.3905       2.1032       0.4137     441.6370       7.7968
    402.4500      33.7499       2.1181       0.4054     473.4739       7.9709
    402.6000      32.7535       2.1160       0.3852     553.7936       7.9579
    402.7500      33.1814       2.1377       0.3834     641.8402       8.0964
    402.9000      36.9395       2.1222       0.3771     677.4754       8.0236
    403.0500      38.2259       2.1051       0.3778     689.9342       7.9132
    403.2000      38.0606       2.0941       0.3710     556.3651       7.8944
    403.3500      39.4003       2.0994       0.3666     434.8756       7.8794
    403.5000      41.2898       2.1037       0.3781     363.6842       7.7667
    403.6500      43.5445       2.1155       0.3841     270.2966       7.7665
    403.8000      43.2835       2.1216       0.3879     254.5385       7.7371
    403.9500      43.6319       2.0894       0.3790     231.2517       7.6630
    404.1000      43.8905       2.0905       0.3720     223.8273       7.6435
    404.2500      47.5765       2.0920       0.3696     235.1796       7.5079
    404.4000      46.3477       2.1068       0.3682     262.1325       7.5600
    404.5500      45.3005       2.1040       0.3573     270.7292       7.6457
    404.7000      45.6385       2.1041       0.3639     270.7292       7.7224
    404.8500      44.7018       2.1147       0.3642     273.8909       7.7076
    405.0000      42.2532       2.1145       0.3675     266.4052       7.7671
    405.1500      40.0825       2.1082       0.3672     271.6239       7.8222
    405.3000      42.3403       2.1021       0.3663     271.6239       7.8638
    405.4500      41.7104       2.1070       0.3675     314.6158       7.8817
    405.6000      38.4233       2.0954       0.3752     395.8914       7.9377
    405.7500      37.6701       2.1024       0.3635     386.9688       8.0692
    405.9000      36.6035       2.0934       0.3596     489.5574       8.0954
    406.0500      37.7154       2.0808       0.3518     479.3437       8.0961
    406.2000      38.1255       2.0925       0.3562     509.0137       7.9987
    406.3500      37.7387       2.1068       0.3517     533.6086       8.0672
    406.5000      35.3627       2.0871       0.3528     467.0101       7.9694
    406.6500      35.1122       2.0720       0.3556     452.6004       7.9279
    406.8000      35.6789       2.0648       0.3589     407.0165       8.0038
    406.9500      34.9510       2.0588       0.3635     377.7542       7.9363
    407.1000      37.5288       2.0646       0.3728     381.6958       7.8898
    407.2500      38.2705       2.0704       0.3746     408.0149       7.7824
    407.4000      39.6933       2.0802       0.3685     386.4482       7.7533
    407.5500      38.6851       2.0933       0.3806     386.4482       7.7172
    407.7000      40.2349       2.0928       0.3924     426.3943       7.7400
    407.8500      42.9193       2.1116       0.3867     405.2425       7.7151
    408.0000      42.9509       2.0796       0.3961     466.3656       7.7997
