~VERSION -------------------------------------------
 VERS.                 2.0 : CWLS LOG ASCII STANDARD - VERSION 2.0
 WRAP.                  NO : ONE LINE PER DEPTH STEP
~WELL -----------------------------------------------
 WELL.                ATHABASCA-B1 : Well name
 UWI .                CA-ATH-001        : Unique Well ID
 LAT .                57.2341        : Latitude
 LON .                -111.5432        : Longitude
 STRT.M               300.00 : START DEPTH
 STOP.M               599.85 : STOP DEPTH
 STEP.M               0.1500 : STEP
 NULL.                -9999 : NULL VALUE
~CURVE -----------------------------------------------
 DEPTH .M               : Depth
 GR    .GAPI            : Gamma Ray
 RHOB  .G/C3            : Bulk Density
 NPHI  .V/V             : Neutron Porosity
 RT    .OHMM            : Resistivity
 CALI  .IN              : Caliper
~A  DEPTH              GR        RHOB        NPHI          RT        CALI
# ...
    578.1000      39.0352       2.1001       0.3721     448.5662       7.8885
    578.2500      40.4909       2.0972       0.3695     409.8880       7.8493
    578.4000      39.3979       2.0967       0.3622     352.1893       7.8753
    578.5500      42.1642       2.1102       0.3546     343.8706       7.7788
    578.7000      41.1577       2.1170       0.3636     343.6989       7.6865
    578.8500      38.3179       2.1156       0.3593     291.2025       7.6498
    579.0000      38.0434       2.1220       0.3643     273.7159       7.7890
    579.1500      39.0703       2.1071       0.3659     301.0290       7.7534
    579.3000      37.5297       2.1036       0.3621     340.5138       7.7625
    579.4500      40.1190       2.1089       0.3629     289.0018       7.7733
    579.6000      41.2320       2.1133       0.3681     272.5231       7.8833
    579.7500      41.3277       2.1195       0.3713     278.6936       7.9487
    579.9000      42.1857       2.1083       0.3637     285.5050       7.8959
    580.0500      42.0730       2.1068       0.3582     277.6772       7.9359
    580.2000      42.6389       2.0979       0.3566     222.2547       7.9768
    580.3500      43.6327       2.0989       0.3761     201.1380       8.0573
    580.5000      41.1766       2.0862       0.3780     198.0269       7.9425
    580.6500      44.0447       2.0816       0.3859     214.3624       7.9245
    580.8000      41.4845       2.0891       0.3889     179.2862       7.9708
    580.9500      40.6638       2.0812       0.3826     143.1544       8.0505
    581.1000      44.2645       2.0967       0.3864     124.5948       7.9492
    581.2500      46.6500       2.1015       0.3769      95.3027       7.9006
    581.4000      46.7613       2.1044       0.3851      74.6455       7.9261
    581.5500      47.5147       2.1040       0.3828      72.0363       7.9375
    581.7000      44.9172       2.1055       0.3883      66.8825       8.0530
    581.8500      45.2242       2.1121       0.3824      54.2559       7.9961
    582.0000      45.8419       2.1209       0.3763      53.1933       8.0429
    582.1500      49.6405       2.1217       0.3659      43.3784       8.0981
    582.3000      50.7670       2.1198       0.3667      35.7337       8.1002
    582.4500      51.6352       2.1280       0.3660      44.4485       7.9944
    582.6000      51.5923       2.1196       0.3552      51.2626       8.0054
    582.7500      50.8595       2.1205       0.3578      52.3628       8.0175
    582.9000      48.1051       2.1415       0.3599      45.0095       7.9700
    583.0500      47.9792       2.1341       0.3665      64.6070       7.9501
    583.2000      48.7579       2.1299       0.3632      76.9761       7.8469
    583.3500      47.2797       2.1157       0.3665      90.4905       7.8095
    583.5000      43.9430       2.1233       0.3756     112.2068       7.8992
    583.6500      44.4230       2.1205       0.3729     131.6674       7.8841
    583.8000      43.6886       2.1330       0.3797     135.5905       7.8605
    583.9500      45.4905       2.1206       0.3724     163.0870       7.9246
    584.1000      43.8871       2.1084       0.3706     191.9502       7.9118
    584.2500      42.5204       2.0831       0.3712     160.9108       7.8931
    584.4000      37.9838       2.0991       0.3904     169.7077       7.9987
    584.5500      35.7059       2.1083       0.3931     177.2608       8.0756
    584.7000      32.7801       2.0927       0.3897     162.5614       8.1312
    584.8500      33.5286       2.0938       0.3893     174.1100       8.1467
    585.0000      36.2342       2.0896       0.3844     178.1903       8.0859
    585.1500      39.6076       2.0760       0.3872     216.2253       8.0526
    585.3000      39.4842       2.0778       0.3837     186.4560       8.0427
    585.4500      40.7000       2.0695       0.3818     180.5648       7.9693
    585.6000      38.9673       2.0706       0.3722     167.4154       8.0038
    585.7500      43.0601       2.0684       0.3658     150.0565       8.0874
    585.9000      43.1525       2.0850       0.3708     138.2505       7.9827
    586.0500      42.8707       2.0621       0.3587     100.6704       7.9930
    586.2000      43.3375       2.0560       0.3620      92.5945       7.9818
    586.3500      46.0017       2.0608       0.3704      78.7541       7.9551
    586.5000      45.7489       2.0777       0.3762      69.1357       7.9513
    586.6500      46.7498       2.0739       0.3703      54.7731       8.0454
    586.8000      49.0739       2.0671       0.3686      43.2440       8.0910
    586.9500      50.0869       2.0845       0.3754      37.2439       8.1864
    587.1000      48.7257       2.0796       0.3830      27.6475       8.1396
    587.2500      48.4085       2.0819       0.3888      21.7058       8.0363
    587.4000      46.6670       2.0838       0.3891      16.0140       8.0813
    587.5500      48.2660       2.1026       0.3957      16.6100       8.0159
    587.7000      46.7940       2.0986       0.4031      17.2796       7.9823
    587.8500      46.2787       2.0978       0.4088      20.1334       7.9890
    588.0000      45.2574       2.0695       0.4137      25.3656       7.9384
    588.1500      45.7733       2.0620       0.4046      31.2747       7.9053
    588.3000      48.2534       2.0884       0.4267      43.2174       7.8275
    588.4500      47.3205       2.1068       0.4258      48.3394       7.8113
    588.6000      44.9455       2.1076       0.4177      56.2878       7.8143
    588.7500      44.5904       2.1039       0.4171      79.0801       7.8479
    588.9000      44.5018       2.1160       0.4223      94.4693       7.8008
    589.0500      43.0856       2.1141       0.4202     125.1524       7.8121
    589.2000      43.7157       2.1039       0.4092     159.1842       7.8096
    589.3500      41.6250       2.1153       0.4007     214.4366       7.7910
    589.5000      38.7742       2.1053       0.3986     285.9031       7.8222
    589.6500      35.6197       2.1029       0.3943     369.0220       7.7592
    589.8000      32.5960       2.0913       0.3885     412.5832       7.7244
    589.9500      31.6118       2.1095       0.3871     454.2680       7.7224
    590.1000      34.0672       2.1183       0.3791     485.0717       7.6884
    590.2500      35.0572       2.1292       0.3792     485.0717       7.7105
    590.4000      32.6941       2.1295       0.3863     492.1991       7.8490
    590.5500      28.9592       2.1306       0.3739     492.1991       7.7954
    590.7000      28.7187       2.1175       0.3750     518.3684       7.8251
    590.8500      28.8735       2.1127       0.3728     503.6283       7.8519
    591.0000      30.7520       2.1244       0.3683     355.4422       7.8711
    591.1500      31.4850       2.0927       0.3663     359.7801       7.8347
    591.3000      30.4522       2.0840       0.3632     352.5788       7.9141
    591.4500      31.9188       2.0794       0.3664     331.1002       7.8881
    591.6000      36.8403       2.1098       0.3613     284.5988       8.0305
    591.7500      37.5507       2.1329       0.3678     229.6447       7.9306
    591.9000      40.0626       2.1346       0.3700     248.1081       7.8198
    592.0500      45.0064       2.1198       0.3768     167.6596       7.8757
    592.2000      48.2447       2.1187       0.3770     168.4139       7.8922
    592.3500      47.0039       2.1273       0.3930     168.4139       7.9035
    592.5000      44.6383       2.1363       0.3957     145.4843       7.9442
    592.6500      44.6383       2.1275       0.3883     145.4843       8.0176
    592.8000      45.2453       2.1217       0.3879     142.3844       8.0067
    592.9500      43.9987       2.1246       0.3814     151.3405       7.9332
    593.1000      45.2095       2.1312       0.3876     150.8359       7.8602
    593.2500      43.4776       2.1129       0.3932     174.1825       8.0026
    593.4000      43.0709       2.1132       0.3988     187.5386       7.9823
