~VERSION -------------------------------------------
 VERS.                 2.0 : CWLS LOG ASCII STANDARD - VERSION 2.0
 WRAP.                  NO : ONE LINE PER DEPTH STEP
~WELL -----------------------------------------------
 WELL.                ATHABASCA-B1 : Well name
 UWI .                CA-ATH-001        : Unique Well ID
 LAT .                57.2341        : Latitude
 LON .                -111.5432        : Longitude
 STRT.M               300.00 : START DEPTH
 STOP.M               599.85 : STOP DEPTH
 STEP.M               0.1500 : STEP
 NULL.                -9999 : NULL VALUE
~CURVE -----------------------------------------------
 DEPTH .M               : Depth
 GR    .GAPI            : Gamma Ray
 RHOB  .G/C3            : Bulk Density
 NPHI  .V/V             : Neutron Porosity
 RT    .OHMM            : Resistivity
 CALI  .IN              : Caliper
~A  DEPTH              GR        RHOB        NPHI          RT        CALI
# ...
    361.8000      38.9614       2.0717       0.3462     248.3538       7.8369
    361.9500      40.9125       2.0798       0.3412     198.9791       7.8378
    362.1000      44.7148       2.0719       0.3326     182.4591       7.8009
    362.2500      45.8769       2.0677       0.3417     148.4739       7.7840
    362.4000      43.3426       2.0660       0.3482     102.1349       7.7887
    362.5500      44.5320       2.0808       0.3488      88.1601       7.7695
    362.7000      46.6663       2.0752       0.3560      77.5549       7.8215
    362.8500      49.7328       2.0997       0.3534      58.8910       7.7988
    363.0000      46.8454       2.1157       0.3466      49.4264       7.9150
    363.1500      45.1516       2.1384       0.3606      35.2324       7.9632
    363.3000      45.7247       2.1351       0.3597      36.7200       7.9971
    363.4500      46.4935       2.1411       0.3687      39.6967       7.9787
    363.6000      49.3800       2.1351       0.3650      30.5810       7.9424
    363.7500      49.4015       2.1448       0.3656      24.3780       7.9836
    363.9000      46.4052       2.1429       0.3748      35.0169       8.0027
    364.0500      47.5480       2.1430       0.3808      32.2803       8.0412
    364.2000      47.5554       2.1326       0.3900      36.3034       8.0590
    364.3500      43.5959       2.1334       0.4033      43.9810       8.0915
    364.5000      44.1352       2.1357       0.3932      54.0481       7.9441
    364.6500      45.4539       2.1285       0.3969      78.5700       7.9216
    364.8000      45.5764       2.1063       0.3944      93.3120       7.8989
    364.9500      42.0197       2.1239       0.3985     101.2381       7.8839
    365.1000      38.7800       2.0960       0.4099     139.9597       7.9761
    365.2500      41.5803       2.0879       0.4147     172.6335       7.9586
    365.4000      40.6637       2.0647       0.4061     241.6749       7.9699
    365.5500      37.2604       2.0872       0.4070     234.1201       7.9625
    365.7000      34.9723       2.0804       0.4071     271.1107       7.9163
    365.8500      34.2028       2.0695       0.4095     312.5773       7.8379
    366.0000      32.1831       2.0734       0.4101     379.4501       8.0184
    366.1500      36.4963       2.0571       0.4046     360.7902       7.9917
    366.3000      35.3388       2.0469       0.3981     439.4484       7.9589
    366.4500      35.7447       2.0428       0.3945     483.1675       8.0544
    366.6000      37.0415       2.0381       0.3834     462.2631       7.9515
    366.7500      35.8257       2.0409       0.3843     461.1882       7.9518
    366.9000      34.3592       2.0435       0.3874     461.1882       7.9257
    367.0500      35.4897       2.0675       0.3866     455.6562       7.9119
    367.2000      36.2846       2.0586       0.3831     479.5675       7.9421
    367.3500      37.5624       2.0621       0.3745     424.5567       7.9748
    367.5000      36.5093       2.0680       0.3717     465.2425       7.7942
    367.6500      37.0698       2.0821       0.3761     449.6135       7.7285
    367.8000      39.0353       2.0723       0.3681     478.2573       7.6861
    367.9500      39.7723       2.0891       0.3612     419.2325       7.5959
    368.1000      39.1867       2.0970       0.3550     441.0696       7.6250
    368.2500      40.8944       2.0996       0.3623     443.9004       7.6277
    368.4000      38.4362       2.1082       0.3661     440.9568       7.6465
    368.5500      35.5928       2.1342       0.3692     460.4548       7.5800
    368.7000      32.5032       2.1455       0.3727     470.9033       7.5358
    368.8500      31.8883       2.1415       0.3829     492.1984       7.5620
    369.0000      32.3689       2.1348       0.3868     493.3455       7.6288
    369.1500      33.3998       2.1450       0.3776     439.0693       7.5991
    369.3000      30.2131       2.1395       0.3844     466.1550       7.6681
    369.4500      29.1380       2.1307       0.3858     462.7189       7.7102
    369.6000      31.1209       2.1516       0.3837     463.4301       7.8415
    369.7500      30.6636       2.1582       0.3854     412.4261       7.9191
    369.9000      28.7391       2.1632       0.3809     453.9972       7.8909
    370.0500      29.8980       2.1604       0.3881     453.9972       7.9720
    370.2000      29.5602       2.1616       0.4022     479.5084       8.0162
    370.3500      30.0714       2.1646       0.3960     539.8660       8.0585
    370.5000      30.6534       2.1641       0.3933     554.3228       8.0515
    370.6500      32.1585       2.1769       0.3955     531.1957       8.1757
    370.8000      33.7033       2.1640       0.3865     532.4972       8.1548
    370.9500      33.5818       2.1778       0.3719     428.8765       8.0986
    371.1000      32.3588       2.1631       0.3713     387.1468       7.9582
    371.2500      31.4886       2.1603       0.3703     373.8354       7.9284
    371.4000      30.7917       2.1427       0.3733     410.3506       8.0012
    371.5500      32.6119       2.1453       0.3749     414.1568       8.0501
    371.7000      33.5406       2.1534       0.3720     363.1621       7.9588
    371.8500      30.5755       2.1343       0.3865     414.8748       7.9026
    372.0000      30.3378       2.1280       0.3808     386.9091       7.9642
    372.1500      31.5711       2.1285       0.3820     329.0984       7.8531
    372.3000      31.3670       2.1354       0.3755     329.0984       7.8645
    372.4500      31.5234       2.1308       0.3674     368.4396       7.8743
    372.6000      32.9792       2.1173       0.3793     299.1310       7.8838
    372.7500      32.0052       2.1054       0.3692     292.8092       7.8140
    372.9000      30.7118       2.0864       0.3593     275.1645       7.8385
    373.0500      30.0642       2.0715       0.3618     212.1023       7.8306
    373.2000      32.3359       2.0634       0.3710     213.3650       7.9159
    373.3500      34.6665       2.0894       0.3715     184.4086       8.0091
    373.5000      36.6437       2.0996       0.3705     186.9262       7.8873
    373.6500      40.9281       2.0944       0.3655     140.5086       7.9190
    373.8000      42.4768       2.0853       0.3598     140.7073       7.9602
    373.9500      42.8755       2.0913       0.3681     158.4783       7.9752
    374.1000      45.6187       2.0773       0.3611     151.4878       8.0045
    374.2500      48.2727       2.0763       0.3661     185.3258       8.0288
    374.4000      47.3799       2.0715       0.3705     215.1075       7.9473
    374.5500      44.4596       2.0576       0.3769     189.4907       7.9486
    374.7000      45.2087       2.0477       0.3819     188.7260       7.9202
    374.8500      43.6297       2.0602       0.3824     232.4538       7.9398
    375.0000      42.3141       2.0735       0.3889     202.3015       7.9548
    375.1500      42.5158       2.0800       0.3876     235.7561       8.0481
    375.3000      42.9050       2.0818       0.3835     311.4106       8.0171
    375.4500      41.7760       2.0702       0.3867     384.3622       7.9970
    375.6000      43.2316       2.0747       0.3792     490.9547       8.0156
    375.7500      42.9587       2.0767       0.3848     446.7563       8.0542
    375.9000      38.8983       2.0832       0.3881     584.1688       8.0976
    376.0500      36.9179       2.0752       0.3828     584.1688       7.9844
    376.2000      35.8722       2.0678       0.3785     545.2948       8.0329
    376.3500      32.8989       2.0706       0.3695     470.7953       7.8698
    376.5000      29.1926       2.0811       0.3738     465.8009       7.9683
    376.6500      31.4659       2.0668       0.3743     406.5615       7.9434
    376.8000      34.7861       2.0795       0.3631     429.8921       7.8556
    376.9500      34.8783       2.0793       0.3656     415.7504       7.8039
    377.1000      35.3301       2.0759       0.3645     410.4703       7.7814
