~VERSION -------------------------------------------
 VERS.                 2.0 : CWLS LOG ASCII STANDARD - VERSION 2.0
 WRAP.                  NO : ONE LINE PER DEPTH STEP
~WELL -----------------------------------------------
 WELL.                ATHABASCA-B1 : Well name
 UWI .                CA-ATH-001        : Unique Well ID
 LAT .                57.2341        : Latitude
 LON .                -111.5432        : Longitude
 STRT.M               300.00 : START DEPTH
 STOP.M               599.85 : STOP DEPTH
 STEP.M               0.1500 : STEP
 NULL.                -9999 : NULL VALUE
~CURVE -----------------------------------------------
 DEPTH .M               : Depth
 GR    .GAPI            : Gamma Ray
 RHOB  .G/C3            : Bulk Density
 NPHI  .V/V             : Neutron Porosity
 RT    .OHMM            : Resistivity
 CALI  .IN              : Caliper
~A  DEPTH              GR        RHOB        NPHI          RT        CALI
# ...
    547.2000      33.6352       2.1508       0.3903     211.4559       7.9324
    547.3500      33.7608       2.1632       0.3900     264.2314       7.9019
    547.5000      34.5882       2.1569       0.3889     247.3783       7.8382
    547.6500      33.7182       2.1455       0.3896     290.6272       7.9177
    547.8000      37.7837       2.1272       0.3904     307.8784       7.8699
    547.9500      37.2248       2.1263       0.3803     329.3976       7.8877
    548.1000      36.8876       2.1026       0.3700     311.3809       7.9576
    548.2500      37.8006       2.0956       0.3661     273.1072       8.0123
    548.4000      36.1499       2.0912       0.3656     311.5445       7.9811
    548.5500      35.0166       2.0867       0.3670     280.1528       7.9606
    548.7000      36.6301       2.0848       0.3556     309.9630       7.9400
    548.8500      35.9635       2.0729       0.3495     327.9314       7.9418
    549.0000      37.2475       2.0698       0.3415     346.5362       8.0003
    549.1500      36.6184       2.0659       0.3428     327.6725       7.9566
    549.3000      35.0493       2.0637       0.3370     344.3443       7.9425
    549.4500      36.1645       2.0686       0.3433     382.0714       7.8084
    549.6000      37.2297       2.0687       0.3514     381.9042       7.7716
    549.7500      38.4392       2.0787       0.3537     338.1429       7.6741
    549.9000      40.8448       2.0768       0.3602     323.9927       7.7635
    550.0500      37.0676       2.0998       0.3677     362.3004       7.7637
    550.2000      35.8527       2.0890       0.3763     381.2717       7.8162
    550.3500      35.5675       2.1140       0.3721     340.6061       7.8550
    550.5000      36.9356       2.1229       0.3821     340.8301       7.7550
    550.6500      36.4461       2.1352       0.3824     380.6599       7.8140
    550.8000      38.0555       2.1259       0.3916     414.5625       7.8268
    550.9500      36.4420       2.1299       0.4031     379.0519       7.9192
    551.1000      37.2282       2.1243       0.4081     397.9693       7.8646
    551.2500      34.2473       2.1160       0.4023     389.2271       7.8847
    551.4000      34.1121       2.1073       0.4043     439.6866       7.8094
    551.5500      34.4163       2.0978       0.4064     409.8328       7.8069
    551.7000      32.3588       2.0876       0.3995     436.2884       7.7117
    551.8500      32.5423       2.0695       0.3944     429.1592       7.7840
    552.0000      29.8157       2.0745       0.4000     511.8092       7.8729
    552.1500      29.8777       2.0733       0.3933     487.7423       7.8923
    552.3000      31.7067       2.0611       0.3878     457.6524       7.9575
    552.4500      34.5786       2.0766       0.3899     403.3075       7.9561
    552.6000      34.9805       2.0715       0.3887     483.2021       8.0010
    552.7500      35.1639       2.0649       0.3837     512.4808       8.0671
    552.9000      36.7417       2.0605       0.3754     482.2881       8.0756
    553.0500      37.8609       2.0684       0.3679     410.4789       8.0541
    553.2000      42.0575       2.0843       0.3664     434.6272       8.1513
    553.3500      40.2104       2.0885       0.3688     437.7471       8.0378
    553.5000      42.2900       2.0905       0.3720     411.7828       7.9627
    553.6500      40.7248       2.0884       0.3724     387.2169       7.9490
    553.8000      40.3955       2.0973       0.3721     383.6683       7.8588
    553.9500      42.0436       2.1089       0.3681     400.7333       7.8246
    554.1000      42.4225       2.1129       0.3607     400.1805       7.8664
    554.2500      44.7770       2.1052       0.3561     404.8025       7.8713
    554.4000      44.5526       2.1102       0.3511     390.0537       7.9202
    554.5500      40.9159       2.1040       0.3548     382.8239       7.9029
    554.7000      40.5118       2.1051       0.3496     406.8037       7.8018
    554.8500      42.7235       2.1158       0.3509     326.4673       7.8755
    555.0000      41.7751       2.1257       0.3448     253.2096       7.8101
    555.1500      41.3474       2.1282       0.3625     193.2486       7.7879
    555.3000      40.9118       2.1259       0.3639     161.2213       7.8188
    555.4500      38.6471       2.1310       0.3620     144.6587       7.8416
    555.6000      39.7819       2.1455       0.3530     123.9256       7.8573
    555.7500      41.2276       2.1401       0.3526      93.0563       7.8246
    555.9000      46.5301       2.1505       0.3560      72.8109       7.7920
    556.0500      46.7657       2.1526       0.3527      69.0671       7.8319
    556.2000      50.0515       2.1535       0.3572      57.9310       7.9095
    556.3500      49.2731       2.1454       0.3664      53.6123       7.7683
    556.5000      49.4992       2.1298       0.3773      53.6123       7.8556
    556.6500      46.4775       2.1306       0.3902      60.4283       7.8713
    556.8000      47.2866       2.1167       0.3816      56.1056       7.8443
    556.9500      45.8123       2.1234       0.3799      53.3656       7.8524
    557.1000      44.6346       2.1108       0.3771      62.1070       7.8809
    557.2500      45.5289       2.1216       0.3820      86.0249       7.8941
    557.4000      44.1795       2.1153       0.3751     119.7731       7.9024
    557.5500      42.2418       2.1184       0.3746     164.3842       7.8348
    557.7000      40.3099       2.1073       0.3721     163.4458       7.8204
    557.8500      41.0235       2.0997       0.3750     177.4315       7.9303
    558.0000      39.3062       2.1141       0.3923     227.2447       7.9156
    558.1500      36.3075       2.1068       0.3786     293.3141       7.8682
    558.3000      36.8977       2.0870       0.3775     288.0511       7.9178
    558.4500      32.8028       2.0917       0.3697     333.4536       7.9135
    558.6000      33.5014       2.1162       0.3690     345.5544       7.8913
    558.7500      34.4028       2.1380       0.3578     345.5544       7.8248
    558.9000      36.5549       2.1397       0.3520     347.7742       7.8368
    559.0500      36.1718       2.1548       0.3538     362.7035       7.8270
    559.2000      36.1583       2.1377       0.3601     404.6390       7.8199
    559.3500      34.2111       2.1246       0.3580     361.4457       7.8776
    559.5000      35.1088       2.1009       0.3508     361.4457       7.9177
    559.6500      35.8315       2.0993       0.3473     291.6433       7.9462
    559.8000      37.8504       2.0963       0.3505     295.3319       7.8920
    559.9500      39.5249       2.0861       0.3525     347.5715       7.9395
    560.1000      38.0637       2.0732       0.3524     373.7411       7.9332
    560.2500      38.1431       2.0658       0.3436     359.4353       7.9060
    560.4000      37.6764       2.0653       0.3421     315.8911       7.8619
    560.5500      38.5115       2.0674       0.3416     336.1816       7.9370
    560.7000      38.8718       2.0586       0.3485     308.0037       7.9387
    560.8500      37.0695       2.0631       0.3485     323.4944       7.9044
    561.0000      34.8828       2.0475       0.3554     318.1530       7.8366
    561.1500      34.4587       2.0665       0.3569     317.9684       7.8305
    561.3000      36.8336       2.0611       0.3623     318.9952       7.8389
    561.4500      37.0326       2.0696       0.3664     321.0161       7.7835
    561.6000      38.9954       2.0858       0.3766     383.9720       7.7490
    561.7500      36.0323       2.0910       0.3759     349.7715       7.8414
    561.9000      38.7493       2.0732       0.3851     419.7213       7.9290
    562.0500      39.2670       2.0721       0.3827     361.9144       7.8549
    562.2000      39.1346       2.0776       0.3790     350.4401       7.9462
    562.3500      41.5705       2.0873       0.3737     324.4942       8.0420
    562.5000      41.7100       2.0942       0.3693     381.3388       8.0671
