~VERSION -------------------------------------------
 VERS.                 2.0 : CWLS LOG ASCII STANDARD - VERSION 2.0
 WRAP.                  NO : ONE LINE PER DEPTH STEP
~WELL -----------------------------------------------
 WELL.                PEMBINA-A3 : Well name
 UWI .                CA-PEM-003        : Unique Well ID
 LAT .                53.0341        : Latitude
 LON .                -114.9876        : Longitude
 STRT.M               1500.00 : START DEPTH
 STOP.M               2199.90 : STOP DEPTH
 STEP.M               0.1500 : STEP
 NULL.                -9999 : NULL VALUE
~CURVE -----------------------------------------------
 DEPTH .M               : Depth
 GR    .GAPI            : Gamma Ray
 RHOB  .G/C3            : Bulk Density
 NPHI  .V/V             : Neutron Porosity
 RT    .OHMM            : Resistivity
 CALI  .IN              : Caliper
~A  DEPTH              GR        RHOB        NPHI          RT        CALI
   1500.0000      27.2716       1.1912       0.0658       4.6563       3.2392
   1500.1500      29.5643       1.3113       0.0735       5.3422       3.8392
   1500.3000      32.8021       1.4389       0.0803       5.9503       4.5029
   1500.4500      36.8111       1.5714       0.0860       6.6862       5.1272
   1500.6000      39.0162       1.6822       0.0927       7.2444       5.7641
   1500.7500      41.2612       1.8138       0.0954       7.8511       6.4247
   1500.9000      44.7047       1.9346       0.0964       8.4216       6.4656
   1501.0500      46.8453       2.0468       0.1043       9.2926       6.4720
   1501.2000      48.8041       2.1705       0.1118      10.2405       6.4803
   1501.3500      52.0185       2.2908       0.1195      11.2661       6.4602
   1501.5000      54.2950       2.4173       0.1288      12.2669       6.4463
   1501.6500      56.0134       2.4281       0.1296      12.5949       6.4731
   1501.8000      56.0356       2.4190       0.1361      13.7815       6.4340
   1501.9500      55.1696       2.4213       0.1418      10.7160       6.4576
   1502.1000      54.7632       2.4169       0.1404       8.9544       6.4879
   1502.2500      56.7212       2.4256       0.1447       7.1037       6.4604
   1502.4000      56.5750       2.4259       0.1489       6.9246       6.4416
   1502.5500      56.8771       2.4319       0.1398       7.2453       6.3938
   1502.7000      55.8082       2.4493       0.1400       7.4824       6.4436
   1502.8500      56.9106       2.4433       0.1405       7.1652       6.3917
   1503.0000      54.6920       2.4471       0.1388       6.9678       6.3863
   1503.1500      54.2903       2.4478       0.1428       7.1337       6.4359
   1503.3000      53.8448       2.4389       0.1417       7.3115       6.4563
   1503.4500      51.8190       2.4172       0.1427       7.0612       6.4752
   1503.6000      52.0232       2.4271       0.1425       7.3144       6.4653
   1503.7500      51.4484       2.4155       0.1463       7.4565       6.4410
   1503.9000      50.5259       2.4100       0.1595       8.0948       6.3984
   1504.0500      51.6447       2.4055       0.1578       8.0080       6.4253
   1504.2000      51.8467       2.3920       0.1563       8.0298       6.4127
   1504.3500      50.4155       2.4044       0.1556       7.7857       6.4393
   1504.5000      50.3820       2.3990       0.1508       7.8040       6.3934
   1504.6500      50.2523       2.3887       0.1501       7.1279       6.3169
   1504.8000      51.9703       2.3825       0.1432       6.7921       6.3721
   1504.9500      52.3454       2.3854       0.1412       6.9653       6.4066
   1505.1000      52.9098       2.3950       0.1379       7.2372       6.3739
   1505.2500      52.4106       2.3886       0.1356       7.2403       6.3720
   1505.4000      53.4707       2.4052       0.1319       7.1926       6.4510
   1505.5500      53.0886       2.4160       0.1349       6.8630       6.4119
   1505.7000      53.4754       2.4089       0.1268       6.7464       6.4472
   1505.8500      53.9862       2.4075       0.1191       6.6657       6.4898
   1506.0000      54.7909       2.4055       0.1231       6.7418       6.5159
   1506.1500      56.0010       2.3970       0.1138       6.0324       6.6077
   1506.3000      57.4615       2.4059       0.1203       5.6758       6.5377
   1506.4500      58.9611       2.4172       0.1196       5.6944       6.5118
   1506.6000      58.4626       2.4096       0.1222       5.6268       6.5296
   1506.7500      58.6441       2.4068       0.1236       5.2749       6.5363
   1506.9000      57.3237       2.4162       0.1132       4.9083       6.5540
   1507.0500      58.4456       2.4186       0.1127       5.0485       6.5827
   1507.2000      57.7885       2.4237       0.1159       5.2577       6.5390
   1507.3500      59.5401       2.4090       0.1179       5.3906       6.5443
   1507.5000      58.4780       2.4151       0.1231       5.8426       6.5920
   1507.6500      60.0765       2.4356       0.1202       6.5631       6.5106
   1507.8000      57.3832       2.4420       0.1244       6.5184       6.5737
   1507.9500      57.9559       2.4259       0.1211       6.5726       6.5482
   1508.1000      58.7300       2.4157       0.1273       6.0919       6.5531
   1508.2500      57.9768       2.4313       0.1320       5.7785       6.5846
   1508.4000      57.1845       2.4191       0.1309       6.0427       6.5228
   1508.5500      56.6638       2.3897       0.1333       6.3316       6.4973
   1508.7000      57.3125       2.4012       0.1354       6.6728       6.5223
   1508.8500      56.7415       2.3949       0.1438       7.3047       6.5041
   1509.0000      57.2864       2.3962       0.1414       7.8983       6.4558
   1509.1500      58.5819       2.3973       0.1470       7.8369       6.5016
   1509.3000      57.4669       2.4048       0.1440       7.9029       6.4522
   1509.4500      58.8775       2.3945       0.1453       7.8801       6.4502
   1509.6000      58.8014       2.3986       0.1458       8.1114       6.4653
   1509.7500      58.9935       2.4092       0.1457       8.6987       6.4636
   1509.9000      60.2873       2.4018       0.1536       9.1655       6.4408
   1510.0500      57.3222       2.4158       0.1516       9.0389       6.5103
   1510.2000      59.5869       2.4270       0.1482       8.6068       6.4658
   1510.3500      58.7187       2.4312       0.1404       8.8342       6.4913
   1510.5000      59.0271       2.4177       0.1369       8.2628       6.4920
   1510.6500      55.3092       2.4014       0.1353       8.1747       6.5121
   1510.8000      55.8405       2.3964       0.1294       8.3430       6.5614
   1510.9500      56.8097       2.4163       0.1265       8.1129       6.5618
   1511.1000      55.9794       2.4288       0.1221       8.5413       6.5754
   1511.2500      56.6069       2.4161       0.1199       8.8720       6.6011
   1511.4000      55.5849       2.4197       0.1255       8.6424       6.6299
   1511.5500      55.6323       2.4253       0.1277       8.1971       6.6252
   1511.7000      57.1646       2.4133       0.1338       8.1798       6.6491
   1511.8500      55.7184       2.4215       0.1279       8.3771       6.6668
   1512.0000      57.1329       2.4210       0.1291       7.3436       6.6797
   1512.1500      55.1241       2.4334       0.1287       7.8939       6.6315
   1512.3000      56.5872       2.4125       0.1271       7.9510       6.5753
   1512.4500      53.1027       2.4210       0.1310       7.9795       6.6037
   1512.6000      54.9056       2.4335       0.1276       7.8323       6.5499
   1512.7500      54.7766       2.4287       0.1290       7.7242       6.5878
   1512.9000      57.4667       2.4316       0.1239       7.5194       6.6215
   1513.0500      59.5677       2.4205       0.1282       7.3542       6.5665
   1513.2000      56.6750       2.4187       0.1306       7.7515       6.5981
   1513.3500      55.7339       2.4085       0.1362       7.5107       6.5198
   1513.5000      57.7483       2.4145       0.1342       7.2501       6.4922
   1513.6500      59.3769       2.4164       0.1386       7.2394       6.5001
   1513.8000      60.9753       2.4215       0.1447       6.8770       6.4908
   1513.9500      60.1315       2.4138       0.1497       6.8299       6.4860
   1514.1000      59.2778       2.4064       0.1451       6.9884       6.5212
   1514.2500      60.6191       2.3991       0.1438       6.9652       6.4771
   1514.4000      60.0703       2.3929       0.1444       6.6080       6.4380
   1514.5500      60.3917       2.4047       0.1385       6.7431       6.4591
   1514.7000      57.7503       2.4005       0.1388       6.7035       6.4203
   1514.8500      57.2377       2.3989       0.1404       6.3421       6.4825
   1515.0000      55.7895       2.3967       0.1416       6.9149       6.4971
   1515.1500      55.3429       2.3983       0.1417       6.6173       6.5530
   1515.3000      54.0969       2.4100       0.1383       6.5568       6.5562
