~VERSION -------------------------------------------
 VERS.                 2.0 : CWLS LOG ASCII STANDARD - VERSION 2.0
 WRAP.                  NO : ONE LINE PER DEPTH STEP
~WELL -----------------------------------------------
 WELL.                PEMBINA-A3 : Well name
 UWI .                CA-PEM-003        : Unique Well ID
 LAT .                53.0341        : Latitude
 LON .                -114.9876        : Longitude
 STRT.M               1500.00 : START DEPTH
 STOP.M               2199.90 : STOP DEPTH
 STEP.M               0.1500 : STEP
 NULL.                -9999 : NULL VALUE
~CURVE -----------------------------------------------
 DEPTH .M               : Depth
 GR    .GAPI            : Gamma Ray
 RHOB  .G/C3            : Bulk Density
 NPHI  .V/V             : Neutron Porosity
 RT    .OHMM            : Resistivity
 CALI  .IN              : Caliper
~A  DEPTH              GR        RHOB        NPHI          RT        CALI
# ...
   1948.0500      63.7152       2.4124       0.1448       6.0210       6.5279
   1948.2000      61.4568       2.4093       0.1476       6.1882       6.5262
   1948.3500      59.3471       2.4049       0.1438       6.2891       6.5361
   1948.5000      60.6509       2.4125       0.1471       6.5377       6.5329
   1948.6500      59.2439       2.4298       0.1521       6.2627       6.5538
   1948.8000      58.1227       2.4523       0.1454       6.5091       6.5574
   1948.9500      57.9677       2.4523       0.1503       6.9203       6.5856
   1949.1000      59.8221       2.4435       0.1564       7.7861       6.6152
   1949.2500      60.0300       2.4223       0.1593       7.0510       6.6419
   1949.4000      60.8272       2.4136       0.1578       6.7429       6.6609
   1949.5500      58.3460       2.4180       0.1483       6.4761       6.6448
   1949.7000      59.5691       2.4116       0.1489       6.6301       6.6858
   1949.8500      58.1129       2.4035       0.1418       6.4374       6.6403
   1950.0000      56.7507       2.3875       0.1391       6.2214       6.5541
   1950.1500      53.9713       2.3847       0.1367       6.0765       6.5912
   1950.3000      53.8370       2.3849       0.1297       5.8625       6.6027
   1950.4500      56.0174       2.3738       0.1284       5.6088       6.5825
   1950.6000      54.1752       2.3920       0.1263       4.9256       6.5160
   1950.7500      53.4487       2.3786       0.1216       4.7511       6.4706
   1950.9000      52.5025       2.3767       0.1239       4.8651       6.4647
   1951.0500      55.3790       2.3742       0.1227       4.9858       6.5157
   1951.2000      57.4763       2.3790       0.1279       4.9933       6.4412
   1951.3500      58.1413       2.3771       0.1308       4.5820       6.4542
   1951.5000      58.2305       2.3737       0.1324       4.7576       6.4718
   1951.6500      58.5689       2.3683       0.1258       4.6851       6.4632
   1951.8000      59.4507       2.3558       0.1320       4.5498       6.4769
   1951.9500      58.6938       2.3612       0.1257       4.4555       6.4487
   1952.1000      56.9195       2.3694       0.1218       4.2160       6.4580
   1952.2500      57.4129       2.3800       0.1224       4.5709       6.5198
   1952.4000      56.0723       2.4002       0.1213       4.5373       6.4435
   1952.5500      55.3643       2.3955       0.1292       4.8842       6.4249
   1952.7000      53.2295       2.4103       0.1263       4.9583       6.5066
   1952.8500      53.7298       2.4140       0.1262       5.1544       6.5160
   1953.0000      51.8313       2.4300       0.1334       5.4365       6.5309
   1953.1500      53.6522       2.4243       0.1365       5.3102       6.5150
   1953.3000      54.1607       2.4355       0.1383       5.7184       6.4666
   1953.4500      49.7815       2.4490       0.1428       6.0597       6.4719
   1953.6000      49.8865       2.4465       0.1476       6.1350       6.4402
   1953.7500      50.7997       2.4500       0.1499       6.2979       6.4409
   1953.9000      52.8214       2.4526       0.1533       6.0590       6.4799
   1954.0500      53.3467       2.4568       0.1531       5.7601       6.4554
   1954.2000      53.1757       2.4559       0.1502       5.7256       6.4063
   1954.3500      52.7691       2.4670       0.1505       6.2940       6.4176
   1954.5000      55.1427       2.4512       0.1449       5.9782       6.4707
   1954.6500      54.5688       2.4452       0.1469       5.8344       6.4854
   1954.8000      55.0952       2.4467       0.1449       5.7531       6.4446
   1954.9500      55.3554       2.4493       0.1471       5.5984       6.4465
   1955.1000      55.3279       2.4484       0.1424       5.7463       6.4996
   1955.2500      57.2709       2.4498       0.1443       5.5161       6.4855
   1955.4000      58.8139       2.4430       0.1445       5.7043       6.4735
   1955.5500      61.6266       2.4501       0.1369       5.2429       6.4716
   1955.7000      61.5908       2.4483       0.1323       4.8886       6.5141
   1955.8500      61.4492       2.4623       0.1301       5.0113       6.4938
   1956.0000      60.0893       2.4528       0.1302       5.0442       6.4954
   1956.1500      60.6817       2.4702       0.1334       4.9089       6.4696
   1956.3000      60.8648       2.4570       0.1338       4.8048       6.4878
   1956.4500      62.9127       2.4556       0.1322       4.9339       6.4807
   1956.6000      62.7052       2.4607       0.1311       4.8845       6.4244
   1956.7500      63.3739       2.4717       0.1313       4.6863       6.4258
   1956.9000      61.4495       2.4718       0.1275       4.8895       6.4388
   1957.0500      59.5607       2.4616       0.1293       5.1153       6.4608
   1957.2000      59.4248       2.4632       0.1245       5.1746       6.3855
   1957.3500      60.9493       2.4616       0.1245       4.9518       6.4174
   1957.5000      59.1243       2.4903       0.1332       5.0375       6.3806
   1957.6500      59.5318       2.5085       0.1340       5.1682       6.4477
   1957.8000      56.8515       2.5045       0.1343       5.0977       6.4735
   1957.9500      56.3890       2.5067       0.1357       5.3927       6.4907
   1958.1000      56.5038       2.4951       0.1406       5.4401       6.5597
   1958.2500      54.3764       2.4960       0.1377       5.6568       6.5100
   1958.4000      53.1525       2.4929       0.1356       5.6333       6.5533
   1958.5500      50.0753       2.4980       0.1405       5.7478       6.5288
   1958.7000      50.9725       2.4921       0.1482       6.3005       6.5406
   1958.8500      50.9276       2.4892       0.1550       6.0110       6.5154
   1959.0000      54.0224       2.4905       0.1537       5.8192       6.5459
   1959.1500      52.6673       2.4790       0.1484       5.8530       6.4881
   1959.3000      51.6145       2.4811       0.1441       5.7619       6.4963
   1959.4500      49.8200       2.4753       0.1402       5.5430       6.4361
   1959.6000      47.9260       2.4537       0.1402       5.8696       6.3914
   1959.7500      46.9239       2.4351       0.1343       5.8813       6.4626
   1959.9000      48.2707       2.4200       0.1350       5.8691       6.4610
   1960.0500      47.7519       2.4272       0.1271       6.0406       6.4712
   1960.2000      46.8336       2.4211       0.1327       5.9931       6.5269
   1960.3500      43.7685       2.4241       0.1331       6.0330       6.5171
   1960.5000      44.5856       2.4130       0.1292       6.1165       6.4826
   1960.6500      46.0663       2.3871       0.1293       5.9991       6.4611
   1960.8000      47.7261       2.3883       0.1288       5.9473       6.4432
   1960.9500      47.6372       2.3690       0.1299       5.6812       6.4924
   1961.1000      49.3415       2.3668       0.1319       5.8693       6.4711
   1961.2500      49.4890       2.3645       0.1303       5.9780       6.5217
   1961.4000      50.9310       2.3639       0.1397       6.1034       6.4688
   1961.5500      51.5536       2.3653       0.1419       6.1533       6.4688
   1961.7000      50.5393       2.3687       0.1391       6.0689       6.4138
   1961.8500      52.7059       2.3646       0.1387       6.6642       6.3758
   1962.0000      53.7062       2.3736       0.1409       6.6608       6.4266
   1962.1500      53.8954       2.3648       0.1429       7.2474       6.4601
   1962.3000      54.7352       2.3600       0.1546       7.2605       6.4248
   1962.4500      54.4028       2.3700       0.1545       7.7617       6.3949
   1962.6000      56.9700       2.3737       0.1578       7.9373       6.5038
   1962.7500      58.7501       2.3868       0.1627       8.2643       6.4465
   1962.9000      58.8207       2.3992       0.1574       8.3161       6.4176
   1963.0500      58.2779       2.4017       0.1655       7.8196       6.3959
   1963.2000      59.4791       2.4187       0.1678       7.8156       6.4280
   1963.3500      63.3414       2.4153       0.1700       8.2409       6.4937
