~VERSION -------------------------------------------
 VERS.                 2.0 : CWLS LOG ASCII STANDARD - VERSION 2.0
 WRAP.                  NO : ONE LINE PER DEPTH STEP
~WELL -----------------------------------------------
 WELL.                PEMBINA-A3 : Well name
 UWI .                CA-PEM-003        : Unique Well ID
 LAT .                53.0341        : Latitude
 LON .                -114.9876        : Longitude
 STRT.M               1500.00 : START DEPTH
 STOP.M               2199.90 : STOP DEPTH
 STEP.M               0.1500 : STEP
 NULL.                -9999 : NULL VALUE
~CURVE -----------------------------------------------
 DEPTH .M               : Depth
 GR    .GAPI            : Gamma Ray
 RHOB  .G/C3            : Bulk Density
 NPHI  .V/V             : Neutron Porosity
 RT    .OHMM            : Resistivity
 CALI  .IN              : Caliper
~A  DEPTH              GR        RHOB        NPHI          RT        CALI
# ...
   2040.7500      51.9894       2.4130       0.1327       5.2955       6.4269
   2040.9000      50.6338       2.4189       0.1299       5.7955       6.4796
   2041.0500      52.4892       2.4362       0.1326       5.9049       6.5277
   2041.2000      51.6544       2.4273       0.1304       5.9052       6.4992
   2041.3500      51.8237       2.4185       0.1244       6.0823       6.4843
   2041.5000      53.9184       2.4168       0.1212       6.5386       6.5135
   2041.6500      53.1184       2.4317       0.1150       5.9326       6.5949
   2041.8000      53.1633       2.4171       0.1119       6.2966       6.6267
   2041.9500      53.7318       2.4118       0.1108       6.6563       6.6243
   2042.1000      54.0013       2.4102       0.1126       6.9423       6.5631
   2042.2500      52.3497       2.4032       0.1109       6.5521       6.5182
   2042.4000      53.1635       2.4024       0.1124       6.0772       6.4888
   2042.5500      53.5321       2.3912       0.1213       6.2957       6.3848
   2042.7000      55.4879       2.3903       0.1184       6.4041       6.3954
   2042.8500      56.4182       2.3951       0.1131       6.1607       6.4900
   2043.0000      56.0436       2.3956       0.1156       6.4005       6.4463
   2043.1500      55.7454       2.3982       0.1119       7.0196       6.4188
   2043.3000      55.5314       2.4000       0.1121       7.2410       6.4031
   2043.4500      55.9232       2.4110       0.1115       7.4515       6.3993
   2043.6000      57.0713       2.4120       0.1160       7.4031       6.4096
   2043.7500      56.0376       2.4054       0.1158       7.6450       6.4854
   2043.9000      55.4514       2.4043       0.1201       7.4805       6.5176
   2044.0500      52.3129       2.3916       0.1252       7.3199       6.5967
   2044.2000      53.2420       2.4038       0.1230       7.5817       6.6815
   2044.3500      53.6813       2.3993       0.1302       7.4589       6.6056
   2044.5000      52.4535       2.3975       0.1340       6.9172       6.6173
   2044.6500      53.4345       2.3987       0.1336       7.3308       6.6084
   2044.8000      53.0293       2.4045       0.1370       7.0204       6.5771
   2044.9500      49.5931       2.3985       0.1429       6.6868       6.5750
   2045.1000      50.4770       2.4070       0.1428       7.1263       6.6282
   2045.2500      51.2969       2.4165       0.1482       6.9623       6.5926
   2045.4000      49.2242       2.4139       0.1483       7.1398       6.6617
   2045.5500      49.0016       2.4250       0.1430       6.9546       6.6156
   2045.7000      47.0458       2.4300       0.1425       6.7051       6.5892
   2045.8500      46.7190       2.4203       0.1432       6.6351       6.6680
   2046.0000      47.7669       2.4146       0.1413       6.8866       6.6702
   2046.1500      47.2651       2.4169       0.1440       6.4759       6.6886
   2046.3000      46.6808       2.4127       0.1409       6.5740       6.7300
   2046.4500      47.0341       2.4077       0.1378       7.3409       6.7262
   2046.6000      48.1316       2.4097       0.1408       6.9730       6.7340
   2046.7500      51.5014       2.4074       0.1478       7.1551       6.7067
   2046.9000      52.5210       2.4109       0.1409       7.0384       6.6164
   2047.0500      56.6846       2.4146       0.1345       7.0510       6.6133
   2047.2000      58.1486       2.4135       0.1380       6.3672       6.5749
   2047.3500      59.0490       2.4110       0.1376       6.6485       6.5320
   2047.5000      59.5050       2.4021       0.1376       6.8098       6.5154
   2047.6500      58.3504       2.3956       0.1406       6.7782       6.4985
   2047.8000      59.2162       2.4054       0.1355       6.5959       6.4386
   2047.9500      60.3870       2.4153       0.1325       6.2063       6.4903
   2048.1000      59.5355       2.4133       0.1307       6.0781       6.4612
   2048.2500      58.5921       2.4170       0.1256       6.4473       6.4751
   2048.4000      59.5914       2.4257       0.1270       6.3948       6.4850
   2048.5500      60.4029       2.4238       0.1252       6.3773       6.4804
   2048.7000      62.8322       2.4120       0.1265       6.7747       6.4457
   2048.8500      62.5731       2.4117       0.1304       7.5060       6.4035
   2049.0000      62.4426       2.4066       0.1315       7.2984       6.3948
   2049.1500      63.9526       2.4084       0.1370       7.2235       6.4269
   2049.3000      63.4093       2.4104       0.1359       7.3302       6.4915
   2049.4500      63.2048       2.4102       0.1392       6.8668       6.4154
   2049.6000      61.4308       2.4096       0.1324       6.8498       6.4155
   2049.7500      60.4444       2.4125       0.1254       7.3575       6.3893
   2049.9000      59.0749       2.4166       0.1286       7.7122       6.4180
   2050.0500      58.2553       2.4179       0.1331       7.5692       6.4405
   2050.2000      57.1635       2.4090       0.1341       7.6803       6.4527
   2050.3500      56.9763       2.4075       0.1299       7.4705       6.4985
   2050.5000      55.8332       2.4151       0.1321       7.4729       6.5667
   2050.6500      55.9057       2.4097       0.1266       7.7629       6.4880
   2050.8000      53.9814       2.4177       0.1356       7.7075       6.4911
   2050.9500      55.4936       2.4213       0.1307       7.5131       6.5083
   2051.1000      53.7240       2.4093       0.1308       7.3327       6.5300
   2051.2500      52.5130       2.4087       0.1388       7.2114       6.5927
   2051.4000      51.4516       2.4086       0.1365       7.3100       6.5361
   2051.5500      51.7741       2.4038       0.1385       7.7439       6.5161
   2051.7000      50.7041       2.4112       0.1385       7.8758       6.5461
   2051.8500      51.0158       2.4109       0.1345       7.9980       6.5612
   2052.0000      49.7179       2.4242       0.1318       7.8595       6.5350
   2052.1500      47.0277       2.4187       0.1274       8.0664       6.5967
   2052.3000      49.5037       2.4285       0.1373       8.0934       6.5434
   2052.4500      50.2679       2.4269       0.1315       7.4894       6.5683
   2052.6000      50.6839       2.4254       0.1321       7.3669       6.5233
   2052.7500      50.5176       2.4321       0.1332       7.2087       6.4523
   2052.9000      50.7470       2.4365       0.1325       7.2395       6.4960
   2053.0500      48.2086       2.4221       0.1317       6.9546       6.5025
   2053.2000      49.7203       2.4102       0.1311       7.1354       6.5293
   2053.3500      48.5244       2.4195       0.1348       6.6947       6.5360
   2053.5000      49.9696       2.4129       0.1373       7.0453       6.5273
   2053.6500      49.7297       2.4122       0.1354       6.7520       6.5487
   2053.8000      50.8930       2.3981       0.1314       7.5934       6.5863
   2053.9500      51.7197       2.4037       0.1349       7.6549       6.5846
   2054.1000      53.2064       2.4054       0.1354       7.4512       6.5444
   2054.2500      55.4828       2.4071       0.1269       7.4267       6.5846
   2054.4000      57.1367       2.3947       0.1267       7.6717       6.5645
   2054.5500      57.2976       2.3891       0.1254       7.6494       6.5722
   2054.7000      59.3369       2.3828       0.1252       7.5462       6.5241
   2054.8500      59.3977       2.3744       0.1273       7.2968       6.5221
   2055.0000      60.4621       2.3598       0.1265       7.4532       6.5530
   2055.1500      62.6535       2.3580       0.1209       8.1086       6.5052
   2055.3000      62.6676       2.3443       0.1109       8.3145       6.4470
   2055.4500      61.4784       2.3443       0.1172       8.4735       6.4186
   2055.6000      62.1058       2.3474       0.1222       8.9600       6.4983
   2055.7500      64.5858       2.3381       0.1204       8.0180       6.5318
   2055.9000      65.2089       2.3363       0.1192       7.7321       6.5076
   2056.0500      65.0279       2.3472       0.1230       7.6520       6.4669
