~VERSION -------------------------------------------
 VERS.                 2.0 : CWLS LOG ASCII STANDARD - VERSION 2.0
 WRAP.                  NO : ONE LINE PER DEPTH STEP
~WELL -----------------------------------------------
 WELL.                PEMBINA-A3 : Well name
 UWI .                CA-PEM-003        : Unique Well ID
 LAT .                53.0341        : Latitude
 LON .                -114.9876        : Longitude
 STRT.M               1500.00 : START DEPTH
 STOP.M               2199.90 : STOP DEPTH
 STEP.M               0.1500 : STEP
 NULL.                -9999 : NULL VALUE
~CURVE -----------------------------------------------
 DEPTH .M               : Depth
 GR    .GAPI            : Gamma Ray
 RHOB  .G/C3            : Bulk Density
 NPHI  .V/V             : Neutron Porosity
 RT    .OHMM            : Resistivity
 CALI  .IN              : Caliper
~A  DEPTH              GR        RHOB        NPHI          RT        CALI
# ...
   1855.3500      58.7896       2.4212       0.1483       5.9353       6.6517
   1855.5000      55.5631       2.4279       0.1430       5.9115       6.6072
   1855.6500      57.3698       2.4388       0.1420       5.5290       6.6725
   1855.8000      57.9630       2.4315       0.1430       5.4054       6.6903
   1855.9500      55.2834       2.4223       0.1458       5.2628       6.7242
   1856.1000      58.0361       2.4300       0.1508       5.0862       6.7352
   1856.2500      56.7662       2.4353       0.1541       5.6112       6.7078
   1856.4000      56.1970       2.4320       0.1576       5.4130       6.7293
   1856.5500      56.0925       2.4409       0.1521       5.0084       6.7470
   1856.7000      55.9789       2.4418       0.1554       5.0836       6.7042
   1856.8500      58.5595       2.4559       0.1595       5.0660       6.6295
   1857.0000      59.7204       2.4621       0.1639       6.1857       6.6219
   1857.1500      59.2646       2.4603       0.1638       5.9277       6.5352
   1857.3000      58.0910       2.4620       0.1653       5.6438       6.5337
   1857.4500      58.3430       2.4593       0.1591       5.7501       6.4417
   1857.6000      56.6130       2.4591       0.1608       5.9057       6.4450
   1857.7500      56.6312       2.4582       0.1570       5.7571       6.4954
   1857.9000      58.1684       2.4442       0.1487       5.7283       6.4687
   1858.0500      58.0916       2.4283       0.1511       5.7918       6.4501
   1858.2000      59.0003       2.4379       0.1476       5.8623       6.5275
   1858.3500      58.4064       2.4444       0.1464       6.0462       6.6060
   1858.5000      60.1159       2.4536       0.1482       6.0280       6.5809
   1858.6500      58.7883       2.4542       0.1504       6.0597       6.5712
   1858.8000      56.7810       2.4603       0.1515       5.8301       6.5728
   1858.9500      56.2821       2.4662       0.1514       5.9956       6.6131
   1859.1000      55.8080       2.4716       0.1481       6.6330       6.5887
   1859.2500      57.1034       2.4771       0.1467       6.0322       6.5423
   1859.4000      58.1762       2.4774       0.1448       6.0155       6.5660
   1859.5500      58.1762       2.4766       0.1474       6.1385       6.5098
   1859.7000      57.7556       2.4680       0.1433       6.3692       6.4395
   1859.8500      56.9142       2.4536       0.1414       6.2698       6.4931
   1860.0000      57.3204       2.4429       0.1363       5.7001       6.4524
   1860.1500      56.4778       2.4541       0.1361       5.8694       6.5026
   1860.3000      56.3226       2.4674       0.1326       6.1460       6.5495
   1860.4500      55.6812       2.4662       0.1319       6.4324       6.5680
   1860.6000      55.6660       2.4731       0.1223       6.3910       6.5658
   1860.7500      56.9372       2.4818       0.1251       6.6541       6.6030
   1860.9000      56.2822       2.4823       0.1287       6.3015       6.6633
   1861.0500      54.6644       2.4849       0.1303       5.6798       6.7460
   1861.2000      54.7359       2.4731       0.1260       5.8751       6.7599
   1861.3500      53.5373       2.4518       0.1212       5.8042       6.6812
   1861.5000      51.8736       2.4335       0.1264       6.1181       6.7052
   1861.6500      53.0687       2.4308       0.1232       6.1757       6.6639
   1861.8000      52.4428       2.4401       0.1247       6.4309       6.6502
   1861.9500      52.1500       2.4457       0.1215       6.1530       6.6335
   1862.1000      51.9429       2.4381       0.1234       5.5518       6.6485
   1862.2500      51.2810       2.4172       0.1190       5.4401       6.6201
   1862.4000      50.4360       2.4207       0.1233       5.3898       6.6210
   1862.5500      48.9555       2.4021       0.1233       5.4144       6.5945
   1862.7000      49.3345       2.4068       0.1256       5.2443       6.5940
   1862.8500      48.6602       2.4174       0.1273       5.6451       6.5407
   1863.0000      47.7830       2.4188       0.1300       5.3741       6.5893
   1863.1500      48.0999       2.4130       0.1268       5.2771       6.6040
   1863.3000      46.4279       2.4149       0.1187       5.3490       6.6041
   1863.4500      46.0530       2.4189       0.1199       4.9655       6.6212
   1863.6000      45.4707       2.4119       0.1260       5.0932       6.5951
   1863.7500      45.0190       2.3986       0.1271       5.2901       6.5884
   1863.9000      45.1674       2.3983       0.1269       5.5927       6.5863
   1864.0500      47.9608       2.3967       0.1292       6.0742       6.5390
   1864.2000      48.1056       2.3973       0.1372       5.6881       6.4924
   1864.3500      47.4663       2.4033       0.1463       5.7872       6.5014
   1864.5000      46.7166       2.3948       0.1432       5.4178       6.4669
   1864.6500      44.2295       2.4023       0.1534       5.3742       6.4971
   1864.8000      44.9811       2.3955       0.1543       5.3717       6.4892
   1864.9500      43.6025       2.3977       0.1569       5.2954       6.5036
   1865.1000      42.6019       2.4017       0.1562       5.5910       6.4790
   1865.2500      42.7180       2.4171       0.1612       5.7929       6.4624
   1865.4000      42.7853       2.4203       0.1563       6.0506       6.3891
   1865.5500      44.1850       2.4320       0.1547       6.1529       6.4792
   1865.7000      44.3517       2.4348       0.1502       5.9692       6.5236
   1865.8500      44.6987       2.4256       0.1457       5.8649       6.5662
   1866.0000      46.7167       2.4252       0.1417       6.1014       6.5776
   1866.1500      47.2803       2.4180       0.1427       5.9968       6.5227
   1866.3000      48.9201       2.4246       0.1482       5.4242       6.5740
   1866.4500      50.1669       2.4197       0.1444       5.7951       6.5999
   1866.6000      51.8392       2.4291       0.1472       5.8741       6.6866
   1866.7500      51.1416       2.4288       0.1504       5.8850       6.7421
   1866.9000      51.8938       2.4318       0.1516       6.0528       6.7473
   1867.0500      49.9239       2.4371       0.1556       6.0664       6.7133
   1867.2000      50.3292       2.4370       0.1548       6.1560       6.6559
   1867.3500      50.1691       2.4374       0.1539       5.8104       6.6445
   1867.5000      52.0817       2.4535       0.1505       5.9915       6.5921
   1867.6500      53.9972       2.4449       0.1421       6.0200       6.6142
   1867.8000      54.9468       2.4372       0.1397       5.8841       6.5515
   1867.9500      55.7876       2.4355       0.1387       5.6549       6.5161
   1868.1000      54.6517       2.4301       0.1373       5.2659       6.5021
   1868.2500      55.1226       2.4291       0.1328       5.1298       6.5057
   1868.4000      55.5147       2.4310       0.1369       5.2380       6.4980
   1868.5500      54.7783       2.4401       0.1396       5.5318       6.4309
   1868.7000      57.2675       2.4167       0.1481       5.5642       6.5423
   1868.8500      57.7833       2.4193       0.1459       5.6842       6.5389
   1869.0000      55.3359       2.4086       0.1488       5.6225       6.5841
   1869.1500      53.3921       2.4244       0.1520       6.0388       6.6013
   1869.3000      52.0778       2.4123       0.1483       6.7593       6.5955
   1869.4500      52.1125       2.4227       0.1515       6.6462       6.5382
   1869.6000      50.3498       2.4102       0.1479       6.5252       6.5821
   1869.7500      51.4438       2.4168       0.1488       6.1158       6.5319
   1869.9000      48.8715       2.4233       0.1506       5.6044       6.6104
   1870.0500      48.4091       2.4278       0.1484       5.6413       6.6747
   1870.2000      46.3071       2.4454       0.1497       5.7042       6.6468
   1870.3500      48.1887       2.4443       0.1404       6.6384       6.6928
   1870.5000      48.2930       2.4396       0.1447       6.7802       6.6820
   1870.6500      46.8265       2.4451       0.1444       6.6883       6.6681
