~VERSION -------------------------------------------
 VERS.                 2.0 : CWLS LOG ASCII STANDARD - VERSION 2.0
 WRAP.                  NO : ONE LINE PER DEPTH STEP
~WELL -----------------------------------------------
 WELL.                PEMBINA-A3 : Well name
 UWI .                CA-PEM-003        : Unique Well ID
 LAT .                53.0341        : Latitude
 LON .                -114.9876        : Longitude
 STRT.M               1500.00 : START DEPTH
 STOP.M               2199.90 : STOP DEPTH
 STEP.M               0.1500 : STEP
 NULL.                -9999 : NULL VALUE
~CURVE -----------------------------------------------
 DEPTH .M               : Depth
 GR    .GAPI            : Gamma Ray
 RHOB  .G/C3            : Bulk Density
 NPHI  .V/V             : Neutron Porosity
 RT    .OHMM            : Resistivity
 CALI  .IN              : Caliper
~A  DEPTH              GR        RHOB        NPHI          RT        CALI
# ...
   1685.4000      62.9453       2.4211       0.1277       6.0512       6.5734
   1685.5500      60.8914       2.4197       0.1201       6.0638       6.6584
   1685.7000      59.1560       2.4127       0.1139       6.0678       6.6736
   1685.8500      57.1719       2.3946       0.1159       5.8248       6.7311
   1686.0000      57.7251       2.3949       0.1158       5.5399       6.7167
   1686.1500      58.8381       2.4058       0.1131       5.7548       6.7003
   1686.3000      59.2452       2.3922       0.1021       5.7757       6.7116
   1686.4500      60.2983       2.3809       0.1048       5.7284       6.6768
   1686.6000      62.6368       2.3795       0.1012       5.8306       6.6800
   1686.7500      64.9091       2.3828       0.1067       5.5358       6.6114
   1686.9000      62.9942       2.3895       0.1094       4.9928       6.5492
   1687.0500      63.3348       2.3840       0.1133       5.1355       6.5183
   1687.2000      62.2364       2.3873       0.1167       5.0854       6.4947
   1687.3500      64.0588       2.4013       0.1118       5.1817       6.4637
   1687.5000      64.0120       2.4059       0.1178       5.0948       6.4588
   1687.6500      64.0137       2.4171       0.1131       5.2294       6.4307
   1687.8000      64.5592       2.4122       0.1165       5.2772       6.3522
   1687.9500      64.0633       2.4042       0.1219       5.0864       6.4461
   1688.1000      63.3583       2.4038       0.1230       5.1727       6.3999
   1688.2500      63.0745       2.4088       0.1246       4.9554       6.3915
   1688.4000      61.6576       2.4157       0.1266       4.8807       6.4300
   1688.5500      61.5455       2.4298       0.1320       5.2963       6.3834
   1688.7000      59.4890       2.4239       0.1347       5.3260       6.3522
   1688.8500      60.1818       2.4272       0.1308       5.6964       6.4004
   1689.0000      60.2846       2.4249       0.1353       5.5061       6.4500
   1689.1500      62.2112       2.4251       0.1474       5.1031       6.5005
   1689.3000      61.4767       2.4475       0.1562       5.2542       6.5339
   1689.4500      60.0784       2.4565       0.1522       5.2161       6.4970
   1689.6000      57.6015       2.4628       0.1514       5.1248       6.5209
   1689.7500      58.7212       2.4634       0.1524       5.2354       6.5553
   1689.9000      57.6202       2.4741       0.1444       5.7141       6.5692
   1690.0500      59.4785       2.4585       0.1424       5.7682       6.5626
   1690.2000      59.2963       2.4585       0.1384       5.8373       6.5776
   1690.3500      59.4529       2.4487       0.1385       5.9321       6.5586
   1690.5000      57.9345       2.4322       0.1370       5.7465       6.5192
   1690.6500      56.1701       2.4301       0.1373       5.7965       6.5423
   1690.8000      56.6687       2.4258       0.1343       5.8061       6.5992
   1690.9500      58.3947       2.4324       0.1272       6.0345       6.5940
   1691.1000      58.5822       2.4313       0.1301       5.8840       6.5881
   1691.2500      58.7314       2.4269       0.1324       5.9693       6.5740
   1691.4000      59.0807       2.4221       0.1327       6.0114       6.5288
   1691.5500      59.0250       2.4120       0.1297       5.8569       6.5974
   1691.7000      60.0709       2.4335       0.1280       5.7189       6.5800
   1691.8500      58.4136       2.4392       0.1315       5.8938       6.5881
   1692.0000      56.2814       2.4356       0.1361       6.1509       6.5905
   1692.1500      53.2864       2.4383       0.1333       6.3048       6.5366
   1692.3000      52.1046       2.4287       0.1253       6.6212       6.5265
   1692.4500      51.9299       2.4197       0.1259       6.4351       6.5456
   1692.6000      52.2830       2.4112       0.1340       6.5131       6.5146
   1692.7500      49.6145       2.4192       0.1313       6.9698       6.5158
   1692.9000      49.7955       2.4187       0.1313       6.3893       6.5208
   1693.0500      48.6234       2.4389       0.1287       6.3025       6.4894
   1693.2000      49.6961       2.4340       0.1306       5.9897       6.4998
   1693.3500      50.3818       2.4355       0.1296       5.9466       6.5271
   1693.5000      50.5577       2.4607       0.1252       6.4473       6.5086
   1693.6500      49.0754       2.4594       0.1290       6.0865       6.4885
   1693.8000      46.8167       2.4597       0.1323       6.1804       6.4547
   1693.9500      45.4820       2.4770       0.1304       5.9256       6.3838
   1694.1000      45.9522       2.4684       0.1314       5.8015       6.3801
   1694.2500      45.3342       2.4590       0.1318       5.4920       6.3662
   1694.4000      44.9128       2.4588       0.1353       5.7897       6.3704
   1694.5500      43.9975       2.4604       0.1376       5.6433       6.3574
   1694.7000      45.0428       2.4494       0.1380       5.4125       6.3792
   1694.8500      47.2389       2.4534       0.1357       4.9702       6.3037
   1695.0000      48.0884       2.4516       0.1317       4.9744       6.3256
   1695.1500      48.6025       2.4479       0.1312       4.8057       6.3884
   1695.3000      50.0401       2.4444       0.1395       4.4980       6.3419
   1695.4500      50.0485       2.4556       0.1477       4.7081       6.4046
   1695.6000      49.8521       2.4546       0.1484       4.7535       6.3779
   1695.7500      51.3679       2.4521       0.1483       4.9221       6.3972
   1695.9000      53.5376       2.4362       0.1509       5.0256       6.4123
   1696.0500      51.9806       2.4236       0.1519       4.9003       6.4275
   1696.2000      51.0304       2.4311       0.1566       5.0746       6.4018
   1696.3500      49.8215       2.4259       0.1565       5.2200       6.4329
   1696.5000      48.4203       2.4079       0.1692       4.9924       6.4160
   1696.6500      49.1170       2.3973       0.1649       5.2074       6.4401
   1696.8000      49.5515       2.4143       0.1635       5.4882       6.5150
   1696.9500      49.7653       2.4020       0.1661       5.4030       6.4739
   1697.1000      48.5306       2.4122       0.1614       5.7617       6.5652
   1697.2500      49.1546       2.4253       0.1594       6.2431       6.5707
   1697.4000      47.8196       2.4246       0.1566       6.0938       6.5212
   1697.5500      49.1668       2.4218       0.1545       5.9838       6.5470
   1697.7000      50.9102       2.4183       0.1555       6.3125       6.6150
   1697.8500      49.9633       2.4063       0.1544       6.6304       6.5996
   1698.0000      51.6595       2.3958       0.1506       6.8813       6.6388
   1698.1500      51.1597       2.4108       0.1475       7.4453       6.5970
   1698.3000      51.0158       2.4148       0.1498       7.6070       6.5894
   1698.4500      50.8663       2.4110       0.1418       7.6300       6.6417
   1698.6000      51.2925       2.4023       0.1381       7.9453       6.6300
   1698.7500      49.6373       2.4032       0.1369       7.2577       6.5742
   1698.9000      46.9792       2.4100       0.1354       7.5084       6.5925
   1699.0500      48.6816       2.4125       0.1397       7.4863       6.5864
   1699.2000      47.5259       2.4048       0.1344       8.2952       6.5162
   1699.3500      46.9929       2.4102       0.1336       8.2694       6.5343
   1699.5000      48.2100       2.4141       0.1280       8.3463       6.4958
   1699.6500      49.5626       2.4315       0.1303       8.8136       6.5165
   1699.8000      51.0077       2.4361       0.1323       8.3681       6.5003
   1699.9500      50.2594       2.4316       0.1299       9.4691       6.4946
   1700.1000      51.9462       2.4262       0.1362       9.5881       6.4768
   1700.2500      54.1513       2.4179       0.1363       9.2261       6.4847
   1700.4000      56.1941       2.4156       0.1326       9.0151       6.5631
   1700.5500      53.2805       2.4030       0.1356       9.1884       6.4949
   1700.7000      51.5392       2.4106       0.1409       9.1157       6.5904
