~VERSION -------------------------------------------
 VERS.                 2.0 : CWLS LOG ASCII STANDARD - VERSION 2.0
 WRAP.                  NO : ONE LINE PER DEPTH STEP
~WELL -----------------------------------------------
 WELL.                PEMBINA-A3 : Well name
 UWI .                CA-PEM-003        : Unique Well ID
 LAT .                53.0341        : Latitude
 LON .                -114.9876        : Longitude
 STRT.M               1500.00 : START DEPTH
 STOP.M               2199.90 : STOP DEPTH
 STEP.M               0.1500 : STEP
 NULL.                -9999 : NULL VALUE
~CURVE -----------------------------------------------
 DEPTH .M               : Depth
 GR    .GAPI            : Gamma Ray
 RHOB  .G/C3            : Bulk Density
 NPHI  .V/V             : Neutron Porosity
 RT    .OHMM            : Resistivity
 CALI  .IN              : Caliper
~A  DEPTH              GR        RHOB        NPHI          RT        CALI
# ...
   1824.4500      55.9516       2.3720       0.1390       8.3123       6.5544
   1824.6000      55.0287       2.3723       0.1334       8.5543       6.5002
   1824.7500      53.8864       2.3623       0.1283       8.1479       6.4924
   1824.9000      55.5087       2.3626       0.1287       7.5861       6.4843
   1825.0500      55.7432       2.3576       0.1301       7.2285       6.4551
   1825.2000      59.4912       2.3375       0.1259       7.7769       6.5184
   1825.3500      59.2355       2.3443       0.1273       7.5500       6.5651
   1825.5000      58.6401       2.3492       0.1342       7.1777       6.5583
   1825.6500      60.3783       2.3441       0.1341       7.4073       6.5400
   1825.8000      60.2762       2.3418       0.1317       6.8626       6.5224
   1825.9500      62.4877       2.3485       0.1378       6.6414       6.4881
   1826.1000      61.5221       2.3666       0.1390       6.1964       6.4681
   1826.2500      63.6322       2.3708       0.1431       6.0158       6.3945
   1826.4000      62.1640       2.3854       0.1435       6.3193       6.3866
   1826.5500      62.6608       2.3885       0.1485       5.9374       6.4321
   1826.7000      64.6417       2.3847       0.1475       5.9202       6.3555
   1826.8500      64.9506       2.3898       0.1490       6.2896       6.3045
   1827.0000      65.6913       2.3833       0.1545       5.9859       6.3471
   1827.1500      63.9726       2.3929       0.1575       6.5147       6.3981
   1827.3000      63.6207       2.4073       0.1577       6.9151       6.3650
   1827.4500      63.2713       2.4010       0.1554       6.5974       6.3442
   1827.6000      62.6251       2.4150       0.1605       6.5997       6.3599
   1827.7500      62.1150       2.4237       0.1579       6.2364       6.3927
   1827.9000      61.1937       2.4260       0.1601       6.2645       6.4118
   1828.0500      60.5427       2.4404       0.1541       6.0909       6.3552
   1828.2000      57.5591       2.4538       0.1530       6.3364       6.4086
   1828.3500      56.3582       2.4450       0.1559       6.5821       6.4651
   1828.5000      54.0983       2.4471       0.1505       6.3373       6.4616
   1828.6500      56.1114       2.4558       0.1497       6.1130       6.4697
   1828.8000      54.4911       2.4467       0.1434       5.9006       6.5293
   1828.9500      54.9989       2.4574       0.1366       6.0618       6.6119
   1829.1000      56.0724       2.4606       0.1328       6.3552       6.6454
   1829.2500      56.0272       2.4635       0.1331       6.2683       6.6808
   1829.4000      57.6431       2.4583       0.1304       6.0906       6.6593
   1829.5500      58.9567       2.4514       0.1264       6.2836       6.7062
   1829.7000      58.4338       2.4522       0.1256       6.8013       6.7198
   1829.8500      57.6990       2.4535       0.1294       6.4438       6.7166
   1830.0000      56.9941       2.4662       0.1334       6.6882       6.7026
   1830.1500      57.9156       2.4643       0.1245       6.5214       6.6955
   1830.3000      56.8396       2.4665       0.1299       6.5166       6.6692
   1830.4500      55.2736       2.4645       0.1394       6.6610       6.6391
   1830.6000      54.9627       2.4546       0.1416       6.4507       6.6167
   1830.7500      52.4105       2.4475       0.1394       7.1399       6.5800
   1830.9000      52.1024       2.4380       0.1375       7.6249       6.5898
   1831.0500      51.7550       2.4444       0.1442       7.9382       6.5824
   1831.2000      51.1229       2.4366       0.1426       7.5128       6.5431
   1831.3500      51.1457       2.4473       0.1453       7.5206       6.5059
   1831.5000      53.2693       2.4510       0.1486       8.2947       6.4807
   1831.6500      52.8820       2.4425       0.1494       8.1759       6.4287
   1831.8000      55.3214       2.4536       0.1605       8.2045       6.4045
   1831.9500      53.8804       2.4411       0.1640       8.5176       6.4049
   1832.1000      54.1146       2.4404       0.1596       8.3032       6.3758
   1832.2500      53.1660       2.4333       0.1551       8.7945       6.3954
   1832.4000      53.9995       2.4146       0.1580       8.8556       6.4499
   1832.5500      53.4927       2.4147       0.1572       8.7220       6.4247
   1832.7000      53.7283       2.4132       0.1596       8.2704       6.4240
   1832.8500      56.2226       2.4264       0.1559       8.5951       6.4935
   1833.0000      56.4757       2.4310       0.1534       7.9441       6.5124
   1833.1500      55.8829       2.4135       0.1574       8.1932       6.6156
   1833.3000      56.5004       2.3959       0.1508       7.7423       6.6461
   1833.4500      58.0382       2.3889       0.1523       7.6973       6.6313
   1833.6000      58.1127       2.3926       0.1464       7.7221       6.5875
   1833.7500      60.9608       2.3864       0.1528       7.5089       6.6282
   1833.9000      59.2973       2.3922       0.1601       7.0525       6.6332
   1834.0500      58.5642       2.3734       0.1591       6.6416       6.6273
   1834.2000      58.4577       2.3779       0.1610       6.5393       6.6713
   1834.3500      57.9026       2.3653       0.1579       6.5460       6.5708
   1834.5000      57.5544       2.3740       0.1470       6.2859       6.6107
   1834.6500      55.4393       2.3887       0.1443       6.4084       6.5522
   1834.8000      56.1238       2.4009       0.1403       6.9562       6.4830
   1834.9500      56.2847       2.4049       0.1411       6.7097       6.4848
   1835.1000      55.4432       2.4086       0.1454       6.9858       6.5339
   1835.2500      53.1381       2.4144       0.1508       6.4588       6.4565
   1835.4000      50.5163       2.4239       0.1502       7.0393       6.4236
   1835.5500      49.6020       2.4275       0.1510       7.2779       6.4240
   1835.7000      48.6169       2.4400       0.1459       7.4086       6.3582
   1835.8500      50.2335       2.4350       0.1401       7.0727       6.4516
   1836.0000      48.3610       2.4257       0.1414       6.9100       6.4232
   1836.1500      49.3558       2.4433       0.1431       6.5568       6.3786
   1836.3000      48.7078       2.4477       0.1449       6.9611       6.4111
   1836.4500      48.2464       2.4541       0.1396       6.6000       6.4219
   1836.6000      46.3535       2.4431       0.1380       6.9401       6.4156
   1836.7500      45.7084       2.4522       0.1385       6.8144       6.4771
   1836.9000      47.9006       2.4507       0.1265       7.0610       6.4688
   1837.0500      49.2760       2.4513       0.1247       7.5476       6.4713
   1837.2000      50.7741       2.4447       0.1239       7.6380       6.5030
   1837.3500      52.9665       2.4574       0.1300       7.3851       6.4735
   1837.5000      50.8859       2.4478       0.1412       7.0321       6.5061
   1837.6500      51.6284       2.4368       0.1461       7.7502       6.5513
   1837.8000      52.5387       2.4297       0.1434       7.6000       6.5674
   1837.9500      53.2080       2.4355       0.1456       7.0999       6.5674
   1838.1000      52.4830       2.4235       0.1448       6.6352       6.5657
   1838.2500      54.4945       2.4240       0.1378       7.0075       6.5542
   1838.4000      53.9841       2.4262       0.1291       6.5836       6.5589
   1838.5500      53.8721       2.4202       0.1318       6.0830       6.5936
   1838.7000      56.7702       2.4113       0.1284       6.2981       6.5912
   1838.8500      55.0278       2.3982       0.1367       5.8460       6.5273
   1839.0000      55.1755       2.3954       0.1327       6.1286       6.5415
   1839.1500      54.2776       2.4046       0.1289       6.3358       6.5173
   1839.3000      54.4214       2.4034       0.1295       5.9693       6.5424
   1839.4500      54.4047       2.4036       0.1323       6.3920       6.4983
   1839.6000      56.8826       2.4142       0.1402       6.1788       6.5548
   1839.7500      56.0778       2.4027       0.1327       6.3658       6.4904
