~VERSION -------------------------------------------
 VERS.                 2.0 : CWLS LOG ASCII STANDARD - VERSION 2.0
 WRAP.                  NO : ONE LINE PER DEPTH STEP
~WELL -----------------------------------------------
 WELL.                PEMBINA-A3 : Well name
 UWI .                CA-PEM-003        : Unique Well ID
 LAT .                53.0341        : Latitude
 LON .                -114.9876        : Longitude
 STRT.M               1500.00 : START DEPTH
 STOP.M               2199.90 : STOP DEPTH
 STEP.M               0.1500 : STEP
 NULL.                -9999 : NULL VALUE
~CURVE -----------------------------------------------
 DEPTH .M               : Depth
 GR    .GAPI            : Gamma Ray
 RHOB  .G/C3            : Bulk Density
 NPHI  .V/V             : Neutron Porosity
 RT    .OHMM            : Resistivity
 CALI  .IN              : Caliper
~A  DEPTH              GR        RHOB        NPHI          RT        CALI
# ...
   1994.4000      56.7754       2.3970       0.1503       6.0040       6.3545
   1994.5500      56.8926       2.4037       0.1405       6.1057       6.3217
   1994.7000      58.3501       2.4076       0.1401       5.8232       6.2787
   1994.8500      58.9180       2.4040       0.1330       5.5787       6.3099
   1995.0000      60.0148       2.4190       0.1336       6.0588       6.3761
   1995.1500      60.5870       2.4290       0.1307       6.0772       6.4049
   1995.3000      60.0875       2.4354       0.1293       5.9598       6.4575
   1995.4500      59.6682       2.4466       0.1258       5.7615       6.4732
   1995.6000      59.4037       2.4449       0.1267       6.0307       6.4841
   1995.7500      56.2345       2.4515       0.1365       6.1451       6.5338
   1995.9000      55.1608       2.4641       0.1310       5.8839       6.5276
   1996.0500      52.7678       2.4675       0.1306       6.2017       6.6175
   1996.2000      53.7827       2.4736       0.1305       6.0711       6.6316
   1996.3500      53.7558       2.4568       0.1338       6.1897       6.6008
   1996.5000      52.6604       2.4414       0.1373       5.9336       6.5905
   1996.6500      53.7905       2.4501       0.1381       6.2755       6.5992
   1996.8000      54.0617       2.4377       0.1445       5.7230       6.6268
   1996.9500      54.6037       2.4394       0.1448       6.3086       6.6347
   1997.1000      53.0996       2.4320       0.1509       6.1468       6.6109
   1997.2500      55.1511       2.4524       0.1554       6.5969       6.5481
   1997.4000      53.9205       2.4574       0.1626       6.3570       6.5831
   1997.5500      55.2948       2.4568       0.1644       6.4881       6.5319
   1997.7000      55.9910       2.4382       0.1585       6.5477       6.5501
   1997.8500      57.1687       2.4317       0.1596       6.2712       6.5568
   1998.0000      57.6465       2.4136       0.1621       6.1833       6.5751
   1998.1500      58.4564       2.4046       0.1627       5.9816       6.5579
   1998.3000      55.3846       2.4100       0.1626       6.0159       6.5057
   1998.4500      54.1851       2.4122       0.1659       6.0143       6.4736
   1998.6000      52.7927       2.4113       0.1641       5.9333       6.5788
   1998.7500      57.1645       2.4058       0.1623       5.2752       6.6009
   1998.9000      56.1679       2.3907       0.1604       5.3191       6.5706
   1999.0500      56.7664       2.3741       0.1655       4.9527       6.6672
   1999.2000      54.0261       2.3695       0.1593       5.1644       6.6902
   1999.3500      53.3479       2.3771       0.1563       5.0410       6.6902
   1999.5000      54.1598       2.3772       0.1534       5.2394       6.6710
   1999.6500      54.6347       2.3728       0.1503       5.1621       6.6632
   1999.8000      54.8550       2.3758       0.1435       5.3956       6.7100
   1999.9500      56.0203       2.3714       0.1410       5.0656       6.7196
   2000.1000      56.3240       2.3741       0.1307       5.1502       6.6340
   2000.2500      55.9885       2.3615       0.1253       5.0071       6.6302
   2000.4000      55.8659       2.3656       0.1230       5.1953       6.6040
   2000.5500      55.4195       2.3613       0.1250       4.8553       6.5206
   2000.7000      55.0373       2.3670       0.1307       5.1035       6.5203
   2000.8500      52.3242       2.3521       0.1272       5.3416       6.5290
   2001.0000      51.2557       2.3561       0.1273       5.2522       6.5568
   2001.1500      50.8580       2.3533       0.1270       5.1039       6.5312
   2001.3000      52.6770       2.3358       0.1276       5.1797       6.5228
   2001.4500      54.0643       2.3274       0.1290       5.4933       6.4893
   2001.6000      53.0140       2.3270       0.1274       5.2366       6.5146
   2001.7500      50.2568       2.3304       0.1272       5.6140       6.4910
   2001.9000      52.2237       2.3434       0.1359       5.7162       6.5023
   2002.0500      52.2770       2.3516       0.1366       6.2185       6.5288
   2002.2000      52.8954       2.3603       0.1376       6.0051       6.4708
   2002.3500      55.1332       2.3639       0.1364       5.3656       6.4639
   2002.5000      56.2900       2.3719       0.1349       5.3029       6.4589
   2002.6500      56.5898       2.3713       0.1357       5.0851       6.5309
   2002.8000      57.0047       2.3702       0.1377       5.0661       6.4421
   2002.9500      55.9372       2.3613       0.1325       4.8777       6.5123
   2003.1000      56.3739       2.3547       0.1347       4.9711       6.5405
   2003.2500      55.0299       2.3657       0.1399       4.7089       6.6269
   2003.4000      55.0128       2.3691       0.1423       4.8077       6.5881
   2003.5500      53.6060       2.3603       0.1453       4.9562       6.5271
   2003.7000      54.3696       2.3716       0.1404       4.5187       6.5546
   2003.8500      54.9600       2.3965       0.1479       4.4056       6.5711
   2004.0000      55.8689       2.3888       0.1496       4.3233       6.5694
   2004.1500      55.5084       2.3914       0.1557       4.6782       6.5236
   2004.3000      57.5983       2.4063       0.1587       4.5599       6.5682
   2004.4500      57.2959       2.3983       0.1589       4.7160       6.5137
   2004.6000      59.8514       2.3941       0.1617       4.8474       6.4322
   2004.7500      58.1585       2.4008       0.1670       4.8976       6.4080
   2004.9000      55.8437       2.3977       0.1552       4.7783       6.4427
   2005.0500      59.1984       2.3967       0.1541       5.0357       6.4889
   2005.2000      61.7955       2.3827       0.1525       4.8584       6.4695
   2005.3500      60.3839       2.3868       0.1537       4.7524       6.4720
   2005.5000      58.6336       2.3794       0.1558       4.7537       6.4120
   2005.6500      57.3819       2.3748       0.1559       4.8643       6.4221
   2005.8000      56.6645       2.3698       0.1520       5.0447       6.3912
   2005.9500      55.9288       2.3766       0.1535       5.2730       6.4242
   2006.1000      56.2360       2.3813       0.1540       5.0899       6.5088
   2006.2500      58.9349       2.3679       0.1488       5.2107       6.5077
   2006.4000      58.3570       2.3726       0.1464       5.1056       6.5068
   2006.5500      59.9647       2.3773       0.1417       5.2480       6.4872
   2006.7000      60.2944       2.3705       0.1444       5.5964       6.4870
   2006.8500      60.0774       2.3593       0.1423       5.5675       6.5001
   2007.0000      57.2986       2.3622       0.1426       6.1660       6.5462
   2007.1500      57.8642       2.3648       0.1390       6.1645       6.5099
   2007.3000      55.4884       2.3632       0.1354       5.9980       6.5758
   2007.4500      53.9631       2.3672       0.1359       5.7641       6.5411
   2007.6000      53.9028       2.3810       0.1348       5.6637       6.4671
   2007.7500      55.9942       2.3763       0.1272       5.3589       6.4681
   2007.9000      58.3174       2.3784       0.1335       4.9776       6.4532
   2008.0500      56.6171       2.3937       0.1387       4.5340       6.5264
   2008.2000      53.4016       2.4052       0.1410       4.6772       6.5366
   2008.3500      54.7651       2.3970       0.1380       5.3743       6.5225
   2008.5000      54.3369       2.4070       0.1378       5.5224       6.4638
   2008.6500      54.4320       2.4137       0.1434       5.8194       6.4953
   2008.8000      55.7773       2.4127       0.1475       5.9277       6.4587
   2008.9500      58.7603       2.4017       0.1515       6.1193       6.5147
   2009.1000      60.3501       2.4085       0.1539       6.3381       6.5021
   2009.2500      59.0238       2.4208       0.1498       6.7427       6.5260
   2009.4000      57.9496       2.4208       0.1516       6.3628       6.5478
   2009.5500      54.7963       2.4216       0.1522       6.3351       6.4903
   2009.7000      53.9455       2.4317       0.1534       6.2319       6.4751
