~VERSION -------------------------------------------
 VERS.                 2.0 : CWLS LOG ASCII STANDARD - VERSION 2.0
 WRAP.                  NO : ONE LINE PER DEPTH STEP
~WELL -----------------------------------------------
 WELL.                PEMBINA-A3 : Well name
 UWI .                CA-PEM-003        : Unique Well ID
 LAT .                53.0341        : Latitude
 LON .                -114.9876        : Longitude
 STRT.M               1500.00 : START DEPTH
 STOP.M               2199.90 : STOP DEPTH
 STEP.M               0.1500 : STEP
 NULL.                -9999 : NULL VALUE
~CURVE -----------------------------------------------
 DEPTH .M               : Depth
 GR    .GAPI            : Gamma Ray
 RHOB  .G/C3            : Bulk Density
 NPHI  .V/V             : Neutron Porosity
 RT    .OHMM            : Resistivity
 CALI  .IN              : Caliper
~A  DEPTH              GR        RHOB        NPHI          RT        CALI
# ...
   2087.1000      54.6208       2.4196       0.1281       7.5691       6.4439
   2087.2500      56.5530       2.4138       0.1289       7.4650       6.4693
   2087.4000      55.5507       2.4132       0.1294       7.0417       6.4415
   2087.5500      55.3062       2.4069       0.1314       7.1013       6.4029
   2087.7000      55.0812       2.3855       0.1321       7.5184       6.4638
   2087.8500      56.9480       2.3904       0.1334       7.1418       6.4966
   2088.0000      55.4189       2.3947       0.1285       7.1234       6.4972
   2088.1500      56.5808       2.3966       0.1277       7.1475       6.4530
   2088.3000      58.8987       2.3825       0.1218       7.1765       6.5029
   2088.4500      56.4501       2.3776       0.1238       7.0902       6.5319
   2088.6000      57.9716       2.3770       0.1227       7.1904       6.5288
   2088.7500      55.6727       2.3902       0.1317       6.8793       6.5774
   2088.9000      59.6422       2.3839       0.1326       6.5023       6.5585
   2089.0500      61.1658       2.3930       0.1339       6.5920       6.5642
   2089.2000      60.5139       2.3994       0.1345       6.9939       6.5191
   2089.3500      56.2126       2.4035       0.1349       6.6552       6.4689
   2089.5000      55.6674       2.4215       0.1298       6.5257       6.4331
   2089.6500      55.6882       2.4264       0.1285       6.5506       6.4299
   2089.8000      55.6999       2.4196       0.1323       6.6409       6.4211
   2089.9500      55.6920       2.4096       0.1280       6.6861       6.3649
   2090.1000      57.0349       2.4216       0.1287       6.6253       6.3503
   2090.2500      54.5809       2.4335       0.1251       6.6030       6.3136
   2090.4000      53.0631       2.4365       0.1237       6.6243       6.3373
   2090.5500      52.9869       2.4294       0.1234       6.5034       6.2952
   2090.7000      51.8841       2.4419       0.1278       6.7944       6.3533
   2090.8500      51.1856       2.4352       0.1290       6.7721       6.3977
   2091.0000      50.7965       2.4414       0.1308       6.9884       6.4703
   2091.1500      50.6491       2.4425       0.1351       7.1377       6.4648
   2091.3000      48.7449       2.4389       0.1426       7.0134       6.4589
   2091.4500      48.5955       2.4570       0.1518       6.9275       6.4870
   2091.6000      48.6795       2.4552       0.1562       7.2710       6.4646
   2091.7500      50.2542       2.4403       0.1459       7.6410       6.4336
   2091.9000      48.7661       2.4353       0.1517       7.7558       6.4479
   2092.0500      48.2971       2.4168       0.1440       7.4932       6.5230
   2092.2000      48.7561       2.4112       0.1469       7.5237       6.5329
   2092.3500      50.4659       2.4178       0.1436       7.0076       6.5031
   2092.5000      50.9564       2.4197       0.1486       7.2907       6.4484
   2092.6500      49.4540       2.4154       0.1592       6.8956       6.4622
   2092.8000      49.9125       2.4173       0.1500       6.4611       6.4862
   2092.9500      50.3502       2.4230       0.1568       6.6431       6.5567
   2093.1000      51.3306       2.4314       0.1549       6.0421       6.6242
   2093.2500      53.1591       2.4289       0.1579       6.3480       6.6903
   2093.4000      53.6359       2.4358       0.1575       6.9708       6.7252
   2093.5500      54.4625       2.4470       0.1588       6.9318       6.7023
   2093.7000      53.2522       2.4452       0.1511       6.9687       6.6721
   2093.8500      50.6134       2.4433       0.1545       6.8555       6.7054
   2094.0000      51.1165       2.4319       0.1517       6.5457       6.7413
   2094.1500      51.3130       2.4214       0.1475       6.5916       6.7703
   2094.3000      52.1950       2.4223       0.1479       6.6967       6.7229
   2094.4500      54.5936       2.4037       0.1395       6.7503       6.7162
   2094.6000      52.1894       2.4157       0.1348       6.6114       6.6659
   2094.7500      53.3541       2.4188       0.1342       6.2694       6.6669
   2094.9000      51.8129       2.4191       0.1310       6.0215       6.6234
   2095.0500      52.9086       2.4288       0.1364       6.1439       6.6051
   2095.2000      52.7083       2.4277       0.1319       5.7846       6.5467
   2095.3500      55.6365       2.4226       0.1320       5.9827       6.5084
   2095.5000      54.8818       2.4004       0.1306       6.0932       6.4555
   2095.6500      56.0986       2.4037       0.1216       6.0493       6.4018
   2095.8000      54.5399       2.4035       0.1265       6.3162       6.4353
   2095.9500      55.0384       2.3975       0.1238       6.1685       6.3478
   2096.1000      53.8682       2.3862       0.1217       6.7764       6.3997
   2096.2500      55.0110       2.3882       0.1182       6.5460       6.4419
   2096.4000      54.7152       2.3787       0.1229       6.0593       6.4301
   2096.5500      53.7434       2.3744       0.1261       6.2660       6.4823
   2096.7000      55.8730       2.3737       0.1309       5.8823       6.4904
   2096.8500      58.2656       2.3845       0.1302       6.3614       6.5089
   2097.0000      57.5404       2.3953       0.1299       6.5048       6.5570
   2097.1500      58.3808       2.3964       0.1362       6.2525       6.6769
   2097.3000      57.3321       2.4050       0.1345       6.0993       6.6505
   2097.4500      56.4729       2.4061       0.1376       6.3941       6.7099
   2097.6000      58.8381       2.3826       0.1367       6.0732       6.6674
   2097.7500      56.5095       2.3842       0.1388       5.7109       6.5807
   2097.9000      57.1756       2.3801       0.1415       5.8272       6.5910
   2098.0500      56.2023       2.3957       0.1443       5.8395       6.5492
   2098.2000      57.7221       2.4008       0.1456       6.3795       6.5721
   2098.3500      54.4664       2.4054       0.1521       6.4660       6.5682
   2098.5000      54.7670       2.4110       0.1485       5.8254       6.5306
   2098.6500      52.5984       2.4059       0.1467       6.1691       6.4264
   2098.8000      51.6614       2.4243       0.1410       6.3816       6.4952
   2098.9500      50.1126       2.4248       0.1433       6.2620       6.4779
   2099.1000      49.6679       2.4284       0.1408       6.2307       6.5100
   2099.2500      47.6457       2.4352       0.1419       5.7793       6.5189
   2099.4000      51.5674       2.4345       0.1434       5.6481       6.5461
   2099.5500      52.4922       2.4349       0.1415       5.3732       6.5465
   2099.7000      52.9786       2.4322       0.1360       5.8290       6.5155
   2099.8500      51.9295       2.4247       0.1402       5.5380       6.5065
   2100.0000      51.5296       2.4284       0.1436       5.5479       6.5033
   2100.1500      52.7425       2.4303       0.1384       5.7336       6.5063
   2100.3000      51.6886       2.4345       0.1361       5.6056       6.4693
   2100.4500      49.4666       2.4433       0.1318       5.1335       6.5273
   2100.6000      49.1228       2.4605       0.1346       5.3391       6.4584
   2100.7500      49.5836       2.4623       0.1310       5.6025       6.4536
   2100.9000      50.8825       2.4682       0.1272       5.8919       6.4310
   2101.0500      52.6312       2.4609       0.1296       5.7247       6.4377
   2101.2000      52.0142       2.4454       0.1328       5.6195       6.4894
   2101.3500      52.5320       2.4324       0.1288       5.5449       6.5072
   2101.5000      53.6064       2.4388       0.1285       5.8706       6.5241
   2101.6500      58.8316       2.4454       0.1334       6.0151       6.5272
   2101.8000      62.1008       2.4323       0.1368       5.8183       6.5184
   2101.9500      63.5689       2.4424       0.1387       5.6702       6.4429
   2102.1000      66.1553       2.4384       0.1394       5.5610       6.4674
   2102.2500      67.7176       2.4346       0.1375       6.1183       6.4726
   2102.4000      65.2304       2.4389       0.1335       6.4825       6.4543
