~VERSION -------------------------------------------
 VERS.                 2.0 : CWLS LOG ASCII STANDARD - VERSION 2.0
 WRAP.                  NO : ONE LINE PER DEPTH STEP
~WELL -----------------------------------------------
 WELL.                PEMBINA-A3 : Well name
 UWI .                CA-PEM-003        : Unique Well ID
 LAT .                53.0341        : Latitude
 LON .                -114.9876        : Longitude
 STRT.M               1500.00 : START DEPTH
 STOP.M               2199.90 : STOP DEPTH
 STEP.M               0.1500 : STEP
 NULL.                -9999 : NULL VALUE
~CURVE -----------------------------------------------
 DEPTH .M               : Depth
 GR    .GAPI            : Gamma Ray
 RHOB  .G/C3            : Bulk Density
 NPHI  .V/V             : Neutron Porosity
 RT    .OHMM            : Resistivity
 CALI  .IN              : Caliper
~A  DEPTH              GR        RHOB        NPHI          RT        CALI
# ...
   1901.7000      51.1093       2.4379       0.1320       7.0162       6.6557
   1901.8500      49.9249       2.4423       0.1383       6.8865       6.6294
   1902.0000      51.1913       2.4398       0.1447       6.6351       6.6045
   1902.1500      53.1526       2.4444       0.1429       7.0091       6.5514
   1902.3000      54.0770       2.4391       0.1462       6.7257       6.5555
   1902.4500      54.2701       2.4510       0.1429       6.7571       6.5922
   1902.6000      54.7070       2.4390       0.1432       6.2560       6.6265
   1902.7500      55.4155       2.4229       0.1372       6.5970       6.5985
   1902.9000      55.0064       2.4107       0.1411       6.2127       6.5681
   1903.0500      54.0939       2.3989       0.1328       6.3536       6.4687
   1903.2000      54.2015       2.4011       0.1393       6.0858       6.4807
   1903.3500      52.5164       2.4109       0.1389       6.8100       6.4711
   1903.5000      55.6430       2.4233       0.1392       6.9300       6.4219
   1903.6500      53.3202       2.4263       0.1393       7.0944       6.4899
   1903.8000      54.3822       2.4243       0.1363       7.2652       6.4395
   1903.9500      56.6801       2.4257       0.1374       7.1081       6.4675
   1904.1000      58.6585       2.4142       0.1427       6.8983       6.4288
   1904.2500      58.9274       2.4008       0.1498       6.7702       6.4679
   1904.4000      58.1034       2.3810       0.1543       6.7395       6.4842
   1904.5500      57.6989       2.3747       0.1511       6.5902       6.5215
   1904.7000      57.9531       2.3757       0.1577       6.7781       6.5592
   1904.8500      59.3287       2.3568       0.1492       6.3095       6.6009
   1905.0000      58.4498       2.3442       0.1450       6.1215       6.6857
   1905.1500      56.7218       2.3320       0.1427       6.1480       6.6540
   1905.3000      55.1860       2.3506       0.1411       6.3240       6.6651
   1905.4500      53.1590       2.3532       0.1398       6.5373       6.5891
   1905.6000      51.0699       2.3594       0.1402       6.9194       6.5661
   1905.7500      54.8726       2.3776       0.1485       7.3229       6.5103
   1905.9000      55.9664       2.3818       0.1470       7.2026       6.4971
   1906.0500      57.0464       2.3954       0.1501       6.7696       6.4797
   1906.2000      57.0131       2.3875       0.1367       7.4517       6.4771
   1906.3500      59.3632       2.3843       0.1419       6.8863       6.4616
   1906.5000      57.1557       2.3819       0.1375       6.9007       6.4282
   1906.6500      59.6251       2.3582       0.1345       6.9134       6.4551
   1906.8000      58.9495       2.3551       0.1330       6.7135       6.4493
   1906.9500      56.8554       2.3577       0.1352       6.7965       6.4860
   1907.1000      54.1810       2.3578       0.1364       6.8675       6.5245
   1907.2500      54.0017       2.3635       0.1253       7.1129       6.5950
   1907.4000      53.7334       2.3675       0.1234       7.1083       6.5810
   1907.5500      53.0082       2.3798       0.1303       7.0291       6.5636
   1907.7000      50.5149       2.3668       0.1266       6.7854       6.5189
   1907.8500      51.7832       2.3807       0.1325       7.1410       6.5136
   1908.0000      54.8031       2.3963       0.1358       7.0893       6.4775
   1908.1500      53.1698       2.4066       0.1347       6.7206       6.3997
   1908.3000      54.3915       2.4011       0.1353       7.1942       6.3842
   1908.4500      55.4653       2.4001       0.1357       6.8973       6.4013
   1908.6000      57.2414       2.3955       0.1397       6.9790       6.4290
   1908.7500      53.1008       2.3859       0.1337       6.5302       6.3782
   1908.9000      51.5720       2.3976       0.1325       6.5820       6.3841
   1909.0500      51.5428       2.3923       0.1326       6.6640       6.4363
   1909.2000      50.5964       2.3954       0.1383       6.5742       6.4783
   1909.3500      49.0215       2.3832       0.1376       7.2878       6.4666
   1909.5000      49.6201       2.3897       0.1366       6.6062       6.5660
   1909.6500      47.1508       2.3941       0.1341       6.0469       6.5863
   1909.8000      47.2446       2.4139       0.1418       6.1104       6.6076
   1909.9500      49.0756       2.4050       0.1397       6.2382       6.5728
   1910.1000      49.5915       2.4098       0.1376       6.2641       6.5347
   1910.2500      51.0827       2.4101       0.1358       6.1271       6.5475
   1910.4000      51.4346       2.4229       0.1371       5.7816       6.5321
   1910.5500      54.0196       2.4130       0.1305       5.8717       6.4802
   1910.7000      54.9679       2.4329       0.1349       6.0678       6.4673
   1910.8500      53.5519       2.4321       0.1308       6.2308       6.5211
   1911.0000      51.4778       2.4252       0.1244       6.1611       6.4109
   1911.1500      52.7017       2.4288       0.1263       5.8278       6.4895
   1911.3000      51.2171       2.4372       0.1199       5.4634       6.4798
   1911.4500      51.1391       2.4380       0.1186       5.7773       6.5247
   1911.6000      50.4040       2.4444       0.1208       5.6213       6.4896
   1911.7500      51.3465       2.4396       0.1203       5.5869       6.4729
   1911.9000      49.7100       2.4272       0.1202       5.4752       6.4590
   1912.0500      50.0066       2.4153       0.1266       5.6163       6.5042
   1912.2000      49.9553       2.4127       0.1274       5.8544       6.4819
   1912.3500      50.2314       2.4208       0.1248       5.9319       6.4296
   1912.5000      49.6246       2.4159       0.1212       6.5734       6.5367
   1912.6500      52.5013       2.4313       0.1234       7.2862       6.5071
   1912.8000      51.5425       2.4038       0.1189       7.1490       6.5157
   1912.9500      48.5918       2.4115       0.1219       7.4069       6.5052
   1913.1000      48.4996       2.4217       0.1213       7.0845       6.5805
   1913.2500      46.6405       2.4034       0.1247       6.6761       6.5812
   1913.4000      47.1032       2.4028       0.1304       7.3510       6.6293
   1913.5500      46.0263       2.4231       0.1355       7.2185       6.5704
   1913.7000      45.8693       2.4172       0.1293       7.6198       6.5996
   1913.8500      46.0602       2.4170       0.1310       7.6043       6.6089
   1914.0000      45.5669       2.4169       0.1371       7.4544       6.5312
   1914.1500      46.4474       2.4159       0.1332       7.9097       6.5339
   1914.3000      46.7977       2.4180       0.1424       7.7888       6.5185
   1914.4500      46.8856       2.4053       0.1454       7.9995       6.5028
   1914.6000      46.2669       2.4118       0.1431       7.9179       6.4355
   1914.7500      47.5745       2.4231       0.1453       7.7354       6.4275
   1914.9000      50.7892       2.4418       0.1459       7.3656       6.3494
   1915.0500      49.0638       2.4581       0.1366       7.7033       6.3899
   1915.2000      50.3573       2.4635       0.1405       7.2329       6.3511
   1915.3500      51.5438       2.4641       0.1474       6.5630       6.4067
   1915.5000      55.1493       2.4607       0.1598       6.5762       6.4444
   1915.6500      54.9529       2.4597       0.1540       6.1565       6.4496
   1915.8000      55.5501       2.4693       0.1573       5.9906       6.4140
   1915.9500      57.6289       2.4701       0.1569       5.7553       6.4440
   1916.1000      57.2143       2.4659       0.1568       5.6408       6.4475
   1916.2500      58.8803       2.4732       0.1571       5.8774       6.4676
   1916.4000      57.9357       2.4716       0.1484       5.4818       6.5120
   1916.5500      58.0463       2.4477       0.1508       5.2142       6.4801
   1916.7000      57.4372       2.4398       0.1502       4.6953       6.4915
   1916.8500      58.2262       2.4421       0.1507       4.5791       6.4649
   1917.0000      60.1143       2.4450       0.1502       4.9732       6.4617
