~VERSION -------------------------------------------
 VERS.                 2.0 : CWLS LOG ASCII STANDARD - VERSION 2.0
 WRAP.                  NO : ONE LINE PER DEPTH STEP
~WELL -----------------------------------------------
 WELL.                PEMBINA-A3 : Well name
 UWI .                CA-PEM-003        : Unique Well ID
 LAT .                53.0341        : Latitude
 LON .                -114.9876        : Longitude
 STRT.M               1500.00 : START DEPTH
 STOP.M               2199.90 : STOP DEPTH
 STEP.M               0.1500 : STEP
 NULL.                -9999 : NULL VALUE
~CURVE -----------------------------------------------
 DEPTH .M               : Depth
 GR    .GAPI            : Gamma Ray
 RHOB  .G/C3            : Bulk Density
 NPHI  .V/V             : Neutron Porosity
 RT    .OHMM            : Resistivity
 CALI  .IN              : Caliper
~A  DEPTH              GR        RHOB        NPHI          RT        CALI
# ...
   1592.7000      53.1039       2.4566       0.1499       5.3902       6.5162
   1592.8500      53.8550       2.4818       0.1507       5.3580       6.5081
   1593.0000      54.1960       2.4698       0.1608       5.4884       6.4740
   1593.1500      53.6249       2.4609       0.1665       5.5143       6.4555
   1593.3000      53.3053       2.4601       0.1621       5.0639       6.4451
   1593.4500      53.6040       2.4458       0.1577       5.0507       6.3937
   1593.6000      51.9312       2.4460       0.1590       5.2460       6.4679
   1593.7500      52.0351       2.4428       0.1568       5.6939       6.4994
   1593.9000      53.1129       2.4298       0.1570       5.4774       6.4786
   1594.0500      55.4975       2.4424       0.1558       5.5029       6.5302
   1594.2000      53.5751       2.4490       0.1475       5.2878       6.4980
   1594.3500      53.7402       2.4560       0.1480       5.3022       6.4507
   1594.5000      51.3394       2.4481       0.1493       5.2189       6.5796
   1594.6500      49.8994       2.4376       0.1516       5.1764       6.5758
   1594.8000      49.1033       2.4397       0.1516       5.5738       6.6431
   1594.9500      49.6326       2.4394       0.1582       5.8811       6.6489
   1595.1000      49.7637       2.4381       0.1552       5.8722       6.6078
   1595.2500      47.6840       2.4340       0.1540       6.3868       6.5472
   1595.4000      47.8500       2.4462       0.1490       6.3201       6.5019
   1595.5500      48.7615       2.4332       0.1449       6.1878       6.5274
   1595.7000      50.2248       2.4466       0.1449       6.2786       6.5252
   1595.8500      47.6005       2.4364       0.1477       6.3139       6.5582
   1596.0000      50.4303       2.4459       0.1385       6.0171       6.4293
   1596.1500      50.4481       2.4518       0.1360       5.8274       6.4139
   1596.3000      49.1721       2.4501       0.1347       6.0855       6.3678
   1596.4500      50.7016       2.4560       0.1342       5.8787       6.3609
   1596.6000      51.5054       2.4645       0.1365       5.6062       6.3473
   1596.7500      51.8646       2.4654       0.1455       5.6234       6.3638
   1596.9000      51.1116       2.4874       0.1547       5.6416       6.3777
   1597.0500      50.3126       2.4807       0.1553       5.5810       6.3463
   1597.2000      48.6359       2.4660       0.1618       5.4360       6.2905
   1597.3500      50.7752       2.4517       0.1638       5.5383       6.3214
   1597.5000      53.2197       2.4636       0.1622       5.8454       6.3744
   1597.6500      53.2636       2.4542       0.1587       6.1588       6.4066
   1597.8000      54.8379       2.4488       0.1607       5.8787       6.4323
   1597.9500      55.1831       2.4471       0.1546       5.6943       6.4570
   1598.1000      54.8436       2.4423       0.1613       5.6192       6.4031
   1598.2500      58.0320       2.4501       0.1634       5.8815       6.4144
   1598.4000      58.5937       2.4445       0.1706       5.8953       6.4161
   1598.5500      57.3049       2.4426       0.1741       5.5286       6.4633
   1598.7000      54.1415       2.4431       0.1689       5.6081       6.5022
   1598.8500      54.1307       2.4352       0.1703       5.5557       6.5124
   1599.0000      52.4006       2.4302       0.1714       5.5990       6.5533
   1599.1500      53.7149       2.4371       0.1678       5.4569       6.5127
   1599.3000      56.4874       2.4253       0.1645       5.2178       6.4811
   1599.4500      53.9351       2.4285       0.1656       5.1979       6.4899
   1599.6000      53.2746       2.4350       0.1559       5.2515       6.6061
   1599.7500      51.0524       2.4145       0.1526       5.2045       6.6518
   1599.9000      54.0255       2.4016       0.1426       5.6907       6.6542
   1600.0500      53.2866       2.4073       0.1406       5.8218       6.5929
   1600.2000      54.6822       2.4106       0.1390       6.0813       6.5901
   1600.3500      51.0270       2.4154       0.1365       6.4958       6.5405
   1600.5000      49.2011       2.4026       0.1336       6.6210       6.4872
   1600.6500      49.4723       2.4169       0.1413       6.2392       6.4937
   1600.8000      49.9197       2.4194       0.1363       6.2169       6.4925
   1600.9500      48.8416       2.4242       0.1398       6.5757       6.4879
   1601.1000      47.6897       2.4298       0.1342       6.4331       6.4563
   1601.2500      45.4588       2.4171       0.1336       5.9017       6.3955
   1601.4000      45.3509       2.4093       0.1322       5.7721       6.3774
   1601.5500      44.8265       2.4036       0.1377       5.7999       6.3809
   1601.7000      45.6317       2.3952       0.1367       5.9663       6.3764
   1601.8500      48.1605       2.4056       0.1330       6.0767       6.4450
   1602.0000      46.8257       2.4117       0.1284       6.3134       6.4799
   1602.1500      47.0506       2.4051       0.1333       6.2625       6.5347
   1602.3000      45.9587       2.4144       0.1347       6.0735       6.5625
   1602.4500      45.2249       2.4171       0.1359       6.3859       6.5159
   1602.6000      46.6641       2.4061       0.1447       6.0550       6.4557
   1602.7500      47.5301       2.4267       0.1391       5.7685       6.4336
   1602.9000      47.1988       2.4205       0.1411       5.1735       6.5307
   1603.0500      47.4107       2.4053       0.1462       5.0823       6.5707
   1603.2000      47.3570       2.4076       0.1493       5.0065       6.6010
   1603.3500      50.6070       2.4116       0.1454       4.6521       6.5397
   1603.5000      52.5654       2.4086       0.1484       4.7796       6.5007
   1603.6500      52.3069       2.4107       0.1425       4.8657       6.4360
   1603.8000      51.7705       2.4180       0.1451       5.0140       6.4266
   1603.9500      53.3442       2.3997       0.1456       4.9959       6.4797
   1604.1000      55.5773       2.4120       0.1521       5.3501       6.5261
   1604.2500      57.4443       2.4113       0.1477       5.4264       6.5836
   1604.4000      58.9573       2.4082       0.1441       5.8084       6.5614
   1604.5500      60.6622       2.4249       0.1360       6.3378       6.5517
   1604.7000      61.7560       2.4236       0.1396       6.7287       6.5728
   1604.8500      59.9122       2.4154       0.1383       7.0229       6.6120
   1605.0000      60.3310       2.4110       0.1380       6.9897       6.6103
   1605.1500      59.6514       2.4017       0.1380       7.3309       6.6507
   1605.3000      61.1649       2.3956       0.1423       7.9450       6.6405
   1605.4500      62.7119       2.3958       0.1390       7.5462       6.6317
   1605.6000      63.2825       2.3934       0.1338       8.1509       6.6104
   1605.7500      61.8690       2.3819       0.1315       8.5821       6.6280
   1605.9000      61.2835       2.3853       0.1287       8.7639       6.6195
   1606.0500      61.2889       2.3934       0.1279       8.4275       6.6319
   1606.2000      61.0694       2.3879       0.1275       7.9643       6.6000
   1606.3500      61.5098       2.3815       0.1268       8.1536       6.6123
   1606.5000      61.0985       2.3855       0.1340       8.3548       6.6510
   1606.6500      60.8775       2.3783       0.1331       8.1267       6.6121
   1606.8000      59.8622       2.3707       0.1321       7.8904       6.5921
   1606.9500      58.4141       2.3795       0.1317       7.8525       6.5723
   1607.1000      57.2175       2.3745       0.1234       7.6222       6.5405
   1607.2500      54.4665       2.3967       0.1272       8.1629       6.5906
   1607.4000      52.3494       2.4031       0.1260       7.6682       6.6245
   1607.5500      49.4903       2.4004       0.1241       7.3771       6.6312
   1607.7000      50.3267       2.3941       0.1273       7.3869       6.6435
   1607.8500      51.9899       2.3953       0.1309       6.8875       6.5927
   1608.0000      53.8092       2.4013       0.1390       6.7210       6.5363
