~VERSION -------------------------------------------
 VERS.                 2.0 : CWLS LOG ASCII STANDARD - VERSION 2.0
 WRAP.                  NO : ONE LINE PER DEPTH STEP
~WELL -----------------------------------------------
 WELL.                PEMBINA-A3 : Well name
 UWI .                CA-PEM-003        : Unique Well ID
 LAT .                53.0341        : Latitude
 LON .                -114.9876        : Longitude
 STRT.M               1500.00 : START DEPTH
 STOP.M               2199.90 : STOP DEPTH
 STEP.M               0.1500 : STEP
 NULL.                -9999 : NULL VALUE
~CURVE -----------------------------------------------
 DEPTH .M               : Depth
 GR    .GAPI            : Gamma Ray
 RHOB  .G/C3            : Bulk Density
 NPHI  .V/V             : Neutron Porosity
 RT    .OHMM            : Resistivity
 CALI  .IN              : Caliper
~A  DEPTH              GR        RHOB        NPHI          RT        CALI
# ...
   1778.1000      48.3841       2.4298       0.1450       5.1877       6.6018
   1778.2500      48.7241       2.4097       0.1528       5.3354       6.6965
   1778.4000      47.6443       2.4102       0.1517       5.2141       6.6845
   1778.5500      46.8491       2.4269       0.1556       5.4714       6.7155
   1778.7000      47.3081       2.4261       0.1567       5.2319       6.6588
   1778.8500      48.5819       2.4400       0.1571       5.3487       6.5793
   1779.0000      48.2159       2.4381       0.1557       5.8200       6.4367
   1779.1500      49.4550       2.4402       0.1616       5.8444       6.4608
   1779.3000      51.4779       2.4399       0.1610       5.6086       6.5021
   1779.4500      53.6773       2.4438       0.1568       5.9433       6.4811
   1779.6000      52.8532       2.4405       0.1567       5.4677       6.5351
   1779.7500      51.6562       2.4458       0.1535       5.9924       6.4922
   1779.9000      52.7756       2.4381       0.1459       5.8596       6.5263
   1780.0500      52.6751       2.4414       0.1456       6.4573       6.4277
   1780.2000      49.4483       2.4545       0.1476       6.6156       6.4491
   1780.3500      50.3913       2.4532       0.1483       6.4028       6.4921
   1780.5000      48.8258       2.4571       0.1426       5.8528       6.5146
   1780.6500      52.3916       2.4466       0.1487       5.6726       6.5154
   1780.8000      54.3646       2.4443       0.1580       5.4426       6.4658
   1780.9500      54.8710       2.4479       0.1591       5.5747       6.4959
   1781.1000      53.9387       2.4328       0.1626       5.2914       6.4406
   1781.2500      56.1239       2.4422       0.1504       4.7883       6.4178
   1781.4000      56.1500       2.4455       0.1499       5.0633       6.4584
   1781.5500      56.5181       2.4403       0.1488       5.2126       6.5573
   1781.7000      56.8917       2.4334       0.1543       4.9715       6.5701
   1781.8500      54.2143       2.4194       0.1519       5.3988       6.4921
   1782.0000      54.1051       2.4077       0.1547       5.1995       6.5385
   1782.1500      54.8234       2.4201       0.1514       5.2269       6.4971
   1782.3000      52.7316       2.4335       0.1449       5.2084       6.5134
   1782.4500      51.5161       2.4408       0.1461       5.1877       6.5193
   1782.6000      51.1608       2.4363       0.1405       5.3438       6.5581
   1782.7500      55.6997       2.4160       0.1408       5.3666       6.5410
   1782.9000      56.1509       2.4126       0.1464       5.7950       6.5338
   1783.0500      54.5700       2.4110       0.1474       5.7300       6.4971
   1783.2000      57.9182       2.4214       0.1469       5.6687       6.5083
   1783.3500      56.6705       2.4308       0.1448       6.0192       6.5814
   1783.5000      59.6726       2.4289       0.1481       6.4846       6.5124
   1783.6500      59.1052       2.4221       0.1442       6.4714       6.5096
   1783.8000      60.8094       2.4317       0.1430       7.1523       6.5146
   1783.9500      61.9554       2.4328       0.1380       7.3112       6.5040
   1784.1000      61.8698       2.4467       0.1347       7.1978       6.4612
   1784.2500      59.3650       2.4401       0.1368       7.4854       6.4540
   1784.4000      58.3314       2.4437       0.1348       7.4092       6.4522
   1784.5500      57.4694       2.4398       0.1388       6.9574       6.4539
   1784.7000      56.2311       2.4449       0.1326       7.3747       6.4374
   1784.8500      57.0536       2.4508       0.1318       6.9817       6.3809
   1785.0000      58.0605       2.4586       0.1254       6.9621       6.4567
   1785.1500      55.4797       2.4448       0.1239       6.8445       6.4921
   1785.3000      56.3897       2.4257       0.1297       7.1949       6.5301
   1785.4500      55.9971       2.4185       0.1336       6.7496       6.5141
   1785.6000      56.4068       2.4387       0.1349       6.8306       6.6489
   1785.7500      53.2493       2.4488       0.1371       6.1833       6.6751
   1785.9000      53.1918       2.4554       0.1283       6.0189       6.6367
   1786.0500      56.0842       2.4553       0.1249       5.7121       6.6942
   1786.2000      54.0809       2.4428       0.1297       6.1102       6.7157
   1786.3500      55.3137       2.4443       0.1291       5.9167       6.7519
   1786.5000      55.0938       2.4438       0.1301       5.6945       6.7358
   1786.6500      53.9390       2.4536       0.1279       5.7479       6.7507
   1786.8000      49.7734       2.4667       0.1253       5.2393       6.7249
   1786.9500      50.0541       2.4744       0.1329       4.8526       6.6983
   1787.1000      48.3434       2.4676       0.1363       5.0901       6.5890
   1787.2500      48.9311       2.4779       0.1338       4.8419       6.6093
   1787.4000      47.9983       2.4684       0.1451       4.9550       6.6306
   1787.5500      48.6060       2.4653       0.1355       5.1988       6.5297
   1787.7000      47.7448       2.4700       0.1433       4.9606       6.5062
   1787.8500      46.7380       2.4826       0.1434       5.0764       6.5260
   1788.0000      46.2911       2.4769       0.1421       5.1714       6.5546
   1788.1500      46.8770       2.4773       0.1413       5.1907       6.4829
   1788.3000      47.1873       2.4824       0.1396       4.6805       6.4400
   1788.4500      46.5119       2.4761       0.1343       4.7433       6.4882
   1788.6000      47.1270       2.4579       0.1357       4.7591       6.4680
   1788.7500      48.7923       2.4601       0.1368       5.0516       6.4236
   1788.9000      47.0913       2.4521       0.1467       5.1765       6.4170
   1789.0500      44.8558       2.4546       0.1499       5.5922       6.4695
   1789.2000      46.7518       2.4621       0.1469       5.6680       6.4453
   1789.3500      46.7210       2.4506       0.1473       5.3094       6.3844
   1789.5000      46.0232       2.4416       0.1441       5.0872       6.3239
   1789.6500      46.0025       2.4376       0.1454       5.0550       6.3118
   1789.8000      49.2841       2.4230       0.1418       5.2369       6.3487
   1789.9500      48.7307       2.4134       0.1443       5.1742       6.3538
   1790.1000      50.4378       2.4150       0.1428       5.0041       6.4049
   1790.2500      52.0612       2.4019       0.1494       5.6773       6.3905
   1790.4000      51.7189       2.4196       0.1434       5.3543       6.4022
   1790.5500      52.4497       2.4168       0.1405       5.4189       6.3893
   1790.7000      52.6064       2.4174       0.1416       6.0658       6.3681
   1790.8500      52.7970       2.4017       0.1404       6.1414       6.4097
   1791.0000      50.4579       2.4070       0.1414       6.1860       6.4396
   1791.1500      48.7949       2.4101       0.1412       6.4898       6.4811
   1791.3000      45.7115       2.4109       0.1461       6.8600       6.4411
   1791.4500      45.3864       2.4099       0.1542       6.7964       6.4355
   1791.6000      44.9782       2.4146       0.1589       6.8958       6.3552
   1791.7500      45.2652       2.4087       0.1560       6.8386       6.3968
   1791.9000      46.7767       2.4126       0.1464       6.5132       6.4153
   1792.0500      47.7833       2.4074       0.1445       6.5415       6.3987
   1792.2000      48.0986       2.4105       0.1423       5.6485       6.4835
   1792.3500      45.8271       2.4170       0.1396       6.5405       6.4560
   1792.5000      46.4235       2.4291       0.1421       6.8027       6.4265
   1792.6500      46.8123       2.4363       0.1437       6.7652       6.4220
   1792.8000      46.3730       2.4368       0.1493       6.7200       6.5283
   1792.9500      44.4236       2.4264       0.1438       7.4228       6.5221
   1793.1000      43.7420       2.4259       0.1452       7.6720       6.6364
   1793.2500      42.7364       2.4375       0.1442       7.2234       6.6255
   1793.4000      43.0972       2.4397       0.1455       7.0756       6.5790
