~VERSION -------------------------------------------
 VERS.                 2.0 : CWLS LOG ASCII STANDARD - VERSION 2.0
 WRAP.                  NO : ONE LINE PER DEPTH STEP
~WELL -----------------------------------------------
 WELL.                PEMBINA-A3 : Well name
 UWI .                CA-PEM-003        : Unique Well ID
 LAT .                53.0341        : Latitude
 LON .                -114.9876        : Longitude
 STRT.M               1500.00 : START DEPTH
 STOP.M               2199.90 : STOP DEPTH
 STEP.M               0.1500 : STEP
 NULL.                -9999 : NULL VALUE
~CURVE -----------------------------------------------
 DEPTH .M               : Depth
 GR    .GAPI            : Gamma Ray
 RHOB  .G/C3            : Bulk Density
 NPHI  .V/V             : Neutron Porosity
 RT    .OHMM            : Resistivity
 CALI  .IN              : Caliper
~A  DEPTH              GR        RHOB        NPHI          RT        CALI
# ...
   1639.0500      49.8678       2.4001       0.1572       6.4402       6.5557
   1639.2000      48.4439       2.4042       0.1625       6.6524       6.5397
   1639.3500      47.7737       2.4176       0.1611       6.2882       6.5727
   1639.5000      47.9727       2.4179       0.1603       6.3016       6.4861
   1639.6500      51.0424       2.4116       0.1572       6.2559       6.5253
   1639.8000      51.8834       2.3997       0.1589       6.3881       6.4706
   1639.9500      51.0663       2.3980       0.1587       5.9382       6.4850
   1640.1000      51.3773       2.4090       0.1547       6.1182       6.4929
   1640.2500      50.7440       2.4087       0.1491       5.8955       6.4493
   1640.4000      49.1139       2.3986       0.1491       5.9556       6.4574
   1640.5500      53.3660       2.3873       0.1491       6.1494       6.4606
   1640.7000      53.2521       2.4020       0.1552       6.2703       6.4808
   1640.8500      50.9780       2.4148       0.1490       6.6127       6.4869
   1641.0000      49.7857       2.4202       0.1540       7.0247       6.5327
   1641.1500      49.9823       2.4396       0.1483       6.8941       6.4843
   1641.3000      49.9014       2.4381       0.1452       7.1923       6.5419
   1641.4500      48.5935       2.4507       0.1367       7.1086       6.4679
   1641.6000      50.4672       2.4423       0.1385       7.4824       6.4999
   1641.7500      53.2195       2.4416       0.1311       7.3321       6.4797
   1641.9000      52.9471       2.4479       0.1297       7.4601       6.4752
   1642.0500      54.3575       2.4400       0.1319       7.6138       6.4700
   1642.2000      54.0686       2.4535       0.1300       7.5248       6.4553
   1642.3500      53.7161       2.4544       0.1373       7.7151       6.4956
   1642.5000      54.2407       2.4478       0.1354       7.2377       6.5446
   1642.6500      52.2015       2.4514       0.1380       7.4955       6.5831
   1642.8000      53.5224       2.4552       0.1386       7.1410       6.5924
   1642.9500      52.8280       2.4547       0.1402       7.2443       6.6163
   1643.1000      52.1881       2.4371       0.1469       7.2835       6.6220
   1643.2500      51.7841       2.4302       0.1461       7.6878       6.6850
   1643.4000      54.4125       2.4350       0.1474       8.0718       6.6954
   1643.5500      52.3351       2.4361       0.1481       8.3587       6.6946
   1643.7000      53.1159       2.4180       0.1406       8.1678       6.7121
   1643.8500      53.6980       2.4211       0.1504       8.0970       6.6628
   1644.0000      56.5409       2.4270       0.1478       7.6022       6.6306
   1644.1500      56.1916       2.4215       0.1505       7.2155       6.6307
   1644.3000      54.3173       2.4134       0.1558       7.3066       6.5843
   1644.4500      55.7960       2.4047       0.1597       7.0602       6.5851
   1644.6000      55.6181       2.4096       0.1597       6.8882       6.5781
   1644.7500      53.8023       2.4229       0.1611       7.0191       6.5346
   1644.9000      52.7248       2.4221       0.1587       6.7381       6.5583
   1645.0500      50.0046       2.4354       0.1559       6.8039       6.5314
   1645.2000      49.5361       2.4318       0.1535       7.3615       6.5581
   1645.3500      50.3211       2.4207       0.1495       7.0729       6.5159
   1645.5000      51.9260       2.4321       0.1554       7.6393       6.4583
   1645.6500      52.1371       2.4369       0.1562       6.7628       6.4207
   1645.8000      49.3622       2.4439       0.1525       6.9312       6.4523
   1645.9500      50.3757       2.4400       0.1522       6.8783       6.4601
   1646.1000      52.4763       2.4408       0.1513       7.3600       6.4966
   1646.2500      51.7341       2.4443       0.1481       7.0374       6.5041
   1646.4000      50.6473       2.4356       0.1469       6.8299       6.4901
   1646.5500      50.8823       2.4312       0.1421       6.3034       6.4651
   1646.7000      52.6121       2.4451       0.1530       6.1274       6.3932
   1646.8500      54.1027       2.4454       0.1515       6.0421       6.4255
   1647.0000      53.8515       2.4496       0.1504       6.4520       6.4374
   1647.1500      52.5668       2.4482       0.1490       6.9442       6.4639
   1647.3000      55.5877       2.4532       0.1418       6.8282       6.4325
   1647.4500      52.4852       2.4471       0.1471       6.6070       6.4508
   1647.6000      52.4892       2.4581       0.1410       6.9178       6.4380
   1647.7500      53.7495       2.4446       0.1417       7.1782       6.4409
   1647.9000      54.5357       2.4514       0.1445       7.1714       6.4025
   1648.0500      55.7130       2.4380       0.1426       7.3468       6.4496
   1648.2000      57.0023       2.4303       0.1423       7.1637       6.5193
   1648.3500      57.5487       2.4184       0.1371       7.9217       6.4989
   1648.5000      56.3788       2.3995       0.1377       7.7610       6.4819
   1648.6500      55.5931       2.3850       0.1350       8.3330       6.4528
   1648.8000      58.4380       2.3840       0.1395       8.3358       6.4447
   1648.9500      58.2862       2.3983       0.1381       8.1070       6.3687
   1649.1000      56.6675       2.3988       0.1380       7.6623       6.3415
   1649.2500      57.0069       2.3951       0.1432       8.1901       6.3266
   1649.4000      58.8790       2.4042       0.1471       7.9883       6.3473
   1649.5500      57.2451       2.4136       0.1528       7.7089       6.3139
   1649.7000      57.3239       2.4253       0.1453       8.1116       6.3618
   1649.8500      54.9803       2.4261       0.1460       7.6543       6.4219
   1650.0000      53.0942       2.4011       0.1580       7.1596       6.4499
   1650.1500      54.3837       2.4059       0.1547       6.5239       6.4395
   1650.3000      52.5728       2.4064       0.1568       6.2108       6.4613
   1650.4500      54.2582       2.4292       0.1470       6.5757       6.5294
   1650.6000      53.8059       2.4223       0.1542       6.3204       6.5170
   1650.7500      53.1012       2.4360       0.1539       6.4222       6.5174
   1650.9000      55.2058       2.4317       0.1599       6.6064       6.4637
   1651.0500      55.1780       2.4339       0.1623       6.9808       6.4993
   1651.2000      55.3921       2.4286       0.1659       6.4447       6.3889
   1651.3500      55.2561       2.4293       0.1647       5.9553       6.3656
   1651.5000      54.3268       2.4399       0.1605       5.6171       6.3376
   1651.6500      54.2413       2.4461       0.1578       5.4206       6.3749
   1651.8000      52.8290       2.4417       0.1568       5.6699       6.3710
   1651.9500      55.1358       2.4393       0.1617       5.9589       6.2989
   1652.1000      54.7761       2.4256       0.1559       5.8405       6.3232
   1652.2500      58.2501       2.4247       0.1574       5.5661       6.3730
   1652.4000      56.3769       2.4097       0.1531       5.7412       6.3924
   1652.5500      57.6787       2.4153       0.1516       6.1516       6.4123
   1652.7000      57.7368       2.3993       0.1529       6.3113       6.3931
   1652.8500      57.7156       2.3933       0.1469       6.5411       6.3346
   1653.0000      60.0584       2.4082       0.1334       6.8570       6.3795
   1653.1500      58.9434       2.4082       0.1394       7.2798       6.3387
   1653.3000      60.0441       2.4082       0.1377       7.5615       6.3110
   1653.4500      59.6942       2.4027       0.1454       7.1787       6.3781
   1653.6000      58.9244       2.4022       0.1389       7.3362       6.3736
   1653.7500      61.6321       2.4006       0.1410       6.6414       6.4079
   1653.9000      60.1061       2.3987       0.1352       7.1260       6.4446
   1654.0500      59.5224       2.3942       0.1357       7.0222       6.4418
   1654.2000      59.7758       2.3911       0.1333       7.2241       6.4566
   1654.3500      57.6877       2.4109       0.1349       7.2775       6.4566
