~VERSION -------------------------------------------
 VERS.                 2.0 : CWLS LOG ASCII STANDARD - VERSION 2.0
 WRAP.                  NO : ONE LINE PER DEPTH STEP
~WELL -----------------------------------------------
 WELL.                PEMBINA-A3 : Well name
 UWI .                CA-PEM-003        : Unique Well ID
 LAT .                53.0341        : Latitude
 LON .                -114.9876        : Longitude
 STRT.M               1500.00 : START DEPTH
 STOP.M               2199.90 : STOP DEPTH
 STEP.M               0.1500 : STEP
 NULL.                -9999 : NULL VALUE
~CURVE -----------------------------------------------
 DEPTH .M               : Depth
 GR    .GAPI            : Gamma Ray
 RHOB  .G/C3            : Bulk Density
 NPHI  .V/V             : Neutron Porosity
 RT    .OHMM            : Resistivity
 CALI  .IN              : Caliper
~A  DEPTH              GR        RHOB        NPHI          RT        CALI
# ...
   2133.4500      63.7655       2.4589       0.1377       5.5510       6.3388
   2133.6000      61.8550       2.4677       0.1350       5.3055       6.4245
   2133.7500      60.2013       2.4620       0.1374       4.8898       6.4820
   2133.9000      59.9530       2.4636       0.1383       4.5213       6.4420
   2134.0500      57.9098       2.4439       0.1396       4.9156       6.4863
   2134.2000      59.6389       2.4447       0.1365       5.2307       6.4805
   2134.3500      59.6230       2.4403       0.1342       5.4951       6.5100
   2134.5000      59.5485       2.4506       0.1390       5.6153       6.4593
   2134.6500      60.4243       2.4430       0.1365       5.8516       6.4533
   2134.8000      58.9139       2.4527       0.1490       5.5970       6.4314
   2134.9500      61.1086       2.4623       0.1486       5.6000       6.4159
   2135.1000      60.5959       2.4675       0.1494       5.9136       6.3455
   2135.2500      59.7793       2.4634       0.1456       5.5071       6.3294
   2135.4000      59.8612       2.4572       0.1434       5.5642       6.3389
   2135.5500      59.1614       2.4512       0.1448       5.4086       6.3707
   2135.7000      58.0647       2.4462       0.1472       4.8691       6.4429
   2135.8500      55.1916       2.4427       0.1424       4.9209       6.3896
   2136.0000      54.7199       2.4553       0.1385       5.2010       6.4143
   2136.1500      53.8090       2.4672       0.1446       5.1244       6.4169
   2136.3000      54.9078       2.4591       0.1416       5.1429       6.4136
   2136.4500      52.3261       2.4498       0.1401       4.9799       6.4991
   2136.6000      54.4418       2.4399       0.1470       5.3649       6.5298
   2136.7500      54.6021       2.4439       0.1462       5.9344       6.4689
   2136.9000      53.4053       2.4436       0.1495       6.2896       6.4642
   2137.0500      53.9089       2.4555       0.1513       6.1763       6.4242
   2137.2000      50.4749       2.4511       0.1478       6.2934       6.4146
   2137.3500      52.8204       2.4511       0.1486       6.0549       6.4942
   2137.5000      52.3597       2.4517       0.1445       6.0766       6.5314
   2137.6500      53.1390       2.4662       0.1442       6.2036       6.5419
   2137.8000      53.3909       2.4654       0.1356       6.7538       6.5285
   2137.9500      53.5247       2.4580       0.1377       6.7281       6.5269
   2138.1000      54.4385       2.4556       0.1352       6.4789       6.5122
   2138.2500      54.5296       2.4591       0.1381       6.4911       6.5194
   2138.4000      53.6807       2.4550       0.1438       6.4235       6.5498
   2138.5500      54.5943       2.4479       0.1362       6.3244       6.5266
   2138.7000      54.7149       2.4480       0.1397       6.6212       6.5337
   2138.8500      55.5507       2.4507       0.1398       7.0669       6.4678
   2139.0000      56.8311       2.4603       0.1353       7.1326       6.4350
   2139.1500      56.2485       2.4479       0.1353       7.3032       6.3880
   2139.3000      55.0803       2.4556       0.1361       6.5157       6.4459
   2139.4500      56.9213       2.4485       0.1362       6.7604       6.3679
   2139.6000      56.3517       2.4487       0.1293       6.6101       6.3551
   2139.7500      58.0928       2.4388       0.1277       6.0664       6.4035
   2139.9000      59.3300       2.4250       0.1256       5.9172       6.3884
   2140.0500      61.6460       2.4241       0.1253       6.2442       6.4943
   2140.2000      62.9047       2.4159       0.1284       6.2007       6.4245
   2140.3500      60.6265       2.4173       0.1293       6.5950       6.4249
   2140.5000      58.2471       2.4198       0.1340       6.4360       6.4576
   2140.6500      56.1894       2.4073       0.1315       6.5532       6.4943
   2140.8000      54.1713       2.4120       0.1271       5.9337       6.4619
   2140.9500      53.9502       2.4009       0.1303       5.9176       6.5748
   2141.1000      52.6323       2.3989       0.1294       6.0010       6.5985
   2141.2500      53.8032       2.3865       0.1252       6.1489       6.6348
   2141.4000      54.2199       2.3831       0.1218       6.6587       6.6586
   2141.5500      55.0314       2.3819       0.1206       6.2771       6.6119
   2141.7000      55.4692       2.3783       0.1156       6.1948       6.6559
   2141.8500      56.4410       2.3836       0.1169       5.9904       6.6185
   2142.0000      56.2783       2.3683       0.1216       5.9840       6.6276
   2142.1500      55.3819       2.3616       0.1168       5.5801       6.6576
   2142.3000      54.2269       2.3436       0.1126       6.0333       6.6737
   2142.4500      54.7683       2.3479       0.1083       5.9283       6.5917
   2142.6000      55.1507       2.3529       0.1155       6.1078       6.5703
   2142.7500      55.3177       2.3615       0.1141       6.6240       6.5679
   2142.9000      55.5477       2.3812       0.1160       6.5461       6.5582
   2143.0500      52.1154       2.3788       0.1151       6.3175       6.4861
   2143.2000      51.7368       2.3832       0.1191       6.6010       6.4905
   2143.3500      52.1319       2.3779       0.1192       6.6719       6.5302
   2143.5000      54.6086       2.3645       0.1119       6.2338       6.4476
   2143.6500      56.0047       2.3735       0.1112       5.9692       6.4084
   2143.8000      56.9763       2.3718       0.1128       6.4778       6.4703
   2143.9500      55.4252       2.3838       0.1118       6.4418       6.4248
   2144.1000      54.7292       2.3883       0.1100       6.1782       6.4096
   2144.2500      53.2822       2.4077       0.1106       5.9482       6.3199
   2144.4000      54.5457       2.4196       0.1120       5.3042       6.2626
   2144.5500      53.9976       2.4343       0.1166       5.8677       6.2626
   2144.7000      52.4950       2.4467       0.1164       6.0480       6.2287
   2144.8500      53.6671       2.4417       0.1125       6.0792       6.2893
   2145.0000      54.7923       2.4534       0.1076       6.2539       6.3665
   2145.1500      54.7325       2.4587       0.1061       6.8430       6.3811
   2145.3000      54.8951       2.4697       0.1061       6.4966       6.3535
   2145.4500      55.3257       2.4577       0.1114       6.6296       6.3892
   2145.6000      54.8887       2.4542       0.1096       6.5192       6.3951
   2145.7500      54.0341       2.4612       0.1089       6.3710       6.4321
   2145.9000      54.1026       2.4429       0.1112       6.3875       6.4321
   2146.0500      54.0875       2.4413       0.1130       6.4656       6.4321
   2146.2000      54.7169       2.4379       0.1131       5.8615       6.4875
   2146.3500      55.2066       2.4366       0.1151       5.8868       6.4459
   2146.5000      58.0768       2.4349       0.1191       6.2775       6.3801
   2146.6500      58.0817       2.4362       0.1166       6.0787       6.4019
   2146.8000      58.9736       2.4409       0.1216       5.5661       6.3669
   2146.9500      59.4906       2.4320       0.1205       5.5967       6.3631
   2147.1000      61.1160       2.4311       0.1223       5.6825       6.3631
   2147.2500      61.9001       2.4223       0.1239       5.8922       6.3999
   2147.4000      62.3167       2.4168       0.1241       6.1427       6.4608
   2147.5500      62.2586       2.4164       0.1205       5.7190       6.5630
   2147.7000      63.3554       2.4042       0.1216       5.6946       6.5563
   2147.8500      61.7941       2.4116       0.1248       5.3815       6.4964
   2148.0000      59.3142       2.4018       0.1296       5.3991       6.4890
   2148.1500      57.7882       2.3990       0.1309       5.5257       6.4685
   2148.3000      59.3830       2.3890       0.1348       6.3471       6.4775
   2148.4500      57.6294       2.3871       0.1286       6.0615       6.5053
   2148.6000      60.0275       2.3828       0.1337       6.2386       6.5154
   2148.7500      59.7097       2.3796       0.1356       6.0279       6.4416
