~VERSION -------------------------------------------
 VERS.                 2.0 : CWLS LOG ASCII STANDARD - VERSION 2.0
 WRAP.                  NO : ONE LINE PER DEPTH STEP
~WELL -----------------------------------------------
 WELL.                PEMBINA-A3 : Well name
 UWI .                CA-PEM-003        : Unique Well ID
 LAT .                53.0341        : Latitude
 LON .                -114.9876        : Longitude
 STRT.M               1500.00 : START DEPTH
 STOP.M               2199.90 : STOP DEPTH
 STEP.M               0.1500 : STEP
 NULL.                -9999 : NULL VALUE
~CURVE -----------------------------------------------
 DEPTH .M               : Depth
 GR    .GAPI            : Gamma Ray
 RHOB  .G/C3            : Bulk Density
 NPHI  .V/V             : Neutron Porosity
 RT    .OHMM            : Resistivity
 CALI  .IN              : Caliper
~A  DEPTH              GR        RHOB        NPHI          RT        CALI
# ...
   1546.3500      53.2120       2.3931       0.1425       7.0094       6.4858
   1546.5000      53.4278       2.3883       0.1415       7.0549       6.5050
   1546.6500      54.2761       2.3960       0.1427       6.7563       6.4922
   1546.8000      55.9648       2.3950       0.1395       6.7781       6.4614
   1546.9500      54.0283       2.4020       0.1362       7.0738       6.4195
   1547.1000      53.8681       2.4139       0.1401       7.4732       6.3580
   1547.2500      54.8591       2.4021       0.1436       7.5888       6.3337
   1547.4000      52.4136       2.4010       0.1405       7.1243       6.2942
   1547.5500      48.6499       2.4030       0.1388       7.1806       6.3559
   1547.7000      50.1171       2.3944       0.1384       7.1001       6.3351
   1547.8500      50.1904       2.4055       0.1407       6.7540       6.3953
   1548.0000      46.1573       2.4090       0.1425       6.7629       6.4226
   1548.1500      48.7300       2.4194       0.1468       6.9707       6.4111
   1548.3000      48.5302       2.4256       0.1528       6.9821       6.4357
   1548.4500      48.2950       2.4268       0.1481       6.8064       6.4314
   1548.6000      47.6020       2.4309       0.1465       6.6105       6.4274
   1548.7500      49.4998       2.4346       0.1435       7.1384       6.4306
   1548.9000      51.6476       2.4295       0.1407       6.9192       6.5551
   1549.0500      51.4963       2.4238       0.1426       6.6367       6.5643
   1549.2000      49.7034       2.4236       0.1368       6.3771       6.6144
   1549.3500      50.2019       2.4113       0.1287       6.3383       6.6423
   1549.5000      53.4443       2.4263       0.1311       6.8478       6.6356
   1549.6500      53.4352       2.4290       0.1387       7.2927       6.6325
   1549.8000      53.9597       2.4215       0.1340       7.3485       6.6277
   1549.9500      54.7726       2.4075       0.1354       6.7711       6.6225
   1550.1000      53.8770       2.4058       0.1333       6.7818       6.6590
   1550.2500      56.8543       2.4237       0.1378       6.6115       6.6648
   1550.4000      58.1805       2.4324       0.1408       6.9451       6.5583
   1550.5500      60.5666       2.4396       0.1440       6.6148       6.4892
   1550.7000      61.7348       2.4500       0.1462       6.1630       6.4347
   1550.8500      59.5663       2.4486       0.1410       5.9639       6.3825
   1551.0000      61.2659       2.4362       0.1393       6.2414       6.3723
   1551.1500      59.9626       2.4313       0.1422       6.6328       6.3803
   1551.3000      61.0418       2.4391       0.1420       6.4065       6.3452
   1551.4500      62.6148       2.4341       0.1474       5.9140       6.3784
   1551.6000      61.5760       2.4314       0.1432       6.0606       6.3192
   1551.7500      62.3649       2.4289       0.1458       5.4834       6.3084
   1551.9000      60.6870       2.4296       0.1450       5.8534       6.3211
   1552.0500      60.4880       2.4225       0.1490       6.0376       6.3558
   1552.2000      62.0431       2.4206       0.1465       5.7720       6.3914
   1552.3500      60.6500       2.4271       0.1499       5.6739       6.4033
   1552.5000      57.3524       2.4105       0.1459       5.5736       6.3737
   1552.6500      57.9884       2.4127       0.1429       5.3990       6.3858
   1552.8000      55.1167       2.4192       0.1471       5.1756       6.4348
   1552.9500      55.5071       2.4341       0.1454       5.5426       6.3952
   1553.1000      58.6768       2.4301       0.1426       5.0630       6.4332
   1553.2500      58.7429       2.4317       0.1436       5.3082       6.5114
   1553.4000      59.7269       2.4323       0.1421       5.2831       6.5048
   1553.5500      60.7809       2.4309       0.1362       5.3769       6.5378
   1553.7000      60.7220       2.4292       0.1344       5.4856       6.5499
   1553.8500      61.2292       2.4427       0.1342       5.7401       6.5574
   1554.0000      63.5193       2.4534       0.1301       5.8349       6.5687
   1554.1500      63.1818       2.4590       0.1255       5.6837       6.5933
   1554.3000      63.8817       2.4545       0.1284       5.8329       6.6067
   1554.4500      62.9183       2.4379       0.1273       6.3287       6.6406
   1554.6000      63.0850       2.4398       0.1284       5.9068       6.6339
   1554.7500      61.4470       2.4500       0.1276       6.0674       6.6255
   1554.9000      63.7145       2.4522       0.1323       6.0484       6.6260
   1555.0500      65.1730       2.4642       0.1235       6.1024       6.6229
   1555.2000      64.0677       2.4698       0.1313       6.4932       6.5753
   1555.3500      65.0993       2.4723       0.1345       6.7460       6.5200
   1555.5000      66.5319       2.4831       0.1371       6.3888       6.5267
   1555.6500      67.7195       2.4803       0.1347       6.8661       6.4996
   1555.8000      67.4061       2.4795       0.1285       7.2699       6.4788
   1555.9500      67.5276       2.4755       0.1321       6.8846       6.4757
   1556.1000      64.1140       2.4596       0.1276       7.6418       6.4662
   1556.2500      61.8616       2.4599       0.1281       7.2936       6.4378
   1556.4000      59.4909       2.4551       0.1241       7.4331       6.4821
   1556.5500      56.2032       2.4457       0.1289       7.3517       6.5272
   1556.7000      54.2093       2.4409       0.1313       7.3057       6.5251
   1556.8500      54.0751       2.4388       0.1360       7.1538       6.6058
   1557.0000      52.9124       2.4395       0.1403       6.8402       6.6553
   1557.1500      53.0608       2.4401       0.1366       6.4351       6.6469
   1557.3000      51.0432       2.4530       0.1272       6.3463       6.6012
   1557.4500      52.0386       2.4712       0.1251       6.2204       6.6296
   1557.6000      52.8480       2.4687       0.1217       7.0588       6.6481
   1557.7500      54.1278       2.4511       0.1194       7.4093       6.6240
   1557.9000      52.9186       2.4519       0.1153       7.1571       6.5787
   1558.0500      50.2186       2.4377       0.1158       6.9876       6.5157
   1558.2000      49.1083       2.4368       0.1059       6.8421       6.4994
   1558.3500      49.8603       2.4333       0.1005       6.6166       6.4516
   1558.5000      48.0255       2.4301       0.0976       7.0454       6.4144
   1558.6500      46.1670       2.4336       0.0972       6.5535       6.4121
   1558.8000      46.2221       2.4242       0.1032       6.3185       6.4692
   1558.9500      44.9246       2.4259       0.1033       6.6604       6.4180
   1559.1000      47.4676       2.4412       0.1060       5.9446       6.4041
   1559.2500      47.8920       2.4327       0.1044       6.0963       6.4251
   1559.4000      48.5838       2.4373       0.1042       6.3896       6.4292
   1559.5500      50.0331       2.4451       0.1061       6.6835       6.4037
   1559.7000      53.3711       2.4432       0.1055       7.0915       6.4178
   1559.8500      53.2575       2.4245       0.1036       6.8249       6.4435
   1560.0000      53.1330       2.4137       0.1027       6.5248       6.5096
   1560.1500      54.9869       2.4128       0.1082       6.6567       6.4708
   1560.3000      57.5286       2.4027       0.1140       6.5970       6.4600
   1560.4500      56.1572       2.3950       0.1121       6.4314       6.4626
   1560.6000      54.3023       2.4023       0.1182       5.6747       6.4639
   1560.7500      51.2159       2.4126       0.1236       5.5667       6.4460
   1560.9000      50.9919       2.4079       0.1257       5.8616       6.5027
   1561.0500      54.3115       2.4029       0.1335       5.7712       6.4703
   1561.2000      55.8914       2.3958       0.1392       6.0583       6.4503
   1561.3500      54.3449       2.4021       0.1447       6.3144       6.4743
   1561.5000      56.6267       2.4085       0.1428       5.6460       6.4610
   1561.6500      56.4675       2.4014       0.1440       5.7934       6.5512
