~VERSION -------------------------------------------
 VERS.                 2.0 : CWLS LOG ASCII STANDARD - VERSION 2.0
 WRAP.                  NO : ONE LINE PER DEPTH STEP
~WELL -----------------------------------------------
 WELL.                PEMBINA-A3 : Well name
 UWI .                CA-PEM-003        : Unique Well ID
 LAT .                53.0341        : Latitude
 LON .                -114.9876        : Longitude
 STRT.M               1500.00 : START DEPTH
 STOP.M               2199.90 : STOP DEPTH
 STEP.M               0.1500 : STEP
 NULL.                -9999 : NULL VALUE
~CURVE -----------------------------------------------
 DEPTH .M               : Depth
 GR    .GAPI            : Gamma Ray
 RHOB  .G/C3            : Bulk Density
 NPHI  .V/V             : Neutron Porosity
 RT    .OHMM            : Resistivity
 CALI  .IN              : Caliper
~A  DEPTH              GR        RHOB        NPHI          RT        CALI
# ...
   2179.8000      52.0718       2.4291       0.1216       4.7223       6.7232
   2179.9500      50.3551       2.4226       0.1287       4.9004       6.7022
   2180.1000      50.3221       2.4279       0.1247       5.0637       6.6914
   2180.2500      51.1363       2.4371       0.1239       5.2338       6.6594
   2180.4000      52.6245       2.4428       0.1212       5.2725       6.6690
   2180.5500      54.4009       2.4538       0.1213       5.0978       6.5961
   2180.7000      54.3218       2.4536       0.1232       5.4218       6.5678
   2180.8500      56.5109       2.4600       0.1230       5.8409       6.5632
   2181.0000      58.1964       2.4623       0.1239       5.7906       6.5518
   2181.1500      59.8563       2.4632       0.1223       6.0374       6.5571
   2181.3000      55.6360       2.4575       0.1315       6.0839       6.5092
   2181.4500      56.9787       2.4482       0.1376       6.0843       6.4220
   2181.6000      57.8040       2.4430       0.1414       5.7009       6.4188
   2181.7500      58.9524       2.4375       0.1377       5.2633       6.4492
   2181.9000      58.5057       2.4436       0.1374       5.7973       6.4217
   2182.0500      60.8113       2.4548       0.1409       5.7865       6.4409
   2182.2000      60.3477       2.4472       0.1361       6.4880       6.4054
   2182.3500      60.8757       2.4546       0.1326       6.4500       6.4149
   2182.5000      61.6178       2.4745       0.1314       6.7020       6.4293
   2182.6500      59.7193       2.4674       0.1343       6.6394       6.3536
   2182.8000      58.1529       2.4636       0.1425       6.8382       6.3937
   2182.9500      59.8002       2.4578       0.1359       6.4726       6.4499
   2183.1000      59.4671       2.4545       0.1341       6.3255       6.4271
   2183.2500      60.8700       2.4384       0.1332       7.1741       6.4390
   2183.4000      61.5877       2.4327       0.1357       7.4267       6.4651
   2183.5500      58.2619       2.4228       0.1407       7.1749       6.4918
   2183.7000      58.0574       2.4157       0.1385       7.1240       6.5370
   2183.8500      55.8778       2.4080       0.1429       6.4944       6.5182
   2184.0000      56.0442       2.4046       0.1380       6.2105       6.5358
   2184.1500      55.5028       2.3988       0.1407       5.7009       6.5974
   2184.3000      56.6874       2.4051       0.1382       5.7426       6.5992
   2184.4500      56.8194       2.4202       0.1403       5.4343       6.5767
   2184.6000      56.9451       2.4247       0.1327       5.5631       6.6112
   2184.7500      56.8683       2.4324       0.1322       5.7407       6.5168
   2184.9000      56.2532       2.4234       0.1327       5.9714       6.5237
   2185.0500      54.4581       2.4206       0.1272       6.0243       6.5819
   2185.2000      55.6292       2.4311       0.1367       5.7693       6.5760
   2185.3500      52.8233       2.4162       0.1345       5.8409       6.5746
   2185.5000      53.2086       2.4122       0.1309       5.8895       6.5628
   2185.6500      54.0218       2.4135       0.1310       6.3821       6.5598
   2185.8000      54.3872       2.4087       0.1275       6.4613       6.5112
   2185.9500      53.4154       2.4109       0.1255       6.7898       6.5155
   2186.1000      53.9741       2.4096       0.1289       7.1171       6.5163
   2186.2500      53.9483       2.4201       0.1300       6.8623       6.5342
   2186.4000      53.4557       2.4289       0.1341       7.0190       6.5450
   2186.5500      56.1562       2.4211       0.1288       7.9264       6.4814
   2186.7000      56.5604       2.4230       0.1240       8.0183       6.5005
   2186.8500      54.7779       2.4377       0.1157       8.3850       6.5430
   2187.0000      53.3510       2.4343       0.1239       8.9431       6.5089
   2187.1500      53.3934       2.4245       0.1242       9.5216       6.4923
   2187.3000      55.8161       2.4175       0.1174       9.1782       6.4446
   2187.4500      57.1213       2.4137       0.1134       9.0289       6.4067
   2187.6000      55.2129       2.4155       0.1222       8.9035       6.3801
   2187.7500      55.8520       2.4026       0.1313       8.3227       6.4156
   2187.9000      55.9419       2.4068       0.1315       7.8811       6.3433
   2188.0500      57.5486       2.4051       0.1350       7.7084       6.3609
   2188.2000      55.5265       2.3833       0.1312       8.1483       6.3149
   2188.3500      57.1857       2.3822       0.1318       7.8014       6.2918
   2188.5000      56.0349       2.3801       0.1333       7.7635       6.4177
   2188.6500      55.6691       2.3830       0.1363       7.6192       6.4103
   2188.8000      53.5421       2.3733       0.1334       7.5843       6.4220
   2188.9500      53.3955       2.3901       0.1335       7.7045       6.4715
   2189.1000      51.8435       2.3832       0.1339       7.9904       6.4728
   2189.2500      51.3487       2.3841       0.1380       7.4232       6.4532
   2189.4000      52.1969       2.3846       0.1318       7.0781       6.5006
   2189.5500      52.3218       2.3911       0.1366       6.4200       6.4869
   2189.7000      51.4779       2.3906       0.1446       6.3421       6.4760
   2189.8500      53.7502       2.3711       0.1508       6.1433       6.4987
   2190.0000      54.4367       2.3866       0.1474       5.9985       6.4622
   2190.1500      54.9626       2.3950       0.1467       6.1359       6.4606
   2190.3000      53.0187       2.4056       0.1505       6.5245       6.5052
   2190.4500      50.6909       2.4088       0.1481       6.6912       6.4558
   2190.6000      53.0957       2.4004       0.1465       7.3188       6.4609
   2190.7500      52.8993       2.3985       0.1428       7.7482       6.5290
   2190.9000      52.2753       2.3955       0.1409       7.7511       6.5520
   2191.0500      53.5586       2.4039       0.1415       8.0904       6.5621
   2191.2000      58.0777       2.4102       0.1425       7.2387       6.5979
   2191.3500      60.0222       2.4130       0.1452       7.2587       6.5642
   2191.5000      59.0810       2.4049       0.1529       6.9891       6.5374
   2191.6500      60.2547       2.4118       0.1509       6.6486       6.5794
   2191.8000      62.6260       2.4175       0.1521       6.7473       6.5539
   2191.9500      62.2949       2.4016       0.1591       6.9521       6.6264
   2192.1000      62.5034       2.4013       0.1615       6.8423       6.6027
   2192.2500      62.1497       2.3920       0.1587       6.8918       6.5319
   2192.4000      62.5203       2.3935       0.1590       7.1650       6.4745
   2192.5500      63.4621       2.3884       0.1547       7.4584       6.4747
   2192.7000      64.6100       2.3838       0.1558       7.3986       6.4786
   2192.8500      65.2190       2.3847       0.1501       7.5957       6.4994
   2193.0000      65.0848       2.3753       0.1477       7.5825       6.4961
   2193.1500      64.3180       2.3776       0.1459       7.7918       6.4869
   2193.3000      63.2603       2.3647       0.1489       7.4336       6.5645
   2193.4500      64.7150       2.3524       0.1536       7.0552       6.5640
   2193.6000      64.1322       2.3612       0.1566       6.5354       6.5382
   2193.7500      65.3349       2.3617       0.1523       6.4170       6.5439
   2193.9000      64.7787       2.3622       0.1507       6.5770       6.5762
   2194.0500      64.3518       2.3620       0.1533       6.3994       6.5239
   2194.2000      61.5327       2.3623       0.1503       6.6979       6.5463
   2194.3500      62.0457       2.3548       0.1490       6.7273       6.5880
   2194.5000      64.4623       2.3649       0.1401       7.1663       6.5528
   2194.6500      64.7932       2.3592       0.1383       7.4284       6.5690
   2194.8000      64.7382       2.3622       0.1380       7.1074       6.5386
   2194.9500      65.1123       2.3703       0.1301       6.9977       6.5248
   2195.1000      65.5194       2.3764       0.1356       6.3965       6.5998
