~VERSION -------------------------------------------
 VERS.                 2.0 : CWLS LOG ASCII STANDARD - VERSION 2.0
 WRAP.                  NO : ONE LINE PER DEPTH STEP
~WELL -----------------------------------------------
 WELL.                PEMBINA-A3 : Well name
 UWI .                CA-PEM-003        : Unique Well ID
 LAT .                53.0341        : Latitude
 LON .                -114.9876        : Longitude
 STRT.M               1500.00 : START DEPTH
 STOP.M               2199.90 : STOP DEPTH
 STEP.M               0.1500 : STEP
 NULL.                -9999 : NULL VALUE
~CURVE -----------------------------------------------
 DEPTH .M               : Depth
 GR    .GAPI            : Gamma Ray
 RHOB  .G/C3            : Bulk Density
 NPHI  .V/V             : Neutron Porosity
 RT    .OHMM            : Resistivity
 CALI  .IN              : Caliper
~A  DEPTH              GR        RHOB        NPHI          RT        CALI
# ...
   1731.7500      52.0280       2.3955       0.1230       5.4720       6.6125
   1731.9000      53.0648       2.4070       0.1250       5.8568       6.6278
   1732.0500      54.5559       2.4161       0.1301       6.3250       6.6370
   1732.2000      52.6210       2.4281       0.1236       6.3775       6.6508
   1732.3500      51.4620       2.4512       0.1182       6.0835       6.6368
   1732.5000      51.5465       2.4485       0.1211       6.5566       6.6352
   1732.6500      49.3950       2.4471       0.1212       6.1298       6.6598
   1732.8000      49.6596       2.4383       0.1159       6.1840       6.6601
   1732.9500      52.1597       2.4275       0.1136       6.2127       6.6119
   1733.1000      53.5553       2.4260       0.1195       5.9907       6.6348
   1733.2500      52.6609       2.4338       0.1186       6.0328       6.6800
   1733.4000      51.5718       2.4311       0.1223       6.1179       6.5889
   1733.5500      50.5351       2.4436       0.1210       5.9119       6.5440
   1733.7000      50.5497       2.4463       0.1274       5.6351       6.5026
   1733.8500      51.7747       2.4343       0.1268       5.7348       6.5784
   1734.0000      54.1165       2.4350       0.1311       6.0419       6.6022
   1734.1500      52.1167       2.4312       0.1298       6.1502       6.5605
   1734.3000      52.9239       2.4429       0.1362       6.2198       6.5299
   1734.4500      51.0332       2.4461       0.1363       6.4565       6.5216
   1734.6000      53.2817       2.4586       0.1336       6.3399       6.4554
   1734.7500      57.1055       2.4769       0.1359       6.4879       6.4104
   1734.9000      57.4426       2.4616       0.1289       6.7410       6.4226
   1735.0500      56.0682       2.4599       0.1246       6.0610       6.4528
   1735.2000      56.0335       2.4546       0.1290       6.1499       6.4744
   1735.3500      55.3192       2.4376       0.1304       6.4043       6.4617
   1735.5000      55.3013       2.4354       0.1329       5.7702       6.4457
   1735.6500      55.2629       2.4358       0.1317       5.4723       6.4098
   1735.8000      56.0190       2.4434       0.1290       5.5028       6.4175
   1735.9500      53.5188       2.4353       0.1296       5.3378       6.3550
   1736.1000      51.1220       2.4417       0.1291       5.6832       6.3773
   1736.2500      53.3955       2.4476       0.1271       6.1230       6.4477
   1736.4000      53.6058       2.4356       0.1300       6.3430       6.4833
   1736.5500      56.6426       2.4252       0.1344       7.0819       6.4589
   1736.7000      54.9234       2.4221       0.1335       7.0659       6.4955
   1736.8500      51.9663       2.4411       0.1327       7.0907       6.4515
   1737.0000      49.7246       2.4472       0.1351       7.2554       6.4668
   1737.1500      53.8676       2.4525       0.1398       7.2098       6.5176
   1737.3000      52.1816       2.4380       0.1395       7.0514       6.4924
   1737.4500      54.8972       2.4397       0.1401       6.8941       6.4816
   1737.6000      55.2259       2.4395       0.1362       7.1068       6.4737
   1737.7500      52.1604       2.4274       0.1357       6.6054       6.4528
   1737.9000      50.3429       2.4301       0.1393       6.4981       6.5090
   1738.0500      50.1828       2.4211       0.1404       7.2068       6.4946
   1738.2000      51.0812       2.4130       0.1324       7.1520       6.4507
   1738.3500      52.9307       2.4132       0.1286       6.8677       6.4922
   1738.5000      53.0103       2.4152       0.1241       7.1116       6.4814
   1738.6500      55.5001       2.4152       0.1243       7.3854       6.4656
   1738.8000      54.6759       2.4046       0.1291       7.1953       6.5168
   1738.9500      59.3163       2.4083       0.1338       7.0263       6.5928
   1739.1000      61.4187       2.4138       0.1278       6.7795       6.6344
   1739.2500      61.4534       2.4100       0.1265       6.4088       6.6005
   1739.4000      60.7885       2.4185       0.1178       6.1445       6.5612
   1739.5500      59.1701       2.4267       0.1198       6.0619       6.6286
   1739.7000      61.2400       2.4228       0.1248       6.5904       6.6498
   1739.8500      63.6462       2.4057       0.1255       7.0188       6.6315
   1740.0000      65.3714       2.3954       0.1225       6.5312       6.6080
   1740.1500      61.3391       2.4004       0.1203       6.7379       6.5847
   1740.3000      62.4448       2.3989       0.1199       6.6326       6.5770
   1740.4500      59.5278       2.4074       0.1127       6.8256       6.5675
   1740.6000      59.0540       2.4055       0.1186       7.0407       6.5593
   1740.7500      58.7149       2.4082       0.1170       7.6198       6.5404
   1740.9000      58.9564       2.4074       0.1164       7.3205       6.5668
   1741.0500      60.6434       2.4119       0.1231       6.7290       6.5505
   1741.2000      58.8512       2.4106       0.1288       6.6990       6.5932
   1741.3500      55.1500       2.4134       0.1393       6.5708       6.5544
   1741.5000      54.3053       2.4061       0.1362       7.3062       6.5976
   1741.6500      55.8594       2.4086       0.1306       7.1911       6.6458
   1741.8000      56.8885       2.4235       0.1269       7.4078       6.5958
   1741.9500      53.5672       2.4343       0.1304       7.7641       6.5817
   1742.1000      53.7943       2.4209       0.1318       7.2893       6.5283
   1742.2500      51.4102       2.4257       0.1306       7.6212       6.5693
   1742.4000      52.8983       2.4249       0.1376       7.5551       6.5999
   1742.5500      53.9167       2.4230       0.1361       7.9942       6.5915
   1742.7000      52.9509       2.4366       0.1321       7.3629       6.5546
   1742.8500      52.9273       2.4454       0.1303       6.7707       6.5383
   1743.0000      53.9929       2.4459       0.1298       6.3112       6.5219
   1743.1500      55.6621       2.4432       0.1347       6.0322       6.4984
   1743.3000      56.3225       2.4500       0.1327       6.0524       6.4845
   1743.4500      57.3317       2.4503       0.1354       5.7161       6.4387
   1743.6000      56.8033       2.4410       0.1360       5.7939       6.4964
   1743.7500      55.6405       2.4411       0.1303       5.5906       6.5348
   1743.9000      56.9599       2.4387       0.1330       5.5216       6.4675
   1744.0500      57.6685       2.4275       0.1324       5.7205       6.4892
   1744.2000      59.3108       2.4347       0.1353       5.4707       6.4937
   1744.3500      62.1834       2.4324       0.1267       5.6968       6.5156
   1744.5000      61.8363       2.4290       0.1270       5.0070       6.5730
   1744.6500      58.8128       2.4216       0.1318       5.2196       6.5353
   1744.8000      56.8420       2.4292       0.1353       4.9128       6.6000
   1744.9500      57.4983       2.4303       0.1366       4.8528       6.6132
   1745.1000      58.0903       2.4289       0.1436       5.1759       6.5803
   1745.2500      57.4707       2.4193       0.1472       5.0959       6.5893
   1745.4000      56.9622       2.4221       0.1446       5.5967       6.5884
   1745.5500      56.7661       2.4085       0.1434       5.0774       6.5484
   1745.7000      57.8822       2.3995       0.1436       4.9769       6.5311
   1745.8500      55.9378       2.3846       0.1489       5.5386       6.5706
   1746.0000      53.7783       2.3983       0.1519       6.0493       6.4762
   1746.1500      52.3726       2.3925       0.1469       6.2447       6.5214
   1746.3000      51.1939       2.3772       0.1557       6.5807       6.5046
   1746.4500      50.7262       2.3632       0.1603       6.5190       6.5007
   1746.6000      49.2065       2.3773       0.1529       6.3868       6.4640
   1746.7500      50.1722       2.3664       0.1588       6.0985       6.4173
   1746.9000      49.4733       2.3680       0.1572       6.2853       6.4048
   1747.0500      46.9216       2.3834       0.1510       6.0084       6.4212
