~VERSION -------------------------------------------
 VERS.                 2.0 : CWLS LOG ASCII STANDARD - VERSION 2.0
 WRAP.                  NO : ONE LINE PER DEPTH STEP
~WELL -----------------------------------------------
 WELL.                DAN-1X : Well name
 UWI .                DK-DAN-001        : Unique Well ID
 LAT .                55.4721        : Latitude
 LON .                3.9543        : Longitude
 STRT.M               2700.00 : START DEPTH
 STOP.M               3399.90 : STOP DEPTH
 STEP.M               0.1500 : STEP
 NULL.                -9999 : NULL VALUE
~CURVE -----------------------------------------------
 DEPTH .M               : Depth
 GR    .GAPI            : Gamma Ray
 RHOB  .G/C3            : Bulk Density
 NPHI  .V/V             : Neutron Porosity
 RT    .OHMM            : Resistivity
 CALI  .IN              : Caliper
~A  DEPTH              GR        RHOB        NPHI          RT        CALI
# ...
   3055.3500      23.9212       2.2598       0.3400      18.4122       8.5844
   3055.5000      23.2580       2.2555       0.3347      19.0910       8.6124
   3055.6500      22.5205       2.2587       0.3384      18.2846       8.5637
   3055.8000      23.2359       2.2619       0.3391      17.3299       8.5350
   3055.9500      22.7636       2.2648       0.3352      18.0981       8.5834
   3056.1000      22.3647       2.2690       0.3409      16.7803       8.5773
   3056.2500      21.6256       2.2695       0.3345      15.6102       8.6577
   3056.4000      20.7879       2.2722       0.3361      15.7106       8.7489
   3056.5500      19.6966       2.2864       0.3342      15.7840       8.7659
   3056.7000      20.1191       2.2945       0.3282      14.1677       8.8290
   3056.8500      20.9217       2.2910       0.3295      13.3265       8.8237
   3057.0000      20.5881       2.3033       0.3245      14.1386       8.7652
   3057.1500      20.3284       2.3048       0.3231      14.0074       8.7461
   3057.3000      20.7061       2.3072       0.3201      14.4249       8.7374
   3057.4500      20.0881       2.3151       0.3216      13.5803       8.7613
   3057.6000      19.5744       2.3207       0.3234      13.0740       8.7034
   3057.7500      19.3613       2.3097       0.3176      12.2299       8.6798
   3057.9000      19.5974       2.3263       0.3232      12.4344       8.6275
   3058.0500      19.2189       2.3127       0.3217      12.6336       8.5984
   3058.2000      19.4251       2.3247       0.3254      13.8453       8.5219
   3058.3500      19.1504       2.3265       0.3166      12.5860       8.5631
   3058.5000      19.4206       2.3287       0.3161      12.6274       8.6662
   3058.6500      19.3516       2.3114       0.3186      11.8235       8.7333
   3058.8000      19.4276       2.3092       0.3276      11.6070       8.7436
   3058.9500      20.1532       2.3057       0.3318      11.4804       8.6526
   3059.1000      20.0810       2.3039       0.3293      11.4818       8.7592
   3059.2500      19.4610       2.2991       0.3402      13.3497       8.7192
   3059.4000      19.0476       2.2938       0.3401      12.9765       8.7747
   3059.5500      19.8074       2.2823       0.3485      12.1002       8.8244
   3059.7000      19.3982       2.2840       0.3521      12.7189       8.8909
   3059.8500      18.2489       2.2811       0.3544      12.2115       8.9039
   3060.0000      18.0526       2.2690       0.3584      13.1008       8.8008
   3060.1500      18.3922       2.2704       0.3529      13.2074       8.6978
   3060.3000      18.7401       2.2560       0.3615      13.3973       8.7087
   3060.4500      18.7230       2.2579       0.3578      13.4521       8.7143
   3060.6000      18.0229       2.2589       0.3532      14.1109       8.6403
   3060.7500      18.8219       2.2692       0.3578      15.8320       8.7080
   3060.9000      19.8285       2.2647       0.3499      14.7087       8.6295
   3061.0500      19.7073       2.2714       0.3517      14.0503       8.5270
   3061.2000      19.5278       2.2672       0.3528      12.9069       8.5029
   3061.3500      20.0319       2.2640       0.3552      13.0730       8.4960
   3061.5000      19.0965       2.2542       0.3527      12.6264       8.5461
   3061.6500      18.5749       2.2634       0.3515      13.0286       8.6161
   3061.8000      18.0705       2.2689       0.3438      13.7407       8.6076
   3061.9500      18.5780       2.2662       0.3429      13.8414       8.6879
   3062.1000      18.6827       2.2586       0.3360      13.3147       8.7066
   3062.2500      19.0695       2.2427       0.3303      11.8632       8.7350
   3062.4000      20.1820       2.2499       0.3329      12.0532       8.6818
   3062.5500      20.9085       2.2463       0.3311      12.2552       8.7489
   3062.7000      20.8196       2.2412       0.3263      12.8113       8.6976
   3062.8500      21.5128       2.2624       0.3242      13.9096       8.6426
   3063.0000      22.4559       2.2510       0.3202      11.8532       8.6989
   3063.1500      22.2075       2.2527       0.3237      12.6522       8.7061
   3063.3000      21.9882       2.2571       0.3186      11.9802       8.6423
   3063.4500      22.2620       2.2574       0.3228      12.3447       8.6176
   3063.6000      22.8795       2.2575       0.3296      11.9250       8.6353
   3063.7500      22.3385       2.2433       0.3267      12.1708       8.5535
   3063.9000      21.4126       2.2475       0.3298      12.3857       8.5800
   3064.0500      21.3173       2.2484       0.3291      12.3272       8.5017
   3064.2000      21.6807       2.2421       0.3319      12.3837       8.5041
   3064.3500      21.8325       2.2418       0.3295      12.4862       8.5314
   3064.5000      22.4806       2.2485       0.3305      12.7004       8.5169
   3064.6500      23.2086       2.2544       0.3252      13.2956       8.4921
   3064.8000      23.5494       2.2528       0.3221      13.0976       8.5097
   3064.9500      22.5408       2.2564       0.3224      12.5104       8.4906
   3065.1000      23.0109       2.2568       0.3255      12.1751       8.4567
   3065.2500      23.2983       2.2729       0.3262      12.3824       8.4482
   3065.4000      23.8862       2.2749       0.3268      12.5866       8.4217
   3065.5500      22.8930       2.2793       0.3279      13.2817       8.5067
   3065.7000      22.9406       2.2683       0.3253      13.7487       8.5380
   3065.8500      23.2549       2.2602       0.3289      13.0698       8.5674
   3066.0000      22.8537       2.2692       0.3325      14.0929       8.5064
   3066.1500      23.2485       2.2626       0.3331      12.6521       8.5024
   3066.3000      22.6762       2.2615       0.3383      11.7156       8.4898
   3066.4500      23.3000       2.2508       0.3335      11.3818       8.4408
   3066.6000      22.9280       2.2470       0.3360      11.5814       8.4523
   3066.7500      22.8608       2.2559       0.3399      10.4745       8.5002
   3066.9000      23.2799       2.2426       0.3376      10.2636       8.5002
   3067.0500      24.0715       2.2386       0.3365      10.5168       8.4329
   3067.2000      23.7191       2.2393       0.3282      10.2501       8.4004
   3067.3500      22.6209       2.2433       0.3291      10.0434       8.4165
   3067.5000      21.9728       2.2384       0.3294      10.5797       8.4131
   3067.6500      21.4410       2.2315       0.3280       9.7491       8.4119
   3067.8000      20.6872       2.2234       0.3337       9.6849       8.4767
   3067.9500      21.0140       2.2168       0.3359       9.4842       8.5062
   3068.1000      20.2426       2.2228       0.3363       9.4918       8.5156
   3068.2500      19.6338       2.2178       0.3352       9.6075       8.4513
   3068.4000      18.2827       2.2096       0.3327       8.9878       8.4850
   3068.5500      18.2569       2.2060       0.3286       8.9514       8.5847
   3068.7000      18.9691       2.2128       0.3303       9.1827       8.6595
   3068.8500      18.9263       2.2286       0.3264       9.5463       8.6549
   3069.0000      18.6051       2.2228       0.3248       9.8323       8.7314
   3069.1500      18.6348       2.2263       0.3270       9.2988       8.6658
   3069.3000      18.6227       2.2482       0.3260       9.9635       8.6181
   3069.4500      18.5374       2.2592       0.3318      10.2821       8.6156
   3069.6000      19.1021       2.2473       0.3229      10.8896       8.7015
   3069.7500      18.9033       2.2513       0.3233      12.3839       8.7428
   3069.9000      18.8820       2.2557       0.3259      13.3533       8.7988
   3070.0500      17.7836       2.2591       0.3353      13.8298       8.7566
   3070.2000      18.1102       2.2582       0.3393      16.4495       8.7106
   3070.3500      19.1150       2.2524       0.3412      17.0724       8.6760
   3070.5000      19.7030       2.2644       0.3511      15.6876       8.5839
   3070.6500      20.9334       2.2726       0.3557      17.0277       8.5839
