~VERSION -------------------------------------------
 VERS.                 2.0 : CWLS LOG ASCII STANDARD - VERSION 2.0
 WRAP.                  NO : ONE LINE PER DEPTH STEP
~WELL -----------------------------------------------
 WELL.                DAN-1X : Well name
 UWI .                DK-DAN-001        : Unique Well ID
 LAT .                55.4721        : Latitude
 LON .                3.9543        : Longitude
 STRT.M               2700.00 : START DEPTH
 STOP.M               3399.90 : STOP DEPTH
 STEP.M               0.1500 : STEP
 NULL.                -9999 : NULL VALUE
~CURVE -----------------------------------------------
 DEPTH .M               : Depth
 GR    .GAPI            : Gamma Ray
 RHOB  .G/C3            : Bulk Density
 NPHI  .V/V             : Neutron Porosity
 RT    .OHMM            : Resistivity
 CALI  .IN              : Caliper
~A  DEPTH              GR        RHOB        NPHI          RT        CALI
# ...
   2839.0500      23.3298       2.2745       0.3511      17.1458       8.4796
   2839.2000      23.0829       2.2773       0.3508      17.4835       8.5248
   2839.3500      22.9137       2.2688       0.3437      14.9993       8.4946
   2839.5000      23.9600       2.2709       0.3440      12.8818       8.5397
   2839.6500      24.1719       2.2668       0.3415      12.4202       8.5243
   2839.8000      24.8732       2.2693       0.3445      11.8548       8.4944
   2839.9500      25.0218       2.2781       0.3503      11.3219       8.5827
   2840.1000      25.7305       2.2832       0.3421       9.8450       8.6728
   2840.2500      25.9127       2.2780       0.3309       8.6667       8.6942
   2840.4000      25.0176       2.2683       0.3363       8.9944       8.6964
   2840.5500      25.2198       2.2746       0.3395       8.6691       8.7259
   2840.7000      24.3543       2.2765       0.3352       8.2579       8.6657
   2840.8500      24.6004       2.2722       0.3336       8.2188       8.7171
   2841.0000      23.8701       2.2727       0.3366       7.8151       8.7029
   2841.1500      23.1783       2.2764       0.3392       6.9272       8.7523
   2841.3000      23.1797       2.2749       0.3405       7.0749       8.7484
   2841.4500      22.9046       2.2797       0.3428       6.9513       8.7518
   2841.6000      21.7806       2.2848       0.3429       7.4686       8.6811
   2841.7500      21.3719       2.2779       0.3438       7.4826       8.6577
   2841.9000      21.6843       2.2780       0.3408       7.9356       8.5758
   2842.0500      21.9511       2.2656       0.3439       7.2019       8.5485
   2842.2000      22.8834       2.2633       0.3477       7.4856       8.5954
   2842.3500      22.5065       2.2782       0.3523       7.9930       8.5771
   2842.5000      22.3233       2.2819       0.3481       8.1335       8.6387
   2842.6500      22.8854       2.2638       0.3495       8.5015       8.6752
   2842.8000      22.5833       2.2665       0.3471       9.4900       8.7224
   2842.9500      21.9860       2.2752       0.3406       9.0462       8.7153
   2843.1000      21.4620       2.2577       0.3394       9.4517       8.7830
   2843.2500      21.3320       2.2709       0.3458       9.4078       8.7696
   2843.4000      20.9284       2.2584       0.3419       9.1811       8.8216
   2843.5500      20.6918       2.2553       0.3449       9.3210       8.8007
   2843.7000      21.0949       2.2506       0.3513       9.3660       8.7374
   2843.8500      21.3115       2.2389       0.3490       9.4490       8.6409
   2844.0000      22.0253       2.2422       0.3484       9.0591       8.5590
   2844.1500      22.6016       2.2497       0.3435       8.7884       8.5347
   2844.3000      22.3784       2.2517       0.3454       8.6804       8.5429
   2844.4500      22.2766       2.2524       0.3399       9.1091       8.5187
   2844.6000      22.9883       2.2347       0.3372       8.2439       8.6021
   2844.7500      22.8733       2.2224       0.3339       8.1680       8.5916
   2844.9000      21.9084       2.2226       0.3365       7.8879       8.6174
   2845.0500      22.5439       2.2432       0.3343       8.0235       8.6662
   2845.2000      21.4818       2.2529       0.3299       8.1692       8.7223
   2845.3500      20.9158       2.2336       0.3261       7.8212       8.8085
   2845.5000      20.9302       2.2221       0.3303       8.6212       8.9007
   2845.6500      20.4688       2.2345       0.3267       8.7949       8.8937
   2845.8000      19.8041       2.2209       0.3225       8.1412       8.9240
   2845.9500      20.2968       2.2097       0.3274       8.9175       8.9749
   2846.1000      20.6349       2.2240       0.3310       8.8349       8.8303
   2846.2500      20.7989       2.2063       0.3354       9.1220       8.8799
   2846.4000      21.5976       2.2276       0.3374      10.3926       8.8021
   2846.5500      21.1382       2.2256       0.3353      11.7297       8.8113
   2846.7000      21.5675       2.2223       0.3305      11.5989       8.7777
   2846.8500      21.0767       2.2354       0.3370      11.7558       8.8054
   2847.0000      20.8698       2.2210       0.3423      12.4645       8.7582
   2847.1500      21.3311       2.2121       0.3466      13.3992       8.6960
   2847.3000      21.9653       2.2100       0.3407      14.1739       8.7350
   2847.4500      22.5938       2.2075       0.3462      14.3570       8.6889
   2847.6000      22.8730       2.2122       0.3464      14.8930       8.6830
   2847.7500      23.2290       2.2249       0.3484      15.4337       8.7160
   2847.9000      23.7867       2.2191       0.3464      15.2226       8.8574
   2848.0500      23.6516       2.2104       0.3494      14.9210       8.7884
   2848.2000      23.8650       2.2096       0.3530      14.0337       8.7755
   2848.3500      24.4840       2.2209       0.3530      14.6066       8.7311
   2848.5000      24.6360       2.2319       0.3521      14.6335       8.6910
   2848.6500      24.4269       2.2359       0.3555      15.0404       8.7234
   2848.8000      24.7475       2.2416       0.3564      15.5291       8.6892
   2848.9500      24.4899       2.2444       0.3505      15.0470       8.6786
   2849.1000      24.4492       2.2388       0.3515      15.5702       8.6851
   2849.2500      24.3007       2.2496       0.3492      16.2257       8.6212
   2849.4000      24.1840       2.2452       0.3439      15.5204       8.5827
   2849.5500      25.0137       2.2397       0.3465      14.5746       8.5308
   2849.7000      24.7314       2.2410       0.3461      14.1051       8.5450
   2849.8500      25.1549       2.2390       0.3484      13.6724       8.6339
   2850.0000      25.4996       2.2409       0.3407      12.4270       8.7596
   2850.1500      24.6574       2.2451       0.3369      13.1242       8.8102
   2850.3000      24.6426       2.2465       0.3384      13.7804       8.7915
   2850.4500      23.7246       2.2506       0.3315      12.1242       8.8491
   2850.6000      22.5366       2.2451       0.3312      13.3720       8.8776
   2850.7500      22.1625       2.2550       0.3387      13.1688       8.9326
   2850.9000      21.6130       2.2543       0.3397      13.8014       8.9613
   2851.0500      21.3271       2.2474       0.3348      14.9414       8.9707
   2851.2000      21.1691       2.2354       0.3277      16.7106       8.9836
   2851.3500      20.9821       2.2256       0.3233      17.3874       8.8996
   2851.5000      20.9005       2.2328       0.3192      15.6457       8.8225
   2851.6500      21.0601       2.2422       0.3169      14.8955       8.8001
   2851.8000      21.4783       2.2497       0.3179      14.7357       8.7567
   2851.9500      21.8080       2.2412       0.3132      14.2971       8.7171
   2852.1000      21.8009       2.2554       0.3117      14.4593       8.7669
   2852.2500      21.0997       2.2509       0.3150      14.2325       8.7489
   2852.4000      20.8178       2.2492       0.3240      13.5900       8.6703
   2852.5500      19.8498       2.2596       0.3158      12.6471       8.6872
   2852.7000      20.0141       2.2655       0.3148      13.2509       8.6453
   2852.8500      19.7098       2.2818       0.3075      13.8721       8.6412
   2853.0000      19.9765       2.2931       0.3122      13.2902       8.6089
   2853.1500      20.9454       2.2885       0.3090      12.1839       8.6461
   2853.3000      20.4496       2.2834       0.3162      10.2984       8.6541
   2853.4500      20.4498       2.2672       0.3192      10.9756       8.6872
   2853.6000      21.3059       2.2687       0.3203      10.7915       8.6169
   2853.7500      21.5127       2.2642       0.3198      10.1771       8.5646
   2853.9000      21.9206       2.2701       0.3193      10.0330       8.6171
   2854.0500      22.2942       2.2755       0.3229      11.1758       8.6559
   2854.2000      22.1806       2.2755       0.3261      11.1826       8.6667
   2854.3500      22.6376       2.2872       0.3272      11.1434       8.6842
