~VERSION -------------------------------------------
 VERS.                 2.0 : CWLS LOG ASCII STANDARD - VERSION 2.0
 WRAP.                  NO : ONE LINE PER DEPTH STEP
~WELL -----------------------------------------------
 WELL.                DAN-1X : Well name
 UWI .                DK-DAN-001        : Unique Well ID
 LAT .                55.4721        : Latitude
 LON .                3.9543        : Longitude
 STRT.M               2700.00 : START DEPTH
 STOP.M               3399.90 : STOP DEPTH
 STEP.M               0.1500 : STEP
 NULL.                -9999 : NULL VALUE
~CURVE -----------------------------------------------
 DEPTH .M               : Depth
 GR    .GAPI            : Gamma Ray
 RHOB  .G/C3            : Bulk Density
 NPHI  .V/V             : Neutron Porosity
 RT    .OHMM            : Resistivity
 CALI  .IN              : Caliper
~A  DEPTH              GR        RHOB        NPHI          RT        CALI
   2700.0000       9.7381       1.1343       0.1586       4.4172       4.3766
   2700.1500      11.1899       1.2515       0.1742       5.0180       5.2534
   2700.3000      12.6010       1.3584       0.1907       5.4466       6.1923
   2700.4500      13.7274       1.4643       0.2054       6.2829       7.0993
   2700.6000      15.2783       1.5865       0.2224       7.2094       7.9684
   2700.7500      16.5653       1.6996       0.2386       8.5528       8.7994
   2700.9000      17.3216       1.8084       0.2538      10.0865       8.7590
   2701.0500      18.5691       1.9172       0.2755      11.3908       8.8225
   2701.2000      19.2855       2.0258       0.2938      12.6507       8.7805
   2701.3500      20.7369       2.1340       0.3096      14.3598       8.7653
   2701.5000      21.8170       2.2388       0.3271      16.5735       8.7316
   2701.6500      21.6211       2.2250       0.3214      16.1319       8.7163
   2701.8000      21.7647       2.2128       0.3259      14.7619       8.6710
   2701.9500      21.9536       2.2139       0.3247      14.5792       8.5850
   2702.1000      21.5155       2.2359       0.3236      15.2687       8.6159
   2702.2500      22.0442       2.2404       0.3260      14.6285       8.6649
   2702.4000      22.4242       2.2386       0.3236      16.9023       8.7408
   2702.5500      22.5860       2.2332       0.3258      16.9008       8.7586
   2702.7000      22.8587       2.2309       0.3236      15.7230       8.7495
   2702.8500      23.0305       2.2251       0.3332      16.1677       8.7664
   2703.0000      23.5441       2.2271       0.3331      16.0717       8.8044
   2703.1500      24.0490       2.2217       0.3284      15.8013       8.7912
   2703.3000      23.5753       2.2339       0.3240      15.4238       8.7876
   2703.4500      23.3440       2.2405       0.3286      14.4670       8.8114
   2703.6000      22.5676       2.2355       0.3326      14.6717       8.7114
   2703.7500      22.6269       2.2320       0.3314      12.9473       8.6423
   2703.9000      23.4223       2.2249       0.3370      11.6563       8.6106
   2704.0500      23.2292       2.2302       0.3345      12.0084       8.5996
   2704.2000      23.2767       2.2385       0.3327      12.1471       8.6193
   2704.3500      22.5955       2.2462       0.3331      11.7632       8.6718
   2704.5000      22.8757       2.2564       0.3332      11.3074       8.6161
   2704.6500      23.2469       2.2633       0.3389      10.3341       8.5967
   2704.8000      23.7366       2.2596       0.3414      10.4216       8.5906
   2704.9500      22.9814       2.2665       0.3403      10.0836       8.6126
   2705.1000      23.1360       2.2624       0.3435       9.3965       8.6496
   2705.2500      23.3540       2.2573       0.3483       9.8489       8.7176
   2705.4000      23.5824       2.2624       0.3506       8.6829       8.7045
   2705.5500      23.7180       2.2615       0.3543       8.1154       8.6523
   2705.7000      23.6613       2.2587       0.3576       7.7996       8.6288
   2705.8500      23.7677       2.2664       0.3495       7.8653       8.6395
   2706.0000      23.6225       2.2673       0.3518       7.6180       8.6791
   2706.1500      22.8814       2.2657       0.3607       7.5593       8.7176
   2706.3000      23.2965       2.2610       0.3677       7.7204       8.6961
   2706.4500      22.9186       2.2619       0.3662       8.1035       8.6320
   2706.6000      23.1162       2.2406       0.3601       8.0806       8.7238
   2706.7500      22.6817       2.2381       0.3633       8.8001       8.7464
   2706.9000      21.9745       2.2487       0.3593      10.1447       8.7733
   2707.0500      21.9100       2.2449       0.3561      10.2234       8.7375
   2707.2000      22.8441       2.2421       0.3647      10.2778       8.7462
   2707.3500      22.8275       2.2454       0.3609      10.9795       8.6846
   2707.5000      22.9546       2.2409       0.3632      11.2577       8.6567
   2707.6500      21.9842       2.2367       0.3580      12.0718       8.6311
   2707.8000      21.6329       2.2435       0.3572      12.5317       8.6195
   2707.9500      21.9643       2.2382       0.3669      12.4790       8.7016
   2708.1000      22.1059       2.2347       0.3646      12.8044       8.6019
   2708.2500      22.3437       2.2363       0.3565      13.3112       8.5375
   2708.4000      22.5736       2.2431       0.3557      13.6625       8.5152
   2708.5500      22.0855       2.2350       0.3505      13.8753       8.6287
   2708.7000      21.8111       2.2361       0.3515      14.0575       8.6594
   2708.8500      21.8827       2.2263       0.3491      12.6055       8.7075
   2709.0000      21.7792       2.2164       0.3508      13.8199       8.6827
   2709.1500      21.1533       2.2239       0.3441      14.3556       8.7606
   2709.3000      20.4474       2.2271       0.3365      14.6585       8.7098
   2709.4500      20.6625       2.2259       0.3350      14.8875       8.7659
   2709.6000      20.9892       2.2407       0.3324      13.9399       8.8830
   2709.7500      21.2344       2.2455       0.3358      13.6672       8.9242
   2709.9000      21.7661       2.2452       0.3314      12.1367       8.9497
   2710.0500      21.7053       2.2469       0.3292      11.0088       8.8947
   2710.2000      21.1707       2.2442       0.3224      10.0898       8.8540
   2710.3500      21.7673       2.2390       0.3253       9.0608       8.7865
   2710.5000      21.2562       2.2454       0.3178       9.4759       8.7820
   2710.6500      22.1121       2.2444       0.3266       9.0360       8.7445
   2710.8000      21.9813       2.2361       0.3232       8.7246       8.8212
   2710.9500      21.7709       2.2276       0.3149       9.5026       8.8198
   2711.1000      21.3838       2.2337       0.3171       9.4996       8.7378
   2711.2500      20.6209       2.2370       0.3214       8.8704       8.6599
   2711.4000      20.4984       2.2266       0.3229       8.7988       8.6924
   2711.5500      20.4501       2.2314       0.3229       8.7795       8.6451
   2711.7000      20.6401       2.2445       0.3193      10.0386       8.6311
   2711.8500      20.4892       2.2409       0.3202      12.0006       8.6664
   2712.0000      20.7443       2.2465       0.3205      11.6594       8.6851
   2712.1500      21.5207       2.2463       0.3210      10.4835       8.6050
   2712.3000      21.9346       2.2355       0.3325      10.5547       8.5584
   2712.4500      22.1331       2.2325       0.3309      10.3882       8.4197
   2712.6000      21.9024       2.2352       0.3355      11.0855       8.4405
   2712.7500      21.1704       2.2530       0.3275      10.3952       8.5474
   2712.9000      20.3154       2.2554       0.3282      10.0180       8.4328
   2713.0500      19.9572       2.2655       0.3287      11.3549       8.5214
   2713.2000      19.4949       2.2739       0.3245      12.1339       8.5810
   2713.3500      19.4046       2.2746       0.3251      12.1957       8.5438
   2713.5000      19.1661       2.2641       0.3267      11.0588       8.4671
   2713.6500      18.8322       2.2779       0.3226      11.7830       8.4821
   2713.8000      19.6166       2.2752       0.3233      11.0689       8.4881
   2713.9500      19.6193       2.2953       0.3212      10.7104       8.6090
   2714.1000      20.0670       2.2913       0.3207      10.2306       8.5794
   2714.2500      20.1719       2.2739       0.3215       9.5716       8.4918
   2714.4000      19.8950       2.2688       0.3208      10.1581       8.5466
   2714.5500      19.7027       2.2813       0.3229      10.5465       8.4550
   2714.7000      19.5621       2.2692       0.3196       9.8256       8.4383
   2714.8500      19.7059       2.2771       0.3169       8.7983       8.4256
   2715.0000      18.8364       2.2710       0.3108       8.8044       8.4523
   2715.1500      18.7440       2.2581       0.3182       9.9204       8.5101
   2715.3000      18.8785       2.2636       0.3138      10.6711       8.6040
