~VERSION -------------------------------------------
 VERS.                 2.0 : CWLS LOG ASCII STANDARD - VERSION 2.0
 WRAP.                  NO : ONE LINE PER DEPTH STEP
~WELL -----------------------------------------------
 WELL.                DAN-1X : Well name
 UWI .                DK-DAN-001        : Unique Well ID
 LAT .                55.4721        : Latitude
 LON .                3.9543        : Longitude
 STRT.M               2700.00 : START DEPTH
 STOP.M               3399.90 : STOP DEPTH
 STEP.M               0.1500 : STEP
 NULL.                -9999 : NULL VALUE
~CURVE -----------------------------------------------
 DEPTH .M               : Depth
 GR    .GAPI            : Gamma Ray
 RHOB  .G/C3            : Bulk Density
 NPHI  .V/V             : Neutron Porosity
 RT    .OHMM            : Resistivity
 CALI  .IN              : Caliper
~A  DEPTH              GR        RHOB        NPHI          RT        CALI
# ...
   3148.0500      24.7420       2.2005       0.3572      17.2142       8.4527
   3148.2000      25.7244       2.1945       0.3570      16.1151       8.5168
   3148.3500      26.2962       2.1936       0.3539      16.2360       8.5615
   3148.5000      25.2427       2.2060       0.3575      15.1171       8.5622
   3148.6500      25.7782       2.1936       0.3623      14.7495       8.4911
   3148.8000      25.4352       2.2000       0.3582      14.9643       8.5267
   3148.9500      26.2999       2.2241       0.3591      14.4267       8.5276
   3149.1000      25.5770       2.2429       0.3591      14.8185       8.6262
   3149.2500      25.9994       2.2595       0.3608      14.7654       8.6780
   3149.4000      25.9932       2.2658       0.3611      15.9318       8.6115
   3149.5500      25.2090       2.2626       0.3599      14.8279       8.5814
   3149.7000      24.9988       2.2589       0.3515      17.2304       8.4545
   3149.8500      24.8018       2.2545       0.3538      18.7281       8.4484
   3150.0000      24.5442       2.2600       0.3476      19.0156       8.4524
   3150.1500      25.2318       2.2587       0.3402      18.3326       8.5185
   3150.3000      24.4395       2.2561       0.3454      18.3782       8.4491
   3150.4500      24.2947       2.2502       0.3447      18.9386       8.4652
   3150.6000      23.3861       2.2532       0.3404      18.6786       8.4268
   3150.7500      23.9751       2.2510       0.3383      17.5264       8.4740
   3150.9000      24.0550       2.2540       0.3314      15.6763       8.5438
   3151.0500      24.2867       2.2480       0.3258      15.4069       8.5519
   3151.2000      23.7771       2.2468       0.3241      15.9010       8.6386
   3151.3500      23.6008       2.2312       0.3197      16.4558       8.6136
   3151.5000      23.0345       2.2335       0.3190      16.6264       8.6867
   3151.6500      22.0447       2.2407       0.3153      17.5606       8.6560
   3151.8000      22.3701       2.2367       0.3199      18.6467       8.7131
   3151.9500      21.7444       2.2191       0.3196      18.6113       8.6808
   3152.1000      22.0587       2.2193       0.3213      18.0330       8.6789
   3152.2500      22.0967       2.2091       0.3240      17.3134       8.6526
   3152.4000      22.2870       2.1960       0.3191      15.5199       8.6230
   3152.5500      23.2813       2.2041       0.3218      15.7693       8.6336
   3152.7000      22.3138       2.2089       0.3267      15.4071       8.5882
   3152.8500      22.0856       2.2223       0.3171      16.0005       8.5625
   3153.0000      21.8989       2.2198       0.3233      16.7386       8.4715
   3153.1500      20.9151       2.2307       0.3295      16.2210       8.5102
   3153.3000      21.2851       2.2301       0.3285      15.0875       8.5023
   3153.4500      20.9618       2.2385       0.3241      14.0160       8.5291
   3153.6000      21.0572       2.2372       0.3218      13.4580       8.5371
   3153.7500      21.0989       2.2327       0.3198      13.7843       8.5314
   3153.9000      21.5203       2.2189       0.3262      16.3871       8.5447
   3154.0500      21.8283       2.2282       0.3255      14.5529       8.5219
   3154.2000      21.3671       2.2333       0.3236      14.1329       8.4820
   3154.3500      20.8817       2.2399       0.3290      12.9401       8.5384
   3154.5000      21.5529       2.2490       0.3262      12.7053       8.6039
   3154.6500      22.5470       2.2390       0.3248      11.6249       8.5678
   3154.8000      21.8989       2.2341       0.3269      10.7148       8.5407
   3154.9500      21.3822       2.2334       0.3293       9.8194       8.5706
   3155.1000      21.4901       2.2285       0.3303      10.2298       8.5409
   3155.2500      21.6386       2.2375       0.3314      10.3303       8.5446
   3155.4000      21.4839       2.2532       0.3317      11.2558       8.5862
   3155.5500      21.3838       2.2445       0.3305      11.9634       8.6186
   3155.7000      22.1362       2.2353       0.3279      11.4585       8.6821
   3155.8500      22.8282       2.2227       0.3357      11.1168       8.6642
   3156.0000      23.2884       2.2342       0.3322      10.5483       8.6695
   3156.1500      23.7267       2.2338       0.3304      10.2465       8.6315
   3156.3000      23.1243       2.2361       0.3305      10.5051       8.6240
   3156.4500      23.2547       2.2238       0.3379      12.2458       8.5626
   3156.6000      23.0815       2.2191       0.3401      12.1761       8.5588
   3156.7500      22.4644       2.2214       0.3487      12.9507       8.5332
   3156.9000      21.8143       2.2392       0.3444      11.4975       8.5043
   3157.0500      21.5820       2.2287       0.3431      11.1340       8.5282
   3157.2000      21.4306       2.2262       0.3480      10.8342       8.4628
   3157.3500      21.4958       2.2384       0.3441      13.2171       8.4849
   3157.5000      21.3982       2.2265       0.3452      13.4002       8.5466
   3157.6500      21.3657       2.2424       0.3426      14.4537       8.5925
   3157.8000      21.4931       2.2497       0.3372      14.4597       8.6047
   3157.9500      22.8377       2.2486       0.3299      13.7662       8.6140
   3158.1000      23.1028       2.2503       0.3264      13.0795       8.6302
   3158.2500      22.9064       2.2433       0.3227      13.6591       8.6046
   3158.4000      23.0575       2.2287       0.3236      13.8967       8.5384
   3158.5500      22.9660       2.2271       0.3280      12.6927       8.4687
   3158.7000      22.9309       2.2405       0.3319      12.2887       8.5369
   3158.8500      23.4060       2.2416       0.3266      12.5211       8.5605
   3159.0000      22.4985       2.2402       0.3300      12.4999       8.5521
   3159.1500      22.4437       2.2308       0.3316      13.1447       8.5753
   3159.3000      22.9005       2.2313       0.3295      13.2775       8.5622
   3159.4500      22.6335       2.2431       0.3259      11.6323       8.5721
   3159.6000      22.9721       2.2473       0.3253      11.3185       8.5090
   3159.7500      23.6596       2.2497       0.3179      10.9148       8.4700
   3159.9000      23.7721       2.2341       0.3194      12.3610       8.5403
   3160.0500      23.9452       2.2492       0.3285      14.2660       8.6201
   3160.2000      23.4449       2.2363       0.3242      15.5063       8.6576
   3160.3500      23.2101       2.2252       0.3235      13.4018       8.6030
   3160.5000      23.7556       2.2316       0.3241      12.2040       8.4847
   3160.6500      23.0976       2.2264       0.3260      11.9018       8.4708
   3160.8000      22.5744       2.2147       0.3236      12.6085       8.4991
   3160.9500      21.6775       2.2142       0.3270      13.9126       8.4970
   3161.1000      21.4003       2.2119       0.3327      14.3937       8.5704
   3161.2500      21.3280       2.2138       0.3337      13.2115       8.5818
   3161.4000      21.6221       2.2073       0.3340      13.6003       8.5768
   3161.5500      21.0548       2.2130       0.3239      14.3708       8.5813
   3161.7000      20.5186       2.2058       0.3232      14.2726       8.5598
   3161.8500      19.7495       2.2100       0.3283      13.1964       8.5755
   3162.0000      20.4754       2.2067       0.3245      14.2990       8.6716
   3162.1500      20.6270       2.2107       0.3247      13.6871       8.6587
   3162.3000      20.2779       2.2076       0.3255      14.7227       8.6578
   3162.4500      21.2813       2.1926       0.3224      14.8996       8.7314
   3162.6000      20.6594       2.1970       0.3228      15.2430       8.6628
   3162.7500      20.8828       2.1878       0.3285      15.5782       8.6952
   3162.9000      20.7722       2.1966       0.3283      14.0383       8.7351
   3163.0500      21.3071       2.1969       0.3222      14.0472       8.7006
   3163.2000      21.7347       2.2202       0.3237      13.9604       8.6324
   3163.3500      23.0435       2.2213       0.3294      15.2191       8.6094
