~VERSION -------------------------------------------
 VERS.                 2.0 : CWLS LOG ASCII STANDARD - VERSION 2.0
 WRAP.                  NO : ONE LINE PER DEPTH STEP
~WELL -----------------------------------------------
 WELL.                DAN-1X : Well name
 UWI .                DK-DAN-001        : Unique Well ID
 LAT .                55.4721        : Latitude
 LON .                3.9543        : Longitude
 STRT.M               2700.00 : START DEPTH
 STOP.M               3399.90 : STOP DEPTH
 STEP.M               0.1500 : STEP
 NULL.                -9999 : NULL VALUE
~CURVE -----------------------------------------------
 DEPTH .M               : Depth
 GR    .GAPI            : Gamma Ray
 RHOB  .G/C3            : Bulk Density
 NPHI  .V/V             : Neutron Porosity
 RT    .OHMM            : Resistivity
 CALI  .IN              : Caliper
~A  DEPTH              GR        RHOB        NPHI          RT        CALI
# ...
   3379.8000      23.0487       2.2116       0.3384      13.8325       8.5563
   3379.9500      22.4039       2.2037       0.3410      13.6985       8.5691
   3380.1000      21.9872       2.2066       0.3456      12.9222       8.6007
   3380.2500      21.7974       2.2145       0.3456      11.3885       8.6429
   3380.4000      22.2808       2.2275       0.3468      10.8335       8.7584
   3380.5500      21.6752       2.2346       0.3500      10.7452       8.7646
   3380.7000      22.0969       2.2373       0.3500      10.8740       8.7838
   3380.8500      22.4332       2.2517       0.3494      10.4912       8.7838
   3381.0000      21.5330       2.2515       0.3424      11.0824       8.7879
   3381.1500      21.5675       2.2494       0.3428      11.1065       8.7331
   3381.3000      21.1805       2.2373       0.3496      13.1248       8.6760
   3381.4500      20.1874       2.2406       0.3482      12.6706       8.5858
   3381.6000      20.9303       2.2366       0.3436      12.4813       8.5767
   3381.7500      21.6458       2.2422       0.3453      11.7235       8.5349
   3381.9000      22.1487       2.2453       0.3493      12.1230       8.4734
   3382.0500      22.6584       2.2289       0.3497      13.2460       8.4820
   3382.2000      22.7231       2.2303       0.3522      12.6701       8.4986
   3382.3500      23.4823       2.2274       0.3562      13.2058       8.4718
   3382.5000      22.7033       2.2258       0.3526      13.9470       8.4583
   3382.6500      22.5378       2.2140       0.3562      14.1169       8.5328
   3382.8000      22.1353       2.2246       0.3543      12.8134       8.5766
   3382.9500      22.9627       2.2247       0.3501      12.8601       8.6758
   3383.1000      23.2584       2.2276       0.3490      12.5427       8.7423
   3383.2500      23.2330       2.2323       0.3446      12.6669       8.7262
   3383.4000      23.2717       2.2390       0.3413      13.3215       8.7037
   3383.5500      23.2717       2.2185       0.3410      13.2096       8.6938
   3383.7000      22.8462       2.2298       0.3430      13.2878       8.7600
   3383.8500      23.0484       2.2173       0.3461      14.4134       8.8126
   3384.0000      23.5544       2.2307       0.3453      14.2349       8.8188
   3384.1500      23.1154       2.2273       0.3407      13.8513       8.7488
   3384.3000      24.0432       2.2254       0.3379      12.4627       8.7329
   3384.4500      24.4432       2.2294       0.3367      13.0756       8.7224
   3384.6000      24.4749       2.2274       0.3447      12.8526       8.6725
   3384.7500      24.1803       2.2313       0.3479      13.9072       8.6252
   3384.9000      23.6759       2.2188       0.3454      12.5859       8.6422
   3385.0500      23.1728       2.2290       0.3479      12.8574       8.7037
   3385.2000      22.2878       2.2302       0.3479      12.9225       8.6531
   3385.3500      21.7804       2.2319       0.3462      11.6823       8.6619
   3385.5000      22.5876       2.2378       0.3560      10.3650       8.6723
   3385.6500      22.1887       2.2418       0.3494      11.2549       8.6594
   3385.8000      22.8028       2.2565       0.3514      11.4270       8.6739
   3385.9500      22.7349       2.2784       0.3487      11.0494       8.6880
   3386.1000      23.3411       2.2831       0.3539      11.2048       8.6770
   3386.2500      23.0225       2.2790       0.3588      11.5366       8.7368
   3386.4000      23.1623       2.2709       0.3562      10.6116       8.7701
   3386.5500      24.0647       2.2882       0.3497      10.7885       8.7556
   3386.7000      24.5937       2.2799       0.3501      11.0925       8.7309
   3386.8500      23.6542       2.2722       0.3490      10.4312       8.7450
   3387.0000      23.2925       2.2670       0.3583      10.7014       8.6688
   3387.1500      23.6729       2.2675       0.3622      10.5625       8.7174
   3387.3000      23.6344       2.2588       0.3632      10.8919       8.7351
   3387.4500      23.6059       2.2535       0.3642      10.5588       8.7042
   3387.6000      23.3138       2.2614       0.3638      11.8822       8.7585
   3387.7500      23.1988       2.2579       0.3577      12.4784       8.7131
   3387.9000      23.4012       2.2777       0.3538      13.1436       8.6694
   3388.0500      23.6166       2.2646       0.3537      12.1234       8.5763
   3388.2000      24.4487       2.2788       0.3530      11.8999       8.5633
   3388.3500      25.1118       2.2725       0.3558      12.6100       8.5485
   3388.5000      25.5636       2.2618       0.3500      14.2261       8.6375
   3388.6500      26.0019       2.2624       0.3524      14.7095       8.5802
   3388.8000      25.6990       2.2478       0.3589      15.0084       8.5987
   3388.9500      25.6179       2.2281       0.3644      16.1485       8.5479
   3389.1000      25.3257       2.2204       0.3639      17.3132       8.4992
   3389.2500      25.3975       2.2226       0.3658      17.0064       8.4828
   3389.4000      25.2863       2.2138       0.3671      18.0518       8.5214
   3389.5500      24.6608       2.2123       0.3709      19.0006       8.5851
   3389.7000      24.5790       2.2160       0.3690      17.5824       8.6232
   3389.8500      24.8055       2.2301       0.3645      17.1664       8.6762
   3390.0000      24.8161       2.2294       0.3569      15.9053       8.6617
   3390.1500      24.5157       2.2188       0.3532      15.0225       8.6946
   3390.3000      24.6937       2.2184       0.3513      15.1225       8.6660
   3390.4500      24.4286       2.2216       0.3494      14.9860       8.7828
   3390.6000      24.2793       2.2106       0.3470      14.5606       8.8139
   3390.7500      23.7561       2.2022       0.3479      14.5304       8.8745
   3390.9000      24.0722       2.1969       0.3511      14.6453       8.7978
   3391.0500      23.5161       2.1947       0.3532      16.0932       8.8095
   3391.2000      22.9829       2.1891       0.3569      16.2644       8.7717
   3391.3500      23.6032       2.1993       0.3553      14.7022       8.6707
   3391.5000      23.0833       2.2112       0.3512      14.4033       8.6539
   3391.6500      22.3439       2.2053       0.3536      14.5495       8.6813
   3391.8000      22.3095       2.2167       0.3489      15.6210       8.6379
   3391.9500      22.3581       2.2169       0.3455      15.4473       8.5676
   3392.1000      22.4736       2.2133       0.3388      13.6148       8.5345
   3392.2500      23.2556       2.2156       0.3330      13.7513       8.5247
   3392.4000      23.3352       2.2106       0.3329      13.9831       8.5938
   3392.5500      23.5424       2.1982       0.3341      14.7463       8.5934
   3392.7000      23.3384       2.1934       0.3334      16.3319       8.6433
   3392.8500      23.5152       2.1888       0.3423      17.5772       8.6927
   3393.0000      23.2747       2.1899       0.3477      17.6699       8.6933
   3393.1500      22.5357       2.2020       0.3528      18.1400       8.6290
   3393.3000      21.1132       2.2066       0.3523      18.4697       8.6745
   3393.4500      20.9237       2.2111       0.3501      17.8411       8.6305
   3393.6000      20.7190       2.2180       0.3527      18.4368       8.6340
   3393.7500      21.0647       2.2204       0.3502      16.0835       8.6207
   3393.9000      19.9213       2.2196       0.3428      15.5322       8.6650
   3394.0500      19.9213       2.2299       0.3362      14.7657       8.7236
   3394.2000      19.9049       2.2176       0.3350      15.1447       8.6476
   3394.3500      18.6236       2.2169       0.3347      15.5023       8.5728
   3394.5000      18.1451       2.2164       0.3357      13.5451       8.5860
   3394.6500      19.1953       2.2217       0.3349      12.4025       8.6557
   3394.8000      18.9666       2.2146       0.3291      11.2749       8.5871
   3394.9500      19.2920       2.2068       0.3306      11.6051       8.6229
   3395.1000      18.9460       2.2114       0.3370      12.2723       8.6503
