~VERSION -------------------------------------------
 VERS.                 2.0 : CWLS LOG ASCII STANDARD - VERSION 2.0
 WRAP.                  NO : ONE LINE PER DEPTH STEP
~WELL -----------------------------------------------
 WELL.                DAN-1X : Well name
 UWI .                DK-DAN-001        : Unique Well ID
 LAT .                55.4721        : Latitude
 LON .                3.9543        : Longitude
 STRT.M               2700.00 : START DEPTH
 STOP.M               3399.90 : STOP DEPTH
 STEP.M               0.1500 : STEP
 NULL.                -9999 : NULL VALUE
~CURVE -----------------------------------------------
 DEPTH .M               : Depth
 GR    .GAPI            : Gamma Ray
 RHOB  .G/C3            : Bulk Density
 NPHI  .V/V             : Neutron Porosity
 RT    .OHMM            : Resistivity
 CALI  .IN              : Caliper
~A  DEPTH              GR        RHOB        NPHI          RT        CALI
# ...
   2978.1000      21.1023       2.2473       0.3223      13.5229       8.4892
   2978.2500      21.7424       2.2496       0.3168      15.4875       8.4343
   2978.4000      22.5053       2.2540       0.3178      15.2406       8.4477
   2978.5500      22.4086       2.2643       0.3175      17.6940       8.4612
   2978.7000      23.1273       2.2671       0.3188      16.5934       8.5310
   2978.8500      23.1328       2.2843       0.3148      16.9320       8.5304
   2979.0000      22.9625       2.2842       0.3122      16.9497       8.4572
   2979.1500      23.5679       2.2826       0.3132      16.9366       8.4444
   2979.3000      23.2507       2.2787       0.3144      16.6217       8.4607
   2979.4500      23.1239       2.2755       0.3085      17.2749       8.4838
   2979.6000      22.3773       2.2598       0.3124      16.5028       8.5154
   2979.7500      21.7615       2.2592       0.3171      15.8368       8.5522
   2979.9000      21.3382       2.2568       0.3187      14.9220       8.5826
   2980.0500      21.6976       2.2595       0.3287      15.4581       8.6204
   2980.2000      22.0037       2.2556       0.3324      15.8686       8.6143
   2980.3500      22.4165       2.2488       0.3424      14.0574       8.5616
   2980.5000      22.3248       2.2431       0.3379      16.8911       8.5739
   2980.6500      22.3525       2.2510       0.3361      15.9936       8.5842
   2980.8000      23.3552       2.2263       0.3331      15.5253       8.5597
   2980.9500      22.6075       2.2347       0.3386      14.8938       8.5569
   2981.1000      22.2384       2.2364       0.3456      14.7001       8.5879
   2981.2500      21.4225       2.2317       0.3441      13.7404       8.6200
   2981.4000      21.4663       2.2233       0.3416      14.1151       8.5931
   2981.5500      21.1245       2.2131       0.3419      12.8453       8.5371
   2981.7000      20.9329       2.2179       0.3469      13.8663       8.5027
   2981.8500      20.4567       2.2098       0.3460      12.2747       8.4552
   2982.0000      20.5797       2.2206       0.3436      12.4573       8.5823
   2982.1500      20.6407       2.2260       0.3499      12.9680       8.5544
   2982.3000      20.5521       2.2247       0.3499      12.6937       8.5161
   2982.4500      20.3439       2.2256       0.3556      13.2615       8.5107
   2982.6000      20.1216       2.2349       0.3527      12.8146       8.4719
   2982.7500      20.4408       2.2206       0.3518      12.5180       8.3934
   2982.9000      20.9082       2.2193       0.3443      12.7749       8.4773
   2983.0500      19.9958       2.2102       0.3409      11.9713       8.4565
   2983.2000      19.4535       2.2204       0.3393      11.0473       8.4271
   2983.3500      18.7034       2.2242       0.3259      12.2001       8.5091
   2983.5000      18.9235       2.2314       0.3259      10.8404       8.4247
   2983.6500      18.4117       2.2152       0.3280      10.6780       8.4337
   2983.8000      18.2714       2.2300       0.3317      10.0657       8.4904
   2983.9500      18.6953       2.2283       0.3248      10.5788       8.5410
   2984.1000      18.6027       2.2240       0.3165      10.5262       8.5546
   2984.2500      19.5504       2.2380       0.3138      10.1979       8.5262
   2984.4000      18.9793       2.2485       0.3164      11.4576       8.4087
   2984.5500      19.4177       2.2424       0.3165      11.8244       8.4306
   2984.7000      19.3968       2.2436       0.3087      11.7741       8.4472
   2984.8500      19.8333       2.2427       0.3127      13.3817       8.4359
   2985.0000      19.7903       2.2425       0.3177      13.9138       8.3802
   2985.1500      19.0684       2.2333       0.3098      14.6109       8.3712
   2985.3000      19.5856       2.2264       0.3024      15.2714       8.3419
   2985.4500      20.2611       2.2303       0.3031      13.9047       8.3349
   2985.6000      20.2611       2.2187       0.3000      14.3671       8.3527
   2985.7500      20.8438       2.2265       0.2988      13.8029       8.3959
   2985.9000      20.3764       2.2247       0.3009      14.3908       8.4292
   2986.0500      20.7504       2.2299       0.3023      15.0781       8.5070
   2986.2000      20.9793       2.2214       0.3054      15.6577       8.5375
   2986.3500      21.0324       2.2157       0.3138      15.4625       8.5835
   2986.5000      20.8762       2.2138       0.3181      15.7719       8.6305
   2986.6500      20.6605       2.2215       0.3202      14.8872       8.6478
   2986.8000      20.6428       2.2199       0.3223      14.5703       8.6491
   2986.9500      19.7016       2.2276       0.3186      12.9004       8.6600
   2987.1000      20.2052       2.2341       0.3207      12.8869       8.6272
   2987.2500      19.9355       2.2369       0.3255      12.7236       8.6441
   2987.4000      19.9229       2.2327       0.3287      11.4010       8.7321
   2987.5500      19.6767       2.2469       0.3281      11.6429       8.7242
   2987.7000      19.2109       2.2459       0.3330      10.8571       8.7793
   2987.8500      19.7454       2.2432       0.3335       9.6054       8.6688
   2988.0000      19.8641       2.2383       0.3378      10.1778       8.6346
   2988.1500      19.4887       2.2480       0.3388       9.8422       8.6440
   2988.3000      19.1233       2.2516       0.3478       9.3636       8.6804
   2988.4500      18.5573       2.2562       0.3406       9.1060       8.6504
   2988.6000      19.7747       2.2732       0.3395       9.1358       8.6393
   2988.7500      18.7585       2.2741       0.3324       9.9367       8.6912
   2988.9000      20.1002       2.2770       0.3372      10.2072       8.6574
   2989.0500      20.3333       2.2758       0.3404      10.0561       8.6577
   2989.2000      19.4584       2.2810       0.3396      10.5444       8.5978
   2989.3500      19.3144       2.2751       0.3360      10.3924       8.6307
   2989.5000      19.5802       2.2692       0.3309      10.2789       8.7159
   2989.6500      19.5079       2.2671       0.3296      11.4799       8.6967
   2989.8000      19.1350       2.2747       0.3327      12.8004       8.6414
   2989.9500      19.3439       2.2707       0.3431      14.9095       8.6256
   2990.1000      18.1923       2.2534       0.3465      14.8153       8.6331
   2990.2500      18.0624       2.2366       0.3481      15.3479       8.6123
   2990.4000      17.8394       2.2316       0.3485      14.5921       8.5249
   2990.5500      17.7718       2.2246       0.3492      14.2398       8.5077
   2990.7000      17.8150       2.2384       0.3473      15.2700       8.4971
   2990.8500      17.1201       2.2451       0.3462      16.9996       8.5095
   2991.0000      17.6275       2.2470       0.3398      15.0596       8.4657
   2991.1500      18.3377       2.2476       0.3397      16.3131       8.4673
   2991.3000      18.5973       2.2603       0.3338      16.8469       8.4803
   2991.4500      18.2426       2.2492       0.3420      16.8110       8.4990
   2991.6000      17.4636       2.2430       0.3485      16.5841       8.4966
   2991.7500      18.0897       2.2383       0.3596      15.8763       8.5144
   2991.9000      17.0382       2.2430       0.3524      15.3870       8.5754
   2992.0500      17.4148       2.2440       0.3561      15.6499       8.5452
   2992.2000      17.3985       2.2354       0.3487      14.7777       8.5478
   2992.3500      17.5548       2.2428       0.3471      14.7900       8.5399
   2992.5000      17.6411       2.2467       0.3469      14.4636       8.5201
   2992.6500      18.2166       2.2456       0.3512      12.5846       8.5595
   2992.8000      17.9225       2.2386       0.3476      12.1188       8.5408
   2992.9500      18.3053       2.2385       0.3417      11.4604       8.4986
   2993.1000      18.9109       2.2555       0.3370      11.0313       8.5238
   2993.2500      18.7690       2.2599       0.3319      10.9811       8.4598
   2993.4000      19.6630       2.2575       0.3313      11.8984       8.4354
