~VERSION -------------------------------------------
 VERS.                 2.0 : CWLS LOG ASCII STANDARD - VERSION 2.0
 WRAP.                  NO : ONE LINE PER DEPTH STEP
~WELL -----------------------------------------------
 WELL.                DAN-1X : Well name
 UWI .                DK-DAN-001        : Unique Well ID
 LAT .                55.4721        : Latitude
 LON .                3.9543        : Longitude
 STRT.M               2700.00 : START DEPTH
 STOP.M               3399.90 : STOP DEPTH
 STEP.M               0.1500 : STEP
 NULL.                -9999 : NULL VALUE
~CURVE -----------------------------------------------
 DEPTH .M               : Depth
 GR    .GAPI            : Gamma Ray
 RHOB  .G/C3            : Bulk Density
 NPHI  .V/V             : Neutron Porosity
 RT    .OHMM            : Resistivity
 CALI  .IN              : Caliper
~A  DEPTH              GR        RHOB        NPHI          RT        CALI
# ...
   3101.7000      22.1437       2.2498       0.3119      13.5869       8.5804
   3101.8500      22.6664       2.2356       0.3179      13.4809       8.6216
   3102.0000      22.2287       2.2263       0.3252      13.3339       8.6151
   3102.1500      21.4404       2.2303       0.3261      14.3334       8.5263
   3102.3000      20.4532       2.2252       0.3309      14.2998       8.5263
   3102.4500      20.6137       2.2354       0.3342      16.0697       8.5332
   3102.6000      20.2733       2.2394       0.3398      15.3916       8.5415
   3102.7500      20.9288       2.2329       0.3380      17.7742       8.5423
   3102.9000      21.1643       2.2313       0.3330      16.7940       8.6264
   3103.0500      20.7361       2.2384       0.3356      16.8461       8.6149
   3103.2000      20.5909       2.2349       0.3370      14.1625       8.6861
   3103.3500      21.4482       2.2465       0.3391      13.9387       8.6586
   3103.5000      20.9218       2.2361       0.3491      13.4596       8.5836
   3103.6500      20.7716       2.2410       0.3462      13.8632       8.5596
   3103.8000      20.4154       2.2459       0.3514      13.0593       8.7009
   3103.9500      20.3513       2.2460       0.3497      13.4774       8.7146
   3104.1000      21.1018       2.2419       0.3588      12.6909       8.6362
   3104.2500      21.7803       2.2462       0.3528      12.1235       8.5848
   3104.4000      21.6534       2.2507       0.3570      13.1337       8.5690
   3104.5500      22.5135       2.2451       0.3546      12.2045       8.5373
   3104.7000      21.9094       2.2426       0.3564      11.5370       8.4819
   3104.8500      21.5156       2.2445       0.3551      11.8085       8.4403
   3105.0000      22.1702       2.2372       0.3530      12.7582       8.4967
   3105.1500      22.6618       2.2281       0.3484      12.4397       8.5975
   3105.3000      23.3572       2.2281       0.3457      12.3234       8.5897
   3105.4500      23.3526       2.2226       0.3462      12.2413       8.5332
   3105.6000      23.0428       2.2255       0.3392      13.9846       8.5385
   3105.7500      22.4266       2.2232       0.3458      11.6822       8.6141
   3105.9000      22.0719       2.2265       0.3479      12.7687       8.6710
   3106.0500      21.9198       2.2164       0.3413      13.1312       8.7006
   3106.2000      21.9263       2.2232       0.3394      15.4002       8.7473
   3106.3500      22.1847       2.2218       0.3458      15.9541       8.7157
   3106.5000      22.0951       2.2286       0.3487      16.3450       8.7201
   3106.6500      21.8225       2.2270       0.3460      15.8213       8.6286
   3106.8000      22.7833       2.2105       0.3414      15.5973       8.5556
   3106.9500      21.7553       2.2061       0.3448      14.5384       8.5701
   3107.1000      21.3527       2.1946       0.3405      14.3313       8.6397
   3107.2500      21.0342       2.1903       0.3453      15.5477       8.6953
   3107.4000      20.9564       2.1941       0.3437      16.0660       8.6144
   3107.5500      20.4344       2.2016       0.3470      15.0547       8.5706
   3107.7000      21.0666       2.1948       0.3419      14.9876       8.5285
   3107.8500      21.6822       2.1993       0.3445      15.2924       8.5739
   3108.0000      21.2217       2.2091       0.3432      15.8123       8.5812
   3108.1500      20.7741       2.2258       0.3436      14.6966       8.6213
   3108.3000      19.9707       2.2293       0.3471      13.9692       8.6804
   3108.4500      20.6916       2.2309       0.3430      13.9735       8.6905
   3108.6000      20.9628       2.2324       0.3399      12.4567       8.6620
   3108.7500      21.0091       2.2465       0.3352      13.8500       8.5598
   3108.9000      20.8209       2.2371       0.3412      14.1473       8.5153
   3109.0500      20.3972       2.2342       0.3430      14.4348       8.5885
   3109.2000      20.2384       2.2445       0.3362      14.6246       8.6064
   3109.3500      20.8059       2.2439       0.3266      14.9723       8.5520
   3109.5000      21.7972       2.2283       0.3230      16.1538       8.5422
   3109.6500      21.3857       2.2236       0.3343      16.8754       8.5427
   3109.8000      21.1288       2.2154       0.3409      18.6758       8.4583
   3109.9500      21.4900       2.2174       0.3424      18.9767       8.4211
   3110.1000      20.7181       2.2297       0.3435      19.0173       8.4415
   3110.2500      21.3601       2.2249       0.3422      19.9092       8.4635
   3110.4000      21.9724       2.2265       0.3479      19.5573       8.4999
   3110.5500      22.7528       2.2298       0.3451      21.5876       8.4523
   3110.7000      22.6326       2.2273       0.3466      20.7861       8.4373
   3110.8500      21.8294       2.2193       0.3417      20.5999       8.5166
   3111.0000      22.6351       2.2145       0.3382      17.9477       8.5266
   3111.1500      23.2595       2.2045       0.3396      18.3803       8.5229
   3111.3000      23.6229       2.2073       0.3355      20.0625       8.5602
   3111.4500      22.2843       2.1997       0.3423      20.1247       8.6465
   3111.6000      22.5148       2.1998       0.3428      22.0245       8.6500
   3111.7500      22.9566       2.1897       0.3407      20.3506       8.6694
   3111.9000      22.6387       2.2018       0.3295      20.0803       8.7186
   3112.0500      23.2720       2.2085       0.3322      20.1851       8.7467
   3112.2000      23.4986       2.1929       0.3389      20.7518       8.7593
   3112.3500      22.8154       2.1859       0.3389      20.2517       8.7027
   3112.5000      22.6074       2.2002       0.3362      18.2928       8.6345
   3112.6500      22.6707       2.2017       0.3350      16.1906       8.6577
   3112.8000      21.7649       2.2173       0.3323      16.4635       8.6592
   3112.9500      21.8841       2.2222       0.3258      17.0642       8.5931
   3113.1000      22.9398       2.2130       0.3255      18.0898       8.6149
   3113.2500      22.3152       2.2266       0.3310      14.9759       8.5757
   3113.4000      21.5735       2.2381       0.3238      14.3057       8.4901
   3113.5500      20.4551       2.2370       0.3249      13.9175       8.4686
   3113.7000      21.3441       2.2416       0.3267      14.5092       8.4012
   3113.8500      21.7411       2.2365       0.3241      12.6893       8.4343
   3114.0000      21.7492       2.2443       0.3283      14.3249       8.4642
   3114.1500      21.9797       2.2495       0.3298      13.5810       8.4899
   3114.3000      22.3678       2.2468       0.3322      14.5204       8.5146
   3114.4500      22.9177       2.2614       0.3264      14.3515       8.4891
   3114.6000      22.8066       2.2549       0.3276      13.3718       8.4153
   3114.7500      22.2040       2.2533       0.3356      14.7189       8.4655
   3114.9000      23.7369       2.2531       0.3466      14.5126       8.5647
   3115.0500      23.7038       2.2453       0.3498      14.5784       8.5326
   3115.2000      23.3857       2.2434       0.3461      13.1342       8.6039
   3115.3500      23.2718       2.2586       0.3491      12.7952       8.5304
   3115.5000      22.5187       2.2569       0.3490      12.8983       8.5385
   3115.6500      23.3982       2.2664       0.3487      13.8429       8.5429
   3115.8000      23.7806       2.2742       0.3422      13.7594       8.6247
   3115.9500      24.1944       2.2679       0.3394      12.9957       8.6522
   3116.1000      24.2652       2.2582       0.3381      13.4029       8.6346
   3116.2500      24.6359       2.2435       0.3374      13.8671       8.5927
   3116.4000      24.9513       2.2394       0.3406      13.2011       8.5561
   3116.5500      25.6556       2.2256       0.3419      12.9459       8.5893
   3116.7000      24.9320       2.2295       0.3426      12.9558       8.5411
   3116.8500      24.3710       2.2446       0.3478      14.0990       8.5840
   3117.0000      23.8833       2.2470       0.3489      12.7825       8.6217
