~VERSION -------------------------------------------
 VERS.                 2.0 : CWLS LOG ASCII STANDARD - VERSION 2.0
 WRAP.                  NO : ONE LINE PER DEPTH STEP
~WELL -----------------------------------------------
 WELL.                DAN-1X : Well name
 UWI .                DK-DAN-001        : Unique Well ID
 LAT .                55.4721        : Latitude
 LON .                3.9543        : Longitude
 STRT.M               2700.00 : START DEPTH
 STOP.M               3399.90 : STOP DEPTH
 STEP.M               0.1500 : STEP
 NULL.                -9999 : NULL VALUE
~CURVE -----------------------------------------------
 DEPTH .M               : Depth
 GR    .GAPI            : Gamma Ray
 RHOB  .G/C3            : Bulk Density
 NPHI  .V/V             : Neutron Porosity
 RT    .OHMM            : Resistivity
 CALI  .IN              : Caliper
~A  DEPTH              GR        RHOB        NPHI          RT        CALI
# ...
   2931.7500      19.7223       2.2636       0.3174      10.0452       8.3966
   2931.9000      19.8547       2.2629       0.3272      10.3203       8.4711
   2932.0500      19.2636       2.2686       0.3276      10.9124       8.4448
   2932.2000      20.2471       2.2691       0.3313      11.5904       8.5282
   2932.3500      20.9429       2.2771       0.3323      10.5220       8.4746
   2932.5000      20.2780       2.2685       0.3365      10.3915       8.5431
   2932.6500      20.2256       2.2785       0.3421      10.5866       8.6706
   2932.8000      19.9456       2.2683       0.3464      10.1078       8.6784
   2932.9500      19.5241       2.2713       0.3462      10.0028       8.6378
   2933.1000      19.1074       2.2751       0.3406       9.4071       8.5992
   2933.2500      18.1858       2.2730       0.3394       9.8446       8.6080
   2933.4000      18.0265       2.2665       0.3406       9.5052       8.6119
   2933.5500      18.2611       2.2761       0.3414       8.5559       8.6073
   2933.7000      18.6472       2.2706       0.3394       8.9547       8.6003
   2933.8500      18.7186       2.2709       0.3349       9.1395       8.6578
   2934.0000      17.9256       2.2699       0.3376       9.6741       8.5966
   2934.1500      18.5625       2.2660       0.3405       9.6113       8.5384
   2934.3000      18.7642       2.2543       0.3388      10.2097       8.4983
   2934.4500      19.1335       2.2553       0.3437       9.7115       8.4602
   2934.6000      19.2745       2.2532       0.3490       9.0656       8.5294
   2934.7500      19.2435       2.2549       0.3506       9.7564       8.6262
   2934.9000      18.9899       2.2519       0.3404       8.8231       8.5677
   2935.0500      19.2931       2.2547       0.3404       9.2442       8.5868
   2935.2000      19.3960       2.2638       0.3418       9.9717       8.5684
   2935.3500      18.3723       2.2732       0.3466      10.9637       8.5777
   2935.5000      18.5689       2.2682       0.3417      11.3216       8.6778
   2935.6500      19.2016       2.2599       0.3450      12.8666       8.6210
   2935.8000      19.0844       2.2747       0.3381      12.7643       8.7112
   2935.9500      19.6311       2.2770       0.3395      12.2246       8.7950
   2936.1000      19.8086       2.2753       0.3440      12.8368       8.8572
   2936.2500      20.1370       2.2744       0.3413      12.4624       8.8146
   2936.4000      19.7425       2.2810       0.3465      12.4214       8.8611
   2936.5500      19.5079       2.2668       0.3493      13.7327       8.8362
   2936.7000      19.8202       2.2690       0.3475      13.6394       8.7716
   2936.8500      19.1343       2.2760       0.3489      14.3420       8.7342
   2937.0000      19.5870       2.2701       0.3459      13.0498       8.6913
   2937.1500      19.0223       2.2780       0.3491      13.1698       8.7031
   2937.3000      18.5463       2.2776       0.3535      12.0270       8.6865
   2937.4500      18.3402       2.2749       0.3512      11.6256       8.5751
   2937.6000      18.0535       2.2647       0.3498      11.7854       8.4965
   2937.7500      18.7862       2.2677       0.3504      11.3505       8.5562
   2937.9000      19.4721       2.2687       0.3569      12.4820       8.5897
   2938.0500      19.5887       2.2575       0.3592      12.0442       8.6334
   2938.2000      19.2726       2.2485       0.3603      11.0940       8.7073
   2938.3500      20.6037       2.2340       0.3527      10.5453       8.7038
   2938.5000      20.0384       2.2417       0.3466      11.1043       8.6394
   2938.6500      19.5406       2.2515       0.3435      10.1319       8.6620
   2938.8000      20.0549       2.2401       0.3419      10.6860       8.5781
   2938.9500      20.3406       2.2375       0.3413      11.6856       8.6233
   2939.1000      20.0531       2.2413       0.3361      11.4442       8.6304
   2939.2500      19.9759       2.2248       0.3402      11.3789       8.5327
   2939.4000      21.1675       2.2220       0.3433      11.5910       8.5797
   2939.5500      22.0708       2.2441       0.3352      10.2939       8.6281
   2939.7000      21.7718       2.2420       0.3412      10.4391       8.6538
   2939.8500      22.0787       2.2357       0.3415      11.0990       8.6314
   2940.0000      22.1074       2.2472       0.3455      11.3044       8.7682
   2940.1500      22.7772       2.2570       0.3360      11.9987       8.7747
   2940.3000      23.2403       2.2695       0.3371      12.4047       8.7970
   2940.4500      23.2928       2.2625       0.3362      14.4370       8.8113
   2940.6000      23.6161       2.2692       0.3372      14.0613       8.8498
   2940.7500      23.1936       2.2818       0.3313      13.3047       8.8438
   2940.9000      23.2255       2.2875       0.3310      12.5024       8.7625
   2941.0500      24.2628       2.2844       0.3324      11.8320       8.7022
   2941.2000      23.4674       2.2858       0.3294      12.6596       8.6169
   2941.3500      22.9659       2.2850       0.3353      13.1408       8.6431
   2941.5000      23.0889       2.2898       0.3431      13.2855       8.5252
   2941.6500      23.3418       2.2773       0.3409      12.8330       8.5352
   2941.8000      22.9073       2.2782       0.3510      12.7273       8.5365
   2941.9500      22.7063       2.2743       0.3521      11.4971       8.5469
   2942.1000      23.7452       2.2688       0.3537      11.2375       8.4530
   2942.2500      23.9471       2.2899       0.3526      11.7310       8.4316
   2942.4000      23.8567       2.2873       0.3468      12.1568       8.3787
   2942.5500      22.9534       2.2653       0.3448      13.0384       8.3544
   2942.7000      23.5115       2.2592       0.3374      13.7710       8.4057
   2942.8500      23.7486       2.2486       0.3340      13.5023       8.4311
   2943.0000      24.3333       2.2367       0.3378      15.1605       8.4121
   2943.1500      23.7300       2.2275       0.3468      13.5021       8.3706
   2943.3000      23.4987       2.2275       0.3464      14.7608       8.3769
   2943.4500      23.5741       2.2371       0.3456      14.6042       8.3866
   2943.6000      23.5358       2.2431       0.3427      14.8179       8.4315
   2943.7500      23.9203       2.2234       0.3466      13.8133       8.4736
   2943.9000      24.1412       2.2182       0.3522      13.5155       8.4911
   2944.0500      22.2755       2.2187       0.3476      13.6568       8.5717
   2944.2000      23.3651       2.2229       0.3412      14.0886       8.5131
   2944.3500      23.2388       2.2432       0.3408      13.7949       8.4825
   2944.5000      23.4613       2.2252       0.3419      12.7879       8.5468
   2944.6500      22.6419       2.2289       0.3488      13.1644       8.5435
   2944.8000      22.8245       2.2360       0.3471      12.0185       8.5430
   2944.9500      21.8198       2.2325       0.3506      13.0849       8.4616
   2945.1000      21.6089       2.2392       0.3506      13.8572       8.4447
   2945.2500      20.9351       2.2376       0.3441      15.0973       8.4095
   2945.4000      20.5037       2.2374       0.3439      15.3777       8.5065
   2945.5500      21.1560       2.2441       0.3537      15.9376       8.5281
   2945.7000      20.9876       2.2615       0.3538      15.2486       8.5774
   2945.8500      20.7662       2.2844       0.3574      13.9296       8.5372
   2946.0000      20.0574       2.2916       0.3496      12.5047       8.5624
   2946.1500      20.3427       2.2877       0.3418      12.4021       8.5332
   2946.3000      21.1841       2.2763       0.3448      12.0687       8.5418
   2946.4500      21.3403       2.2855       0.3511      10.8722       8.5767
   2946.6000      21.1928       2.2679       0.3542      11.5529       8.5843
   2946.7500      20.9850       2.2707       0.3570      12.5539       8.6085
   2946.9000      19.9244       2.2727       0.3482      13.2006       8.4888
   2947.0500      20.7797       2.2762       0.3522      12.7773       8.3701
