~VERSION -------------------------------------------
 VERS.                 2.0 : CWLS LOG ASCII STANDARD - VERSION 2.0
 WRAP.                  NO : ONE LINE PER DEPTH STEP
~WELL -----------------------------------------------
 WELL.                DAN-1X : Well name
 UWI .                DK-DAN-001        : Unique Well ID
 LAT .                55.4721        : Latitude
 LON .                3.9543        : Longitude
 STRT.M               2700.00 : START DEPTH
 STOP.M               3399.90 : STOP DEPTH
 STEP.M               0.1500 : STEP
 NULL.                -9999 : NULL VALUE
~CURVE -----------------------------------------------
 DEPTH .M               : Depth
 GR    .GAPI            : Gamma Ray
 RHOB  .G/C3            : Bulk Density
 NPHI  .V/V             : Neutron Porosity
 RT    .OHMM            : Resistivity
 CALI  .IN              : Caliper
~A  DEPTH              GR        RHOB        NPHI          RT        CALI
# ...
   2746.3500      25.1651       2.2209       0.3421      14.9754       8.5433
   2746.5000      24.5625       2.2257       0.3442      15.3407       8.5175
   2746.6500      24.1845       2.2340       0.3494      14.4942       8.4949
   2746.8000      24.7218       2.2331       0.3424      14.5437       8.5328
   2746.9500      24.8448       2.2360       0.3433      15.4377       8.5385
   2747.1000      25.2766       2.2277       0.3474      17.3944       8.4928
   2747.2500      26.0293       2.2358       0.3498      18.9456       8.4709
   2747.4000      26.7428       2.2265       0.3519      17.0523       8.4956
   2747.5500      26.2478       2.2388       0.3517      15.8467       8.4857
   2747.7000      25.7010       2.2441       0.3532      14.7357       8.4786
   2747.8500      24.9991       2.2543       0.3541      14.6506       8.4004
   2748.0000      24.0989       2.2513       0.3510      15.7728       8.4849
   2748.1500      24.2324       2.2526       0.3470      17.2549       8.5702
   2748.3000      24.3118       2.2462       0.3512      16.9243       8.4812
   2748.4500      23.3346       2.2451       0.3528      17.5612       8.4468
   2748.6000      22.7536       2.2400       0.3528      16.1900       8.5230
   2748.7500      22.4355       2.2371       0.3589      14.6077       8.6094
   2748.9000      22.0675       2.2432       0.3605      14.8890       8.5535
   2749.0500      21.7724       2.2343       0.3523      14.7418       8.5900
   2749.2000      22.1762       2.2444       0.3423      16.0070       8.6639
   2749.3500      22.2425       2.2323       0.3401      15.1256       8.6705
   2749.5000      22.9573       2.2201       0.3467      16.0153       8.7028
   2749.6500      21.9444       2.2209       0.3437      15.1574       8.6426
   2749.8000      22.1424       2.2190       0.3490      14.4710       8.7152
   2749.9500      21.7027       2.2159       0.3517      15.0874       8.7464
   2750.1000      21.5679       2.2299       0.3513      14.2319       8.7464
   2750.2500      21.4861       2.2227       0.3483      14.6713       8.7169
   2750.4000      20.4938       2.2176       0.3486      14.4064       8.8459
   2750.5500      20.8862       2.2317       0.3483      15.0975       8.8709
   2750.7000      21.1493       2.2312       0.3476      15.5850       8.8051
   2750.8500      20.9855       2.2223       0.3485      15.4436       8.9639
   2751.0000      21.7832       2.2187       0.3535      14.1289       8.9547
   2751.1500      21.3260       2.2110       0.3529      13.6312       8.9835
   2751.3000      21.4096       2.2035       0.3469      14.1965       8.9310
   2751.4500      21.4608       2.2142       0.3502      13.4916       8.8998
   2751.6000      22.1918       2.2111       0.3412      14.0827       8.8019
   2751.7500      22.6061       2.2194       0.3384      15.2758       8.7312
   2751.9000      23.1859       2.2212       0.3386      15.3544       8.7173
   2752.0500      23.5481       2.2124       0.3438      15.2786       8.6792
   2752.2000      23.5314       2.2084       0.3520      15.6774       8.6550
   2752.3500      22.7240       2.2022       0.3539      16.2072       8.5252
   2752.5000      22.4215       2.2114       0.3524      16.3926       8.4609
   2752.6500      23.0604       2.2078       0.3468      16.2156       8.4713
   2752.8000      23.0921       2.2177       0.3497      16.6778       8.4760
   2752.9500      23.4632       2.2045       0.3471      15.9522       8.5500
   2753.1000      22.8742       2.2068       0.3478      15.9482       8.6198
   2753.2500      22.1777       2.2194       0.3517      13.9263       8.6232
   2753.4000      23.4703       2.2354       0.3528      14.4640       8.6316
   2753.5500      23.4093       2.2250       0.3517      14.6172       8.6003
   2753.7000      22.8440       2.2290       0.3562      14.0876       8.5851
   2753.8500      23.5576       2.2227       0.3579      13.5868       8.6247
   2754.0000      23.3050       2.2325       0.3543      12.9847       8.6372
   2754.1500      23.1622       2.2310       0.3582      14.3612       8.6215
   2754.3000      23.3552       2.2282       0.3641      14.0428       8.6093
   2754.4500      23.9262       2.2162       0.3642      13.8347       8.6278
   2754.6000      23.9375       2.2209       0.3697      14.8452       8.7027
   2754.7500      23.7317       2.2094       0.3685      15.5724       8.6861
   2754.9000      24.5696       2.2140       0.3640      15.7319       8.6368
   2755.0500      24.3938       2.2094       0.3572      13.6969       8.6172
   2755.2000      23.5857       2.1992       0.3566      14.9445       8.7645
   2755.3500      24.5727       2.2232       0.3510      12.4136       8.7799
   2755.5000      24.4486       2.2293       0.3431      11.6810       8.7890
   2755.6500      24.5528       2.2241       0.3468      11.4629       8.7236
   2755.8000      24.9233       2.2191       0.3482      10.8415       8.7315
   2755.9500      23.8824       2.2365       0.3442      11.2700       8.7289
   2756.1000      23.8052       2.2321       0.3410      10.4956       8.5875
   2756.2500      23.2147       2.2280       0.3426      11.1546       8.5848
   2756.4000      22.3045       2.2271       0.3376      11.9158       8.5709
   2756.5500      22.7777       2.2230       0.3432      11.1778       8.6077
   2756.7000      23.3163       2.2171       0.3365      10.5165       8.5153
   2756.8500      23.3459       2.2259       0.3286      10.9919       8.4481
   2757.0000      22.4430       2.2199       0.3311      11.6082       8.4737
   2757.1500      21.7385       2.2222       0.3279      10.2477       8.4883
   2757.3000      21.2286       2.2326       0.3218       9.5577       8.5528
   2757.4500      20.6972       2.2395       0.3203      10.1676       8.5315
   2757.6000      20.5442       2.2332       0.3246      10.2303       8.6101
   2757.7500      20.6034       2.2430       0.3229       8.8063       8.7106
   2757.9000      19.7276       2.2348       0.3309       8.2005       8.6920
   2758.0500      20.1137       2.2444       0.3335       9.0483       8.6602
   2758.2000      20.9054       2.2554       0.3312       7.6599       8.5850
   2758.3500      20.4757       2.2493       0.3312       8.4097       8.5426
   2758.5000      20.3769       2.2312       0.3320       9.0837       8.4988
   2758.6500      20.2619       2.2428       0.3297       9.5441       8.5289
   2758.8000      19.8168       2.2388       0.3227       9.3382       8.4604
   2758.9500      20.7859       2.2400       0.3365       9.3846       8.4170
   2759.1000      21.1291       2.2346       0.3353      10.2062       8.4539
   2759.2500      21.9781       2.2334       0.3324      10.1780       8.4417
   2759.4000      22.1894       2.2383       0.3352       9.8679       8.4094
   2759.5500      21.9665       2.2410       0.3366      10.5903       8.4182
   2759.7000      22.0887       2.2483       0.3424      11.3090       8.4944
   2759.8500      21.2782       2.2486       0.3450      11.3501       8.5294
   2760.0000      21.3247       2.2527       0.3432      12.6776       8.5041
   2760.1500      21.4318       2.2555       0.3391      13.7705       8.4948
   2760.3000      20.7101       2.2601       0.3471      15.1143       8.5819
   2760.4500      20.6275       2.2558       0.3427      14.8467       8.6640
   2760.6000      20.7435       2.2562       0.3366      13.7914       8.5736
   2760.7500      20.3487       2.2476       0.3404      15.2570       8.5570
   2760.9000      20.3726       2.2540       0.3347      16.0288       8.6072
   2761.0500      20.5042       2.2540       0.3364      15.5106       8.5846
   2761.2000      20.9436       2.2600       0.3407      16.0348       8.5565
   2761.3500      20.7039       2.2657       0.3465      15.2113       8.5310
   2761.5000      21.5272       2.2726       0.3484      14.9263       8.6098
   2761.6500      21.6359       2.2628       0.3451      15.4458       8.6855
