~VERSION -------------------------------------------
 VERS.                 2.0 : CWLS LOG ASCII STANDARD - VERSION 2.0
 WRAP.                  NO : ONE LINE PER DEPTH STEP
~WELL -----------------------------------------------
 WELL.                DAN-1X : Well name
 UWI .                DK-DAN-001        : Unique Well ID
 LAT .                55.4721        : Latitude
 LON .                3.9543        : Longitude
 STRT.M               2700.00 : START DEPTH
 STOP.M               3399.90 : STOP DEPTH
 STEP.M               0.1500 : STEP
 NULL.                -9999 : NULL VALUE
~CURVE -----------------------------------------------
 DEPTH .M               : Depth
 GR    .GAPI            : Gamma Ray
 RHOB  .G/C3            : Bulk Density
 NPHI  .V/V             : Neutron Porosity
 RT    .OHMM            : Resistivity
 CALI  .IN              : Caliper
~A  DEPTH              GR        RHOB        NPHI          RT        CALI
# ...
   3287.1000      19.9412       2.2056       0.3339      13.2226       8.6434
   3287.2500      20.5935       2.1979       0.3331      12.4712       8.6104
   3287.4000      19.9703       2.2102       0.3389      13.0430       8.6104
   3287.5500      20.9243       2.2150       0.3366      13.7100       8.5746
   3287.7000      20.7747       2.2253       0.3389      14.9418       8.6364
   3287.8500      20.6172       2.2218       0.3395      13.6433       8.7242
   3288.0000      20.9137       2.2327       0.3399      14.6728       8.7158
   3288.1500      19.9502       2.2358       0.3409      14.5085       8.7933
   3288.3000      19.2833       2.2268       0.3340      14.2320       8.7777
   3288.4500      19.6141       2.2151       0.3292      13.6858       8.8011
   3288.6000      20.5819       2.2283       0.3322      13.5704       8.7767
   3288.7500      21.4405       2.2315       0.3335      12.1399       8.7661
   3288.9000      21.6216       2.2341       0.3301      11.3479       8.8582
   3289.0500      22.2281       2.2409       0.3282      12.0539       8.7489
   3289.2000      22.6765       2.2486       0.3298      10.5810       8.7372
   3289.3500      22.6152       2.2346       0.3324      11.9579       8.6885
   3289.5000      23.0493       2.2418       0.3386      11.5362       8.6601
   3289.6500      22.9661       2.2381       0.3410      11.5814       8.5293
   3289.8000      22.9708       2.2317       0.3433      11.5699       8.5780
   3289.9500      23.0764       2.2395       0.3395      11.9887       8.5571
   3290.1000      23.0912       2.2572       0.3336      13.2055       8.5364
   3290.2500      23.5811       2.2591       0.3329      13.0768       8.5470
   3290.4000      23.2055       2.2556       0.3336      13.4747       8.5349
   3290.5500      23.4126       2.2546       0.3354      13.5145       8.6522
   3290.7000      23.2813       2.2560       0.3327      12.2897       8.6629
   3290.8500      23.8328       2.2551       0.3309      12.0472       8.7007
   3291.0000      24.1190       2.2542       0.3317      12.8738       8.7120
   3291.1500      24.2507       2.2334       0.3321      12.4876       8.7269
   3291.3000      24.9022       2.2329       0.3376      14.3663       8.6850
   3291.4500      24.7352       2.2347       0.3420      16.6287       8.6938
   3291.6000      24.1324       2.2385       0.3433      19.2901       8.7085
   3291.7500      23.9842       2.2414       0.3435      21.8246       8.7143
   3291.9000      23.2007       2.2436       0.3457      25.3348       8.6625
   3292.0500      22.4169       2.2489       0.3386      23.7852       8.5964
   3292.2000      22.6223       2.2353       0.3368      25.7953       8.5285
   3292.3500      22.3435       2.2465       0.3351      23.8219       8.4875
   3292.5000      21.4197       2.2322       0.3307      23.5071       8.4818
   3292.6500      21.8975       2.2332       0.3329      22.6187       8.5743
   3292.8000      22.5553       2.2341       0.3332      22.4981       8.6339
   3292.9500      23.0972       2.2482       0.3330      21.4037       8.6039
   3293.1000      22.6340       2.2362       0.3357      18.6080       8.5893
   3293.2500      22.0434       2.2482       0.3351      19.8894       8.5938
   3293.4000      21.7419       2.2467       0.3311      19.4041       8.6163
   3293.5500      20.8209       2.2552       0.3416      19.6410       8.6185
   3293.7000      21.1031       2.2507       0.3436      21.0975       8.6644
   3293.8500      20.8781       2.2540       0.3534      21.3802       8.7467
   3294.0000      20.4802       2.2561       0.3543      20.6425       8.7300
   3294.1500      20.1455       2.2776       0.3515      20.6489       8.6713
   3294.3000      19.2797       2.2788       0.3501      19.8809       8.5573
   3294.4500      19.4001       2.2742       0.3522      18.2322       8.6316
   3294.6000      20.2435       2.2733       0.3486      15.8185       8.6709
   3294.7500      19.9657       2.2758       0.3500      14.5956       8.6201
   3294.9000      20.7842       2.2734       0.3500      12.3375       8.6088
   3295.0500      21.2132       2.2575       0.3581      12.3448       8.6336
   3295.2000      20.7184       2.2671       0.3617      12.7028       8.6485
   3295.3500      21.2677       2.2605       0.3593      13.1166       8.5922
   3295.5000      21.9093       2.2632       0.3558      12.3247       8.5974
   3295.6500      21.5165       2.2736       0.3507      11.4131       8.6583
   3295.8000      20.8781       2.2720       0.3456      10.7553       8.6915
   3295.9500      20.5283       2.2620       0.3479      11.7121       8.7662
   3296.1000      20.1633       2.2603       0.3535      12.6068       8.7685
   3296.2500      19.9367       2.2602       0.3470      11.9630       8.8439
   3296.4000      20.0096       2.2648       0.3476      11.5514       8.8228
   3296.5500      19.9579       2.2511       0.3378      11.5012       8.8411
   3296.7000      20.5516       2.2479       0.3458      11.1832       8.8645
   3296.8500      21.2775       2.2473       0.3402      11.8774       8.7858
   3297.0000      21.3281       2.2393       0.3410      11.8242       8.7411
   3297.1500      22.0670       2.2259       0.3438      11.3529       8.6809
   3297.3000      21.5656       2.2282       0.3375      11.1420       8.7023
   3297.4500      21.3498       2.2368       0.3372      11.3725       8.5740
   3297.6000      20.3933       2.2293       0.3359      10.8152       8.5675
   3297.7500      20.9014       2.2207       0.3323      10.6953       8.4989
   3297.9000      20.5115       2.2253       0.3267      11.5303       8.5223
   3298.0500      20.7911       2.2399       0.3252      11.4379       8.4600
   3298.2000      20.7943       2.2406       0.3284      10.1660       8.4563
   3298.3500      20.2367       2.2269       0.3347       9.7714       8.4563
   3298.5000      19.4253       2.2262       0.3397      10.7084       8.4925
   3298.6500      19.3956       2.2260       0.3444      12.3509       8.4182
   3298.8000      19.8560       2.2263       0.3439      12.2760       8.4110
   3298.9500      20.1083       2.2281       0.3398      11.2320       8.4606
   3299.1000      21.5510       2.2332       0.3346      11.0118       8.4471
   3299.2500      22.4452       2.2249       0.3404      11.5658       8.4533
   3299.4000      22.5710       2.2338       0.3394      12.4216       8.4929
   3299.5500      22.8934       2.2479       0.3388      13.1808       8.5114
   3299.7000      22.9053       2.2544       0.3324      12.9560       8.5454
   3299.8500      22.0915       2.2524       0.3329      12.6385       8.6002
   3300.0000      22.9212       2.2421       0.3253      11.6573       8.5601
   3300.1500      22.9525       2.2495       0.3219      12.1543       8.6559
   3300.3000      23.4687       2.2375       0.3275      12.7007       8.6500
   3300.4500      23.8654       2.2348       0.3291      11.5571       8.6102
   3300.6000      24.8307       2.2379       0.3310      12.0462       8.5940
   3300.7500      24.6583       2.2403       0.3296      11.4034       8.5661
   3300.9000      24.8846       2.2475       0.3263      11.3053       8.5477
   3301.0500      25.0834       2.2438       0.3290      11.7755       8.5765
   3301.2000      25.5688       2.2538       0.3236      12.8406       8.5366
   3301.3500      25.7002       2.2709       0.3173      12.6948       8.5179
   3301.5000      26.2036       2.2644       0.3074      13.1060       8.6176
   3301.6500      26.1805       2.2580       0.2979      12.3733       8.5419
   3301.8000      25.9671       2.2582       0.3012      13.2512       8.5352
   3301.9500      25.3151       2.2615       0.3040      14.0433       8.5407
   3302.1000      23.8026       2.2513       0.3058      12.9314       8.5391
   3302.2500      22.8757       2.2491       0.3045      12.7142       8.5831
   3302.4000      22.6129       2.2390       0.3058      12.0444       8.6293
