~VERSION -------------------------------------------
 VERS.                 2.0 : CWLS LOG ASCII STANDARD - VERSION 2.0
 WRAP.                  NO : ONE LINE PER DEPTH STEP
~WELL -----------------------------------------------
 WELL.                DAN-1X : Well name
 UWI .                DK-DAN-001        : Unique Well ID
 LAT .                55.4721        : Latitude
 LON .                3.9543        : Longitude
 STRT.M               2700.00 : START DEPTH
 STOP.M               3399.90 : STOP DEPTH
 STEP.M               0.1500 : STEP
 NULL.                -9999 : NULL VALUE
~CURVE -----------------------------------------------
 DEPTH .M               : Depth
 GR    .GAPI            : Gamma Ray
 RHOB  .G/C3            : Bulk Density
 NPHI  .V/V             : Neutron Porosity
 RT    .OHMM            : Resistivity
 CALI  .IN              : Caliper
~A  DEPTH              GR        RHOB        NPHI          RT        CALI
# ...
   3194.4000      24.6640       2.2388       0.3521      14.5348       8.5435
   3194.5500      25.4014       2.2408       0.3495      14.5695       8.5206
   3194.7000      25.2537       2.2527       0.3487      14.4031       8.4923
   3194.8500      25.0125       2.2619       0.3451      15.5748       8.5174
   3195.0000      25.2464       2.2731       0.3495      17.6583       8.5174
   3195.1500      25.1308       2.2674       0.3425      18.6513       8.5346
   3195.3000      25.2789       2.2680       0.3412      17.3862       8.5185
   3195.4500      25.4071       2.2721       0.3406      17.0198       8.5015
   3195.6000      25.2408       2.2788       0.3369      16.0047       8.4228
   3195.7500      25.9090       2.2894       0.3322      16.1232       8.4228
   3195.9000      26.0061       2.2771       0.3347      15.9375       8.4888
   3196.0500      25.7645       2.2785       0.3328      15.1023       8.4865
   3196.2000      25.5209       2.2721       0.3238      14.4247       8.5567
   3196.3500      26.1516       2.2786       0.3256      16.7827       8.5065
   3196.5000      26.4005       2.2792       0.3209      14.4121       8.5976
   3196.6500      25.5379       2.2751       0.3215      12.5746       8.6209
   3196.8000      24.5879       2.2795       0.3221      12.4447       8.6752
   3196.9500      24.2784       2.2677       0.3268      12.8978       8.6538
   3197.1000      24.1995       2.2681       0.3246      12.3471       8.6350
   3197.2500      23.3281       2.2615       0.3276      12.3816       8.6923
   3197.4000      23.2353       2.2790       0.3281      12.6015       8.6890
   3197.5500      23.2756       2.2666       0.3334      12.2596       8.6887
   3197.7000      23.0196       2.2536       0.3371      11.6646       8.5884
   3197.8500      23.1536       2.2514       0.3340      11.2205       8.5902
   3198.0000      23.2267       2.2532       0.3393      10.5446       8.5939
   3198.1500      23.4368       2.2490       0.3403      10.2438       8.5703
   3198.3000      23.1639       2.2470       0.3480      10.4343       8.5052
   3198.4500      22.5335       2.2455       0.3454       9.9699       8.5837
   3198.6000      22.3192       2.2539       0.3422      11.1458       8.6009
   3198.7500      21.9067       2.2601       0.3438      11.3603       8.6529
   3198.9000      21.4489       2.2673       0.3426      12.1625       8.6902
   3199.0500      21.4149       2.2697       0.3404      12.9741       8.6605
   3199.2000      21.8781       2.2687       0.3516      13.2814       8.7192
   3199.3500      20.9924       2.2567       0.3534      12.8693       8.7302
   3199.5000      20.0316       2.2577       0.3531      12.5609       8.7027
   3199.6500      20.5349       2.2534       0.3500      12.4625       8.6831
   3199.8000      20.9658       2.2528       0.3489      12.3577       8.6782
   3199.9500      21.5746       2.2449       0.3500      12.7563       8.5878
   3200.1000      21.5759       2.2465       0.3479      12.7801       8.6176
   3200.2500      20.6245       2.2401       0.3473      12.3788       8.5559
   3200.4000      20.4180       2.2251       0.3473      11.6475       8.4550
   3200.5500      20.2866       2.2262       0.3469      10.7125       8.4679
   3200.7000      20.3320       2.2246       0.3453      12.0851       8.4481
   3200.8500      20.8172       2.2346       0.3473      12.2156       8.3896
   3201.0000      20.5549       2.2259       0.3428      12.3248       8.3683
   3201.1500      20.5733       2.2407       0.3475      12.1074       8.3769
   3201.3000      20.7553       2.2475       0.3361      12.4256       8.4450
   3201.4500      21.7856       2.2413       0.3398      12.7017       8.4376
   3201.6000      21.6223       2.2483       0.3423      11.6960       8.4773
   3201.7500      21.4617       2.2321       0.3455      12.5606       8.5450
   3201.9000      20.8743       2.2293       0.3438      11.6397       8.5799
   3202.0500      20.7244       2.2291       0.3463      10.9717       8.5741
   3202.2000      20.3195       2.2223       0.3382      10.7685       8.6643
   3202.3500      20.3432       2.2372       0.3342      10.1024       8.7335
   3202.5000      21.0607       2.2423       0.3290       9.8066       8.7625
   3202.6500      21.1776       2.2525       0.3286      11.1440       8.7614
   3202.8000      20.1719       2.2549       0.3308      11.3439       8.7379
   3202.9500      19.5831       2.2658       0.3254      11.2761       8.7579
   3203.1000      18.8989       2.2666       0.3295      11.3841       8.6712
   3203.2500      19.6805       2.2786       0.3272      11.7491       8.6016
   3203.4000      19.2607       2.2809       0.3269      11.1420       8.5794
   3203.5500      19.1701       2.2895       0.3259      11.7150       8.5858
   3203.7000      18.9858       2.2996       0.3291      11.2625       8.4800
   3203.8500      18.8913       2.2830       0.3276      10.7225       8.4900
   3204.0000      19.3080       2.2786       0.3283      11.1262       8.4768
   3204.1500      19.1799       2.2634       0.3219      10.7638       8.4432
   3204.3000      18.3973       2.2557       0.3315      10.1673       8.3960
   3204.4500      17.4761       2.2702       0.3355      10.5142       8.4224
   3204.6000      17.5649       2.2584       0.3366      11.3924       8.5283
   3204.7500      17.6996       2.2680       0.3416       9.9154       8.5064
   3204.9000      18.1563       2.2680       0.3420      10.3795       8.5099
   3205.0500      18.6550       2.2586       0.3382      11.6100       8.5834
   3205.2000      18.7531       2.2610       0.3364      13.3858       8.6197
   3205.3500      18.7749       2.2595       0.3387      14.1845       8.6042
   3205.5000      18.5974       2.2365       0.3495      14.1560       8.5729
   3205.6500      18.7101       2.2251       0.3504      13.9352       8.6314
   3205.8000      19.5401       2.2304       0.3474      15.1512       8.7197
   3205.9500      20.2052       2.2357       0.3470      14.6003       8.7050
   3206.1000      20.3090       2.2347       0.3514      15.1175       8.7017
   3206.2500      20.0853       2.2382       0.3601      14.1813       8.7390
   3206.4000      20.7685       2.2363       0.3597      15.8184       8.7418
   3206.5500      20.7472       2.2384       0.3510      15.0141       8.6365
   3206.7000      20.6602       2.2314       0.3455      13.9993       8.5922
   3206.8500      19.9192       2.2419       0.3509      14.8415       8.5972
   3207.0000      19.6650       2.2389       0.3523      14.3467       8.6757
   3207.1500      19.3376       2.2547       0.3549      14.4063       8.6736
   3207.3000      19.2615       2.2622       0.3557      14.0679       8.5927
   3207.4500      19.5341       2.2606       0.3554      13.2625       8.5509
   3207.6000      19.3488       2.2610       0.3548      12.7470       8.5225
   3207.7500      19.5856       2.2546       0.3469      13.9201       8.4718
   3207.9000      20.0694       2.2577       0.3472      13.8456       8.4675
   3208.0500      19.4577       2.2733       0.3501      12.5315       8.5308
   3208.2000      19.4653       2.2785       0.3478      11.7286       8.5644
   3208.3500      19.1513       2.2725       0.3440      10.9638       8.5438
   3208.5000      19.0648       2.2924       0.3319      12.7588       8.4881
   3208.6500      19.1341       2.2917       0.3360      13.1637       8.5107
   3208.8000      19.3341       2.2889       0.3339      12.0320       8.5296
   3208.9500      18.2975       2.2912       0.3424      11.9754       8.5315
   3209.1000      18.9858       2.2987       0.3368      11.5230       8.4890
   3209.2500      18.4090       2.2977       0.3390      12.3120       8.5307
   3209.4000      17.7395       2.2881       0.3394      12.7284       8.5882
   3209.5500      18.0327       2.2860       0.3403      13.1208       8.5507
   3209.7000      18.9014       2.3007       0.3475      13.9868       8.5569
