~VERSION -------------------------------------------
 VERS.                 2.0 : CWLS LOG ASCII STANDARD - VERSION 2.0
 WRAP.                  NO : ONE LINE PER DEPTH STEP
~WELL -----------------------------------------------
 WELL.                DAN-1X : Well name
 UWI .                DK-DAN-001        : Unique Well ID
 LAT .                55.4721        : Latitude
 LON .                3.9543        : Longitude
 STRT.M               2700.00 : START DEPTH
 STOP.M               3399.90 : STOP DEPTH
 STEP.M               0.1500 : STEP
 NULL.                -9999 : NULL VALUE
~CURVE -----------------------------------------------
 DEPTH .M               : Depth
 GR    .GAPI            : Gamma Ray
 RHOB  .G/C3            : Bulk Density
 NPHI  .V/V             : Neutron Porosity
 RT    .OHMM            : Resistivity
 CALI  .IN              : Caliper
~A  DEPTH              GR        RHOB        NPHI          RT        CALI
# ...
   3024.4500      21.6194       2.2420       0.3634      11.3195       8.6493
   3024.6000      21.5630       2.2535       0.3647      10.6531       8.6337
   3024.7500      21.6073       2.2547       0.3599      11.6506       8.6813
   3024.9000      21.3876       2.2451       0.3606      12.7034       8.7425
   3025.0500      21.4470       2.2384       0.3590      14.2347       8.6608
   3025.2000      21.9739       2.2348       0.3618      13.0392       8.7574
   3025.3500      21.9441       2.2316       0.3597      13.1907       8.8154
   3025.5000      22.0922       2.2417       0.3618      12.1385       8.8554
   3025.6500      23.1493       2.2410       0.3590      11.9447       8.8548
   3025.8000      23.6207       2.2259       0.3561      11.8254       8.8529
   3025.9500      22.4002       2.2418       0.3537      13.3105       8.8063
   3026.1000      21.7459       2.2506       0.3557      12.9064       8.8209
   3026.2500      20.8077       2.2607       0.3522      13.3872       8.8431
   3026.4000      20.3157       2.2551       0.3561      13.0455       8.7747
   3026.5500      19.1420       2.2542       0.3559      12.5008       8.7923
   3026.7000      19.6383       2.2493       0.3532      12.2610       8.7083
   3026.8500      20.7380       2.2492       0.3559      13.5984       8.6439
   3027.0000      21.2041       2.2411       0.3559      13.2633       8.5714
   3027.1500      21.8348       2.2541       0.3581      12.7729       8.5301
   3027.3000      21.8934       2.2593       0.3614      12.7180       8.5023
   3027.4500      21.6136       2.2627       0.3597      12.3112       8.4748
   3027.6000      22.1150       2.2520       0.3584      11.8397       8.4192
   3027.7500      22.0502       2.2490       0.3588      11.8670       8.3395
   3027.9000      21.3295       2.2538       0.3569      11.6367       8.3889
   3028.0500      21.0650       2.2546       0.3571      10.1184       8.4508
   3028.2000      20.8675       2.2549       0.3515      10.1413       8.4864
   3028.3500      20.5402       2.2540       0.3571      10.3074       8.4846
   3028.5000      20.3643       2.2523       0.3583      11.4660       8.4942
   3028.6500      19.3000       2.2691       0.3559      12.1947       8.4696
   3028.8000      19.1355       2.2780       0.3613      11.8019       8.4888
   3028.9500      19.8718       2.2768       0.3643      11.7115       8.5208
   3029.1000      20.5147       2.2688       0.3593      11.7720       8.6171
   3029.2500      21.6432       2.2645       0.3555      12.3179       8.6734
   3029.4000      21.5185       2.2634       0.3561      13.3610       8.7143
   3029.5500      21.3848       2.2703       0.3617      12.3844       8.6763
   3029.7000      21.7472       2.2655       0.3659      13.3902       8.6992
   3029.8500      21.1872       2.2700       0.3675      11.7059       8.7562
   3030.0000      20.7939       2.2708       0.3735      11.8636       8.7834
   3030.1500      20.8196       2.2580       0.3720      11.0583       8.8370
   3030.3000      21.5839       2.2446       0.3697      11.8468       8.7848
   3030.4500      22.5002       2.2424       0.3675      12.4443       8.8290
   3030.6000      23.1968       2.2323       0.3686      13.7085       8.8379
   3030.7500      22.7811       2.2386       0.3679      13.1908       8.8029
   3030.9000      23.4866       2.2341       0.3697      12.5893       8.7750
   3031.0500      23.5633       2.2314       0.3730      14.6687       8.8048
   3031.2000      23.5184       2.2318       0.3740      15.0060       8.7777
   3031.3500      23.3447       2.2299       0.3691      14.2750       8.7288
   3031.5000      23.0759       2.2326       0.3688      13.0972       8.7474
   3031.6500      23.3288       2.2256       0.3695      12.1246       8.7219
   3031.8000      23.0922       2.2340       0.3599      12.9406       8.7925
   3031.9500      23.0902       2.2335       0.3630      11.4908       8.8012
   3032.1000      22.5307       2.2278       0.3650      11.2320       8.7338
   3032.2500      21.6585       2.2186       0.3675      10.2377       8.7535
   3032.4000      21.8700       2.2115       0.3612      10.2676       8.6701
   3032.5500      22.1128       2.2180       0.3596      12.0520       8.6822
   3032.7000      22.1694       2.2247       0.3591      11.4307       8.7155
   3032.8500      22.7995       2.2150       0.3544      11.3015       8.6727
   3033.0000      23.0840       2.2208       0.3472      13.0493       8.6573
   3033.1500      22.9619       2.2165       0.3445      13.6768       8.6541
   3033.3000      22.1391       2.2103       0.3453      12.5814       8.6054
   3033.4500      21.1076       2.2008       0.3442      12.6763       8.5702
   3033.6000      21.0294       2.2047       0.3423      11.6401       8.5610
   3033.7500      21.0066       2.2142       0.3452      11.9162       8.5517
   3033.9000      20.5835       2.2050       0.3453      12.9750       8.5755
   3034.0500      20.5633       2.2101       0.3408      12.4393       8.5757
   3034.2000      20.5665       2.2064       0.3427      13.1161       8.5363
   3034.3500      20.4652       2.2100       0.3407      13.8025       8.5294
   3034.5000      20.9374       2.2046       0.3469      14.7829       8.5255
   3034.6500      21.3921       2.2110       0.3480      15.3617       8.5255
   3034.8000      21.3770       2.2116       0.3526      15.8504       8.5866
   3034.9500      20.7852       2.2196       0.3509      15.9882       8.5597
   3035.1000      21.4798       2.2297       0.3510      18.3885       8.6165
   3035.2500      22.1166       2.2283       0.3509      18.3106       8.5977
   3035.4000      21.7747       2.2407       0.3528      17.9620       8.6664
   3035.5500      21.0814       2.2479       0.3462      15.8681       8.6843
   3035.7000      20.5519       2.2387       0.3449      15.2364       8.7182
   3035.8500      19.6556       2.2387       0.3407      16.4502       8.7942
   3036.0000      20.0110       2.2368       0.3495      16.0934       8.8045
   3036.1500      19.4023       2.2415       0.3529      15.9944       8.8628
   3036.3000      19.7996       2.2457       0.3531      16.3956       8.8820
   3036.4500      20.5844       2.2466       0.3474      16.8379       8.8548
   3036.6000      19.2512       2.2615       0.3447      17.8578       8.8052
   3036.7500      20.0341       2.2448       0.3482      19.7082       8.7736
   3036.9000      19.9787       2.2480       0.3564      20.2605       8.7835
   3037.0500      20.1272       2.2514       0.3601      19.6697       8.6820
   3037.2000      20.2619       2.2563       0.3619      19.1792       8.5786
   3037.3500      21.0568       2.2459       0.3664      18.8153       8.4759
   3037.5000      21.3991       2.2439       0.3562      18.6182       8.4042
   3037.6500      20.2074       2.2423       0.3601      17.3978       8.3656
   3037.8000      20.2159       2.2374       0.3561      15.9347       8.2572
   3037.9500      20.8286       2.2247       0.3508      17.6820       8.2421
   3038.1000      20.3736       2.2125       0.3482      16.6952       8.2646
   3038.2500      20.3677       2.2210       0.3511      16.9314       8.3251
   3038.4000      20.9317       2.2175       0.3510      17.4154       8.2226
   3038.5500      21.8079       2.2058       0.3540      19.4588       8.2541
   3038.7000      22.0201       2.2243       0.3527      18.9965       8.3111
   3038.8500      21.3419       2.2267       0.3542      17.7937       8.3407
   3039.0000      20.6935       2.2238       0.3470      17.5881       8.3875
   3039.1500      21.2747       2.2230       0.3427      18.3042       8.4238
   3039.3000      20.8723       2.2238       0.3366      17.1010       8.5531
   3039.4500      20.8547       2.2311       0.3403      17.0201       8.6005
   3039.6000      21.9181       2.2177       0.3394      17.0367       8.5493
   3039.7500      21.5553       2.2141       0.3370      14.0285       8.5393
