~VERSION -------------------------------------------
 VERS.                 2.0 : CWLS LOG ASCII STANDARD - VERSION 2.0
 WRAP.                  NO : ONE LINE PER DEPTH STEP
~WELL -----------------------------------------------
 WELL.                DAN-1X : Well name
 UWI .                DK-DAN-001        : Unique Well ID
 LAT .                55.4721        : Latitude
 LON .                3.9543        : Longitude
 STRT.M               2700.00 : START DEPTH
 STOP.M               3399.90 : STOP DEPTH
 STEP.M               0.1500 : STEP
 NULL.                -9999 : NULL VALUE
~CURVE -----------------------------------------------
 DEPTH .M               : Depth
 GR    .GAPI            : Gamma Ray
 RHOB  .G/C3            : Bulk Density
 NPHI  .V/V             : Neutron Porosity
 RT    .OHMM            : Resistivity
 CALI  .IN              : Caliper
~A  DEPTH              GR        RHOB        NPHI          RT        CALI
# ...
   2792.7000      20.7635       2.2634       0.3339      10.7441       8.7714
   2792.8500      21.0215       2.2832       0.3399      10.2342       8.7508
   2793.0000      20.1063       2.2780       0.3462      11.2382       8.7508
   2793.1500      21.1644       2.2806       0.3451      10.9613       8.7912
   2793.3000      22.0900       2.2870       0.3446      11.7092       8.7681
   2793.4500      22.4974       2.2775       0.3526      12.4750       8.7501
   2793.6000      21.6189       2.2821       0.3530      12.4575       8.7107
   2793.7500      21.8173       2.2749       0.3484      12.8887       8.7233
   2793.9000      22.2159       2.2868       0.3529      13.1811       8.6689
   2794.0500      21.8544       2.2885       0.3572      12.8618       8.6105
   2794.2000      21.3124       2.2958       0.3573      13.9478       8.5904
   2794.3500      21.7898       2.3043       0.3544      15.0336       8.6210
   2794.5000      21.4191       2.3108       0.3449      16.7779       8.6351
   2794.6500      20.9976       2.3135       0.3528      17.2704       8.6184
   2794.8000      21.2645       2.3161       0.3453      16.9998       8.5690
   2794.9500      21.9780       2.3097       0.3430      17.8488       8.5355
   2795.1000      22.2946       2.3010       0.3336      16.9445       8.5984
   2795.2500      21.9712       2.3001       0.3359      16.4481       8.5200
   2795.4000      22.1278       2.3011       0.3381      16.7172       8.5656
   2795.5500      22.5386       2.2854       0.3342      14.8556       8.5710
   2795.7000      21.3013       2.2847       0.3387      16.7985       8.5133
   2795.8500      21.7833       2.2823       0.3339      18.2752       8.5499
   2796.0000      22.3271       2.2913       0.3306      17.2609       8.6082
   2796.1500      22.4218       2.2995       0.3338      16.2656       8.6015
   2796.3000      21.3324       2.2842       0.3372      15.8840       8.6706
   2796.4500      22.1617       2.2834       0.3380      15.0295       8.7580
   2796.6000      22.4202       2.2921       0.3397      14.5057       8.7306
   2796.7500      22.7793       2.2878       0.3429      14.2288       8.7951
   2796.9000      23.0215       2.2780       0.3439      16.1947       8.7746
   2797.0500      22.7499       2.2658       0.3414      15.4106       8.7569
   2797.2000      23.2662       2.2568       0.3326      13.6335       8.7569
   2797.3500      23.5194       2.2558       0.3316      13.6126       8.7109
   2797.5000      23.1801       2.2671       0.3401      12.8127       8.7536
   2797.6500      23.1010       2.2641       0.3386      12.5433       8.7612
   2797.8000      22.8143       2.2592       0.3458      13.0082       8.6782
   2797.9500      21.6323       2.2582       0.3460      11.4770       8.6622
   2798.1000      21.4266       2.2664       0.3482      13.1508       8.6417
   2798.2500      21.5289       2.2750       0.3517      12.9787       8.5570
   2798.4000      20.9034       2.2739       0.3542      12.1230       8.5829
   2798.5500      20.0110       2.2851       0.3586      12.5539       8.5588
   2798.7000      20.8961       2.2919       0.3576      12.8119       8.6900
   2798.8500      20.6213       2.2791       0.3561      12.7601       8.7274
   2799.0000      20.0775       2.2793       0.3553      11.9552       8.6631
   2799.1500      19.6523       2.2767       0.3549      11.8590       8.6581
   2799.3000      19.8309       2.2902       0.3524      11.4600       8.7978
   2799.4500      18.8782       2.2954       0.3544      12.7353       8.7939
   2799.6000      18.7930       2.2924       0.3487      12.8102       8.8158
   2799.7500      18.8924       2.3027       0.3415      11.9222       8.9914
   2799.9000      18.9044       2.3074       0.3397      11.1469       8.9553
   2800.0500      20.2050       2.3003       0.3410      11.3544       9.0164
   2800.2000      20.3021       2.2997       0.3459      12.1951       8.9078
   2800.3500      19.9722       2.2859       0.3487      10.9113       8.8018
   2800.5000      20.0350       2.2667       0.3489      10.1768       8.7994
   2800.6500      21.0385       2.2802       0.3483      10.7638       8.7826
   2800.8000      21.2955       2.2800       0.3413      11.1086       8.6988
   2800.9500      22.1572       2.2765       0.3421      11.8623       8.6020
   2801.1000      22.0856       2.2708       0.3446      10.9725       8.6189
   2801.2500      21.9441       2.2702       0.3377      11.1128       8.4701
   2801.4000      22.4347       2.2743       0.3376      11.7817       8.4898
   2801.5500      23.3973       2.2592       0.3364      11.4958       8.5039
   2801.7000      23.8038       2.2526       0.3349      11.4739       8.5255
   2801.8500      23.8293       2.2642       0.3393      12.1584       8.5470
   2802.0000      24.3594       2.2478       0.3385      11.9802       8.6202
   2802.1500      24.1711       2.2421       0.3398      12.4200       8.6536
   2802.3000      23.9639       2.2376       0.3380      13.4665       8.6465
   2802.4500      24.6302       2.2300       0.3327      13.6919       8.7621
   2802.6000      24.4570       2.2259       0.3327      14.9120       8.7390
   2802.7500      23.7920       2.2255       0.3356      15.5308       8.7474
   2802.9000      23.3393       2.2363       0.3348      16.1813       8.6829
   2803.0500      21.6862       2.2465       0.3332      16.1200       8.6412
   2803.2000      21.1327       2.2487       0.3356      17.2675       8.6879
   2803.3500      20.6115       2.2647       0.3360      18.7674       8.7821
   2803.5000      20.5979       2.2685       0.3400      18.5953       8.7213
   2803.6500      20.7163       2.2708       0.3402      18.1414       8.7349
   2803.8000      20.3683       2.2678       0.3375      18.7860       8.7202
   2803.9500      19.4553       2.2787       0.3338      18.3594       8.6302
   2804.1000      19.6410       2.2865       0.3290      17.9488       8.5746
   2804.2500      20.2348       2.2866       0.3295      16.4456       8.5792
   2804.4000      20.0361       2.2803       0.3304      17.3416       8.5685
   2804.5500      19.3556       2.2815       0.3349      17.6759       8.6532
   2804.7000      18.9796       2.2820       0.3383      16.0561       8.6399
   2804.8500      19.0745       2.2821       0.3398      14.8194       8.5805
   2805.0000      19.5034       2.2937       0.3479      15.7893       8.6484
   2805.1500      19.3724       2.2921       0.3431      15.5365       8.5478
   2805.3000      19.7513       2.2932       0.3398      14.9494       8.5509
   2805.4500      18.9565       2.3000       0.3438      12.6468       8.6622
   2805.6000      19.6516       2.3103       0.3431      12.3974       8.7087
   2805.7500      19.8980       2.3055       0.3429      12.8696       8.8268
   2805.9000      19.7247       2.2899       0.3430      11.5366       8.9090
   2806.0500      19.7993       2.2942       0.3417      10.4931       8.8808
   2806.2000      20.4590       2.3016       0.3393      10.4857       8.9166
   2806.3500      20.6847       2.2965       0.3341      10.3752       8.9205
   2806.5000      20.3562       2.2923       0.3278      11.1042       8.8321
   2806.6500      19.8726       2.2798       0.3331      11.2658       8.8796
   2806.8000      20.4218       2.2742       0.3380      11.1909       8.8456
   2806.9500      20.1341       2.2619       0.3387      11.3020       8.7630
   2807.1000      19.5583       2.2670       0.3370      11.2979       8.7686
   2807.2500      18.7694       2.2566       0.3375      11.9149       8.7383
   2807.4000      19.7443       2.2473       0.3384      11.7716       8.7306
   2807.5500      20.2216       2.2461       0.3357      12.4337       8.7728
   2807.7000      20.3051       2.2474       0.3287      12.9118       8.6594
   2807.8500      19.9376       2.2457       0.3205      14.0292       8.6107
   2808.0000      19.2308       2.2484       0.3154      14.1712       8.6160
