~VERSION -------------------------------------------
 VERS.                 2.0 : CWLS LOG ASCII STANDARD - VERSION 2.0
 WRAP.                  NO : ONE LINE PER DEPTH STEP
~WELL -----------------------------------------------
 WELL.                DAN-1X : Well name
 UWI .                DK-DAN-001        : Unique Well ID
 LAT .                55.4721        : Latitude
 LON .                3.9543        : Longitude
 STRT.M               2700.00 : START DEPTH
 STOP.M               3399.90 : STOP DEPTH
 STEP.M               0.1500 : STEP
 NULL.                -9999 : NULL VALUE
~CURVE -----------------------------------------------
 DEPTH .M               : Depth
 GR    .GAPI            : Gamma Ray
 RHOB  .G/C3            : Bulk Density
 NPHI  .V/V             : Neutron Porosity
 RT    .OHMM            : Resistivity
 CALI  .IN              : Caliper
~A  DEPTH              GR        RHOB        NPHI          RT        CALI
# ...
   2885.4000      23.3403       2.3039       0.3359      13.5758       8.8431
   2885.5500      22.8839       2.2959       0.3394      13.9772       8.7731
   2885.7000      22.4146       2.2989       0.3387      13.7930       8.8334
   2885.8500      22.1221       2.3020       0.3391      13.2322       8.8212
   2886.0000      21.2719       2.2989       0.3413      14.2963       8.8814
   2886.1500      21.8787       2.2897       0.3523      15.0354       8.8451
   2886.3000      22.9345       2.2898       0.3560      15.2944       8.8304
   2886.4500      23.0894       2.2853       0.3539      15.6269       8.7908
   2886.6000      23.1756       2.2836       0.3457      15.5445       8.7961
   2886.7500      22.7546       2.2958       0.3482      15.4726       8.8173
   2886.9000      22.8202       2.3130       0.3464      14.7831       8.6704
   2887.0500      23.1194       2.3050       0.3379      15.6403       8.6850
   2887.2000      22.8757       2.2871       0.3415      15.9280       8.6356
   2887.3500      23.3243       2.2828       0.3465      14.9844       8.5989
   2887.5000      22.5107       2.2819       0.3478      13.8653       8.5301
   2887.6500      22.3996       2.2924       0.3502      13.3649       8.6326
   2887.8000      22.8391       2.2917       0.3492      12.5479       8.6056
   2887.9500      22.4840       2.2845       0.3463      12.2069       8.6773
   2888.1000      22.5175       2.2780       0.3443      12.6013       8.6859
   2888.2500      22.0797       2.2726       0.3461      13.7187       8.6747
   2888.4000      22.0063       2.2677       0.3475      13.3618       8.7388
   2888.5500      21.8368       2.2685       0.3491      13.0734       8.7118
   2888.7000      22.8016       2.2558       0.3433      13.0553       8.7184
   2888.8500      23.1303       2.2469       0.3457      13.2437       8.7996
   2889.0000      23.9915       2.2399       0.3400      12.4180       8.7904
   2889.1500      24.2194       2.2436       0.3357      12.2261       8.7169
   2889.3000      24.1924       2.2424       0.3363      13.2816       8.8051
   2889.4500      24.3612       2.2478       0.3417      12.5238       8.7682
   2889.6000      24.3896       2.2382       0.3490      12.8824       8.7500
   2889.7500      24.4303       2.2191       0.3513      13.4561       8.6984
   2889.9000      24.6911       2.2068       0.3507      11.8606       8.7749
   2890.0500      24.1414       2.1974       0.3553      11.4263       8.8368
   2890.2000      24.8048       2.2123       0.3486      12.1646       8.8546
   2890.3500      24.2544       2.2071       0.3488      12.1115       8.8079
   2890.5000      24.3601       2.2127       0.3461      11.9873       8.8125
   2890.6500      24.4378       2.2020       0.3496      11.9735       8.8083
   2890.8000      23.6989       2.2048       0.3540      12.7049       8.7592
   2890.9500      22.6806       2.2230       0.3494      12.5154       8.7828
   2891.1000      23.1778       2.2062       0.3471      11.9686       8.7100
   2891.2500      23.2218       2.2145       0.3504      11.8647       8.7494
   2891.4000      23.3681       2.2051       0.3495      12.5386       8.6470
   2891.5500      23.1720       2.2078       0.3444      11.6304       8.5671
   2891.7000      22.8979       2.2161       0.3475      10.0552       8.5684
   2891.8500      23.4392       2.2238       0.3501      10.8373       8.5332
   2892.0000      23.5314       2.2251       0.3540      11.3374       8.5680
   2892.1500      22.9845       2.2252       0.3498      11.1830       8.6033
   2892.3000      22.2292       2.2150       0.3522      10.2014       8.6543
   2892.4500      22.2213       2.2188       0.3521      10.8659       8.6758
   2892.6000      21.3721       2.2274       0.3475      10.2939       8.7279
   2892.7500      21.7246       2.2279       0.3426       9.9894       8.7420
   2892.9000      22.0535       2.2335       0.3461      10.4784       8.6837
   2893.0500      21.6631       2.2497       0.3483      10.1404       8.7554
   2893.2000      20.7505       2.2538       0.3491       8.9947       8.7694
   2893.3500      20.1420       2.2721       0.3444       9.6112       8.8712
   2893.5000      19.8431       2.2622       0.3548       9.8217       8.8014
   2893.6500      19.3871       2.2671       0.3533      10.4088       8.7354
   2893.8000      19.3871       2.2615       0.3490      10.8020       8.6942
   2893.9500      20.3328       2.2514       0.3498      11.2342       8.6889
   2894.1000      20.3160       2.2677       0.3578      11.4869       8.7104
   2894.2500      20.1914       2.2646       0.3557      11.8811       8.6931
   2894.4000      19.3912       2.2742       0.3591      10.7600       8.7280
   2894.5500      19.5232       2.2713       0.3616      10.7815       8.5844
   2894.7000      20.0256       2.2804       0.3657      11.6316       8.5848
   2894.8500      18.5242       2.2797       0.3599      10.6637       8.4461
   2895.0000      18.0555       2.2828       0.3576      11.4883       8.4258
   2895.1500      17.5156       2.2747       0.3629      11.8994       8.4553
   2895.3000      18.0131       2.2801       0.3621      11.5723       8.4579
   2895.4500      17.9009       2.2642       0.3602      11.3189       8.5229
   2895.6000      18.7625       2.2621       0.3587      11.6666       8.5485
   2895.7500      18.8856       2.2796       0.3625      11.3623       8.5984
   2895.9000      19.2819       2.2687       0.3543      12.0267       8.6497
   2896.0500      19.8310       2.2734       0.3459      12.2336       8.7238
   2896.2000      20.2459       2.2471       0.3528      12.5818       8.8127
   2896.3500      20.1149       2.2431       0.3524      10.8717       8.8111
   2896.5000      20.9772       2.2470       0.3422      10.7732       8.8496
   2896.6500      20.6516       2.2446       0.3446      10.7190       8.8514
   2896.8000      21.1273       2.2449       0.3511      10.3128       8.8700
   2896.9500      20.8727       2.2328       0.3557      10.6441       8.7513
   2897.1000      19.9460       2.2174       0.3562      10.6250       8.7427
   2897.2500      20.1380       2.2219       0.3551      11.1098       8.7085
   2897.4000      21.2249       2.2246       0.3518      12.2454       8.7149
   2897.5500      21.7407       2.2230       0.3518      13.5650       8.7320
   2897.7000      20.6120       2.2094       0.3442      12.8935       8.6933
   2897.8500      21.2624       2.2005       0.3496      13.3141       8.7443
   2898.0000      21.6983       2.2042       0.3418      13.1904       8.7820
   2898.1500      21.4703       2.2173       0.3391      13.1281       8.7660
   2898.3000      20.7185       2.2218       0.3351      13.9193       8.6916
   2898.4500      21.3392       2.2220       0.3317      13.2218       8.8014
   2898.6000      21.2856       2.2278       0.3323      14.3551       8.7384
   2898.7500      21.2243       2.2185       0.3376      13.8848       8.7408
   2898.9000      21.2336       2.2249       0.3459      12.5088       8.7295
   2899.0500      21.5022       2.2243       0.3508      12.2693       8.7447
   2899.2000      21.6149       2.2217       0.3469      11.9298       8.6232
   2899.3500      23.2932       2.2216       0.3442      12.4432       8.6608
   2899.5000      22.7315       2.2165       0.3471      14.2421       8.6373
   2899.6500      22.7166       2.2109       0.3439      13.6384       8.6427
   2899.8000      23.1120       2.2087       0.3338      12.9854       8.6713
   2899.9500      23.2965       2.2141       0.3325      12.2809       8.6422
   2900.1000      23.7110       2.2170       0.3280      11.8089       8.7039
   2900.2500      23.2065       2.2157       0.3294      11.5440       8.6731
   2900.4000      23.7434       2.2188       0.3283      10.5082       8.6063
   2900.5500      23.7570       2.2210       0.3264      10.1372       8.5166
   2900.7000      24.0997       2.2216       0.3362      10.1636       8.6067
