~VERSION -------------------------------------------
 VERS.                 2.0 : CWLS LOG ASCII STANDARD - VERSION 2.0
 WRAP.                  NO : ONE LINE PER DEPTH STEP
~WELL -----------------------------------------------
 WELL.                DAN-1X : Well name
 UWI .                DK-DAN-001        : Unique Well ID
 LAT .                55.4721        : Latitude
 LON .                3.9543        : Longitude
 STRT.M               2700.00 : START DEPTH
 STOP.M               3399.90 : STOP DEPTH
 STEP.M               0.1500 : STEP
 NULL.                -9999 : NULL VALUE
~CURVE -----------------------------------------------
 DEPTH .M               : Depth
 GR    .GAPI            : Gamma Ray
 RHOB  .G/C3            : Bulk Density
 NPHI  .V/V             : Neutron Porosity
 RT    .OHMM            : Resistivity
 CALI  .IN              : Caliper
~A  DEPTH              GR        RHOB        NPHI          RT        CALI
# ...
   3240.7500      23.2503       2.2860       0.3148      12.8235       8.4548
   3240.9000      22.5979       2.2840       0.3144      13.0660       8.4768
   3241.0500      23.2456       2.2821       0.3169      13.4911       8.4345
   3241.2000      23.1935       2.2863       0.3176      14.0683       8.4799
   3241.3500      24.0328       2.2898       0.3154      14.6324       8.5749
   3241.5000      23.3681       2.2757       0.3206      13.9177       8.6121
   3241.6500      23.1121       2.2873       0.3242      12.8847       8.6465
   3241.8000      21.8940       2.2855       0.3214      12.7469       8.6352
   3241.9500      22.0964       2.2843       0.3230      12.8027       8.6126
   3242.1000      21.9340       2.2803       0.3207      12.9252       8.6816
   3242.2500      21.8804       2.2869       0.3177      12.9603       8.6258
   3242.4000      22.3668       2.2679       0.3244      13.2517       8.6371
   3242.5500      23.0444       2.2653       0.3222      13.1854       8.7147
   3242.7000      22.0867       2.2621       0.3216      13.2748       8.6386
   3242.8500      22.2629       2.2587       0.3228      12.3380       8.5872
   3243.0000      22.5308       2.2642       0.3188      11.1673       8.5597
   3243.1500      22.5635       2.2645       0.3214      11.3377       8.4883
   3243.3000      23.3459       2.2572       0.3282      11.1264       8.5174
   3243.4500      23.3166       2.2521       0.3273      12.0930       8.5042
   3243.6000      23.4511       2.2563       0.3280      13.4437       8.4786
   3243.7500      24.0825       2.2540       0.3337      14.7747       8.5654
   3243.9000      23.2215       2.2597       0.3274      14.5809       8.5958
   3244.0500      22.6394       2.2626       0.3285      13.8626       8.5694
   3244.2000      23.4545       2.2499       0.3262      13.0094       8.6265
   3244.3500      23.4101       2.2480       0.3284      13.3766       8.5625
   3244.5000      22.9779       2.2455       0.3198      13.6647       8.5462
   3244.6500      22.2243       2.2447       0.3176      14.5569       8.5725
   3244.8000      23.1412       2.2456       0.3245      13.5046       8.6103
   3244.9500      23.4585       2.2428       0.3222      12.8675       8.6623
   3245.1000      22.7787       2.2362       0.3216      12.5942       8.6729
   3245.2500      22.6946       2.2276       0.3194      12.9241       8.7146
   3245.4000      21.2949       2.2356       0.3140      12.7315       8.6855
   3245.5500      21.8456       2.2297       0.3166      14.1860       8.6606
   3245.7000      22.0588       2.2224       0.3170      13.6675       8.6349
   3245.8500      22.1150       2.2304       0.3207      13.2223       8.6220
   3246.0000      21.8833       2.2337       0.3248      13.8136       8.5632
   3246.1500      22.1644       2.2207       0.3243      13.0193       8.6199
   3246.3000      21.7908       2.2359       0.3224      12.8018       8.5228
   3246.4500      22.3932       2.2417       0.3188      12.7155       8.4525
   3246.6000      22.7318       2.2392       0.3177      11.2789       8.4212
   3246.7500      23.0497       2.2419       0.3153      10.7289       8.3362
   3246.9000      23.7051       2.2274       0.3187      11.0866       8.3848
   3247.0500      23.7174       2.2296       0.3199      11.3155       8.4092
   3247.2000      23.9491       2.2346       0.3280      11.6136       8.3914
   3247.3500      23.4913       2.2347       0.3286      11.6975       8.4903
   3247.5000      24.0315       2.2419       0.3389      12.1657       8.5794
   3247.6500      24.6598       2.2395       0.3454      12.8077       8.4981
   3247.8000      24.1549       2.2379       0.3451      14.5778       8.5640
   3247.9500      24.0192       2.2431       0.3422      15.6216       8.5784
   3248.1000      24.4041       2.2437       0.3426      14.8521       8.5528
   3248.2500      24.4461       2.2564       0.3447      16.0406       8.6441
   3248.4000      24.4043       2.2643       0.3496      17.1402       8.6136
   3248.5500      23.8388       2.2789       0.3514      17.9177       8.6025
   3248.7000      23.5558       2.2902       0.3528      17.2963       8.6379
   3248.8500      22.3151       2.2870       0.3508      19.0258       8.6340
   3249.0000      22.3492       2.2911       0.3497      19.3336       8.5767
   3249.1500      21.9725       2.3052       0.3521      21.5087       8.6119
   3249.3000      22.0805       2.2837       0.3594      19.9985       8.6281
   3249.4500      21.9661       2.2896       0.3625      19.2265       8.5967
   3249.6000      20.9785       2.2922       0.3623      18.0269       8.6660
   3249.7500      20.1848       2.2929       0.3656      18.5279       8.5312
   3249.9000      20.8350       2.2966       0.3644      20.5002       8.5164
   3250.0500      20.5093       2.2891       0.3640      19.5710       8.4651
   3250.2000      19.9874       2.2815       0.3604      19.4115       8.4195
   3250.3500      20.0754       2.2839       0.3559      18.6468       8.4364
   3250.5000      20.1056       2.2756       0.3539      17.6041       8.5063
   3250.6500      19.8463       2.2759       0.3483      16.7109       8.5736
   3250.8000      19.9099       2.2755       0.3438      15.9762       8.4893
   3250.9500      20.1364       2.2618       0.3457      14.2989       8.5073
   3251.1000      19.8312       2.2703       0.3441      15.0136       8.4813
   3251.2500      19.4787       2.2549       0.3450      15.0791       8.5699
   3251.4000      20.2186       2.2465       0.3436      14.8792       8.5477
   3251.5500      19.7297       2.2291       0.3387      14.8105       8.5846
   3251.7000      20.3409       2.2169       0.3401      15.5845       8.5816
   3251.8500      22.0852       2.2030       0.3351      15.3695       8.5960
   3252.0000      22.5706       2.1829       0.3437      15.8548       8.5352
   3252.1500      22.6628       2.1943       0.3407      14.1685       8.4904
   3252.3000      22.4178       2.2161       0.3341      14.6674       8.5517
   3252.4500      21.4910       2.2077       0.3292      15.1093       8.6380
   3252.6000      21.6620       2.1959       0.3322      15.4866       8.5863
   3252.7500      22.7196       2.1943       0.3288      15.6748       8.6044
   3252.9000      21.6143       2.2069       0.3274      14.8220       8.5852
   3253.0500      21.7534       2.2074       0.3294      14.3745       8.6550
   3253.2000      21.4428       2.2197       0.3272      14.5974       8.6403
   3253.3500      21.2928       2.2140       0.3332      13.8257       8.5698
   3253.5000      20.7702       2.2202       0.3346      13.2642       8.6538
   3253.6500      21.0033       2.2153       0.3391      14.3375       8.6804
   3253.8000      20.4221       2.2221       0.3476      13.4457       8.6939
   3253.9500      20.0710       2.2248       0.3423      13.1798       8.6078
   3254.1000      19.9378       2.2261       0.3421      13.3685       8.6165
   3254.2500      20.5668       2.2253       0.3410      13.0802       8.6235
   3254.4000      20.3669       2.2210       0.3476      12.9237       8.6935
   3254.5500      20.7805       2.2369       0.3555      13.3488       8.6825
   3254.7000      20.8483       2.2405       0.3576      12.6821       8.7455
   3254.8500      19.7409       2.2603       0.3576      12.1481       8.7384
   3255.0000      19.0896       2.2627       0.3487      12.6380       8.7040
   3255.1500      18.9904       2.2490       0.3465      13.5630       8.6865
   3255.3000      19.2919       2.2367       0.3477      14.4902       8.6629
   3255.4500      19.9331       2.2477       0.3551      14.1832       8.6483
   3255.6000      20.4942       2.2409       0.3509      15.8413       8.7158
   3255.7500      19.6684       2.2421       0.3518      16.1331       8.6796
   3255.9000      19.6400       2.2456       0.3582      15.5069       8.6365
   3256.0500      20.2274       2.2440       0.3507      15.5965       8.6480
