~VERSION -------------------------------------------
 VERS.                 2.0 : CWLS LOG ASCII STANDARD - VERSION 2.0
 WRAP.                  NO : ONE LINE PER DEPTH STEP
~WELL -----------------------------------------------
 WELL.                DAN-1X : Well name
 UWI .                DK-DAN-001        : Unique Well ID
 LAT .                55.4721        : Latitude
 LON .                3.9543        : Longitude
 STRT.M               2700.00 : START DEPTH
 STOP.M               3399.90 : STOP DEPTH
 STEP.M               0.1500 : STEP
 NULL.                -9999 : NULL VALUE
~CURVE -----------------------------------------------
 DEPTH .M               : Depth
 GR    .GAPI            : Gamma Ray
 RHOB  .G/C3            : Bulk Density
 NPHI  .V/V             : Neutron Porosity
 RT    .OHMM            : Resistivity
 CALI  .IN              : Caliper
~A  DEPTH              GR        RHOB        NPHI          RT        CALI
# ...
   3333.4500      26.6439       2.2850       0.3457      11.7544       8.4073
   3333.6000      27.2602       2.3006       0.3471      11.1368       8.3874
   3333.7500      27.8000       2.2919       0.3493      10.4664       8.4489
   3333.9000      27.4879       2.2894       0.3555      10.0572       8.5049
   3334.0500      27.0858       2.2834       0.3574       9.7622       8.6114
   3334.2000      26.9853       2.2902       0.3494       9.3611       8.7032
   3334.3500      26.2662       2.2806       0.3409       9.0642       8.6146
   3334.5000      26.6771       2.2875       0.3395       9.2170       8.6125
   3334.6500      26.0403       2.2788       0.3320       9.2773       8.6598
   3334.8000      25.4839       2.2653       0.3330       9.3443       8.7052
   3334.9500      23.7561       2.2575       0.3312       8.7270       8.6638
   3335.1000      23.9323       2.2633       0.3296       8.4518       8.6604
   3335.2500      24.2968       2.2497       0.3338       7.8582       8.5946
   3335.4000      24.1185       2.2494       0.3317       8.2028       8.5476
   3335.5500      24.0458       2.2482       0.3353       8.3912       8.4289
   3335.7000      23.4661       2.2511       0.3388       8.4457       8.3703
   3335.8500      23.4825       2.2425       0.3344       8.8050       8.3829
   3336.0000      23.7068       2.2406       0.3353       9.2792       8.4366
   3336.1500      23.1347       2.2360       0.3300       9.4148       8.4661
   3336.3000      22.6795       2.2354       0.3224      10.5168       8.3852
   3336.4500      23.2568       2.2340       0.3197      10.5816       8.4236
   3336.6000      21.9937       2.2247       0.3230      10.9051       8.3848
   3336.7500      21.1858       2.2376       0.3202      12.1475       8.4883
   3336.9000      21.3384       2.2515       0.3122      13.1803       8.5769
   3337.0500      20.5617       2.2500       0.3118      13.3101       8.5973
   3337.2000      20.9183       2.2332       0.3135      13.5814       8.5757
   3337.3500      21.5542       2.2362       0.3168      13.9417       8.5966
   3337.5000      21.1501       2.2302       0.3271      13.7680       8.5392
   3337.6500      21.2544       2.2393       0.3277      13.6885       8.5160
   3337.8000      22.0414       2.2405       0.3284      14.3193       8.6288
   3337.9500      22.2741       2.2476       0.3288      16.3502       8.6660
   3338.1000      22.9221       2.2483       0.3291      17.1271       8.7648
   3338.2500      22.5648       2.2491       0.3345      18.4754       8.7179
   3338.4000      22.3845       2.2508       0.3422      18.6498       8.6072
   3338.5500      21.9786       2.2457       0.3381      18.5943       8.5787
   3338.7000      21.9154       2.2490       0.3373      17.7114       8.6152
   3338.8500      22.6295       2.2563       0.3423      18.1635       8.5937
   3339.0000      21.9696       2.2430       0.3445      17.6154       8.6240
   3339.1500      21.5682       2.2479       0.3499      18.3770       8.6605
   3339.3000      21.3084       2.2573       0.3538      16.4734       8.6275
   3339.4500      21.2733       2.2568       0.3584      16.2741       8.6095
   3339.6000      22.7110       2.2383       0.3578      16.0328       8.5106
   3339.7500      23.1847       2.2342       0.3648      14.8182       8.5572
   3339.9000      22.6375       2.2356       0.3679      14.6580       8.5433
   3340.0500      23.6389       2.2433       0.3675      14.1501       8.5680
   3340.2000      23.0961       2.2450       0.3600      14.5844       8.5903
   3340.3500      22.3403       2.2514       0.3575      14.6296       8.6527
   3340.5000      22.1047       2.2380       0.3504      13.6411       8.5894
   3340.6500      22.5514       2.2387       0.3478      13.1002       8.5133
   3340.8000      21.4038       2.2380       0.3499      13.2119       8.5030
   3340.9500      21.9096       2.2491       0.3472      12.7325       8.5032
   3341.1000      21.3770       2.2515       0.3444      12.5009       8.5189
   3341.2500      21.4813       2.2657       0.3393      12.5808       8.4813
   3341.4000      22.3493       2.2636       0.3379      11.8795       8.4813
   3341.5500      22.3834       2.2708       0.3384      11.3061       8.5123
   3341.7000      21.9743       2.2641       0.3364      11.3526       8.4523
   3341.8500      21.4589       2.2478       0.3354      10.2783       8.4411
   3342.0000      21.6981       2.2452       0.3352      11.5714       8.4887
   3342.1500      22.0299       2.2433       0.3380      10.5482       8.5791
   3342.3000      21.8334       2.2342       0.3385      10.6177       8.5773
   3342.4500      21.3293       2.2335       0.3306      10.0156       8.5329
   3342.6000      21.1042       2.2474       0.3270      10.9683       8.5916
   3342.7500      20.9766       2.2500       0.3222      10.5958       8.6616
   3342.9000      21.3118       2.2428       0.3225      10.2746       8.7512
   3343.0500      20.9008       2.2239       0.3206       9.9678       8.7238
   3343.2000      20.7328       2.2404       0.3314       9.8614       8.7258
   3343.3500      21.5551       2.2359       0.3363       9.6249       8.6980
   3343.5000      21.8632       2.2473       0.3347      10.3443       8.7287
   3343.6500      21.1225       2.2477       0.3366      10.7060       8.6468
   3343.8000      22.2609       2.2524       0.3400       9.5744       8.6372
   3343.9500      21.6529       2.2387       0.3459       9.3973       8.7187
   3344.1000      21.6005       2.2329       0.3506       9.3955       8.7103
   3344.2500      21.7687       2.2191       0.3488       8.5632       8.5815
   3344.4000      21.0919       2.2268       0.3431       9.1541       8.6390
   3344.5500      21.4814       2.2146       0.3429       9.7657       8.7118
   3344.7000      22.5901       2.2049       0.3421       9.8171       8.7652
   3344.8500      22.7767       2.2248       0.3410      10.3149       8.8409
   3345.0000      21.9112       2.2375       0.3368       9.6489       8.8030
   3345.1500      22.2185       2.2326       0.3332      11.0013       8.8675
   3345.3000      22.8631       2.2216       0.3309      12.7647       8.8504
   3345.4500      23.2268       2.2257       0.3355      12.9256       8.7387
   3345.6000      22.8127       2.2297       0.3395      12.5547       8.8363
   3345.7500      22.7713       2.2287       0.3350      13.7149       8.8232
   3345.9000      22.5698       2.2163       0.3352      13.3141       8.7480
   3346.0500      22.9196       2.2268       0.3415      13.9670       8.6890
   3346.2000      22.9665       2.2177       0.3376      13.7602       8.6896
   3346.3500      21.9164       2.2194       0.3359      13.1413       8.6349
   3346.5000      23.2012       2.2175       0.3415      12.7776       8.6425
   3346.6500      23.0922       2.2058       0.3399      12.7245       8.6190
   3346.8000      22.6938       2.1976       0.3340      14.2135       8.6552
   3346.9500      22.3845       2.1978       0.3289      13.2234       8.7093
   3347.1000      22.6690       2.2003       0.3202      12.5582       8.6029
   3347.2500      22.2916       2.1920       0.3228      13.5569       8.6063
   3347.4000      22.1145       2.1897       0.3211      13.4933       8.6749
   3347.5500      22.4287       2.2053       0.3231      12.3381       8.6849
   3347.7000      21.7808       2.2121       0.3259      12.9722       8.6727
   3347.8500      21.8737       2.2076       0.3320      13.3363       8.6513
   3348.0000      21.8737       2.1974       0.3338      13.3736       8.6143
   3348.1500      22.4779       2.1865       0.3379      12.1101       8.6432
   3348.3000      21.9860       2.2072       0.3415      11.4806       8.6176
   3348.4500      22.5801       2.2114       0.3409      13.0707       8.6425
   3348.6000      22.8903       2.2092       0.3318      12.1111       8.5911
   3348.7500      23.1327       2.2014       0.3412      11.4254       8.7058
