~VERSION -------------------------------------------
 VERS.                 2.0 : CWLS LOG ASCII STANDARD - VERSION 2.0
 WRAP.                  NO : ONE LINE PER DEPTH STEP
~WELL -----------------------------------------------
 WELL.                TYRA-2 : Well name
 UWI .                DK-TYR-002        : Unique Well ID
 LAT .                55.6832        : Latitude
 LON .                4.4123        : Longitude
 STRT.M               2400.00 : START DEPTH
 STOP.M               3099.90 : STOP DEPTH
 STEP.M               0.1500 : STEP
 NULL.                -9999 : NULL VALUE
~CURVE -----------------------------------------------
 DEPTH .M               : Depth
 GR    .GAPI            : Gamma Ray
 RHOB  .G/C3            : Bulk Density
 NPHI  .V/V             : Neutron Porosity
 RT    .OHMM            : Resistivity
 CALI  .IN              : Caliper
~A  DEPTH              GR        RHOB        NPHI          RT        CALI
# ...
   2987.1000      31.1688       2.2816       0.3066       7.7942       8.5706
   2987.2500      31.4585       2.2951       0.3097       6.8040       8.5825
   2987.4000      31.8202       2.2952       0.3076       7.2846       8.5466
   2987.5500      31.0310       2.3179       0.3043       8.0732       8.5718
   2987.7000      31.3164       2.3173       0.3055       8.3106       8.5568
   2987.8500      31.4017       2.3196       0.3038       9.3879       8.4926
   2988.0000      31.2043       2.3266       0.3082       9.2239       8.4551
   2988.1500      31.4489       2.3303       0.3100       9.3028       8.4209
   2988.3000      29.7531       2.3388       0.3027       9.2793       8.4347
   2988.4500      29.6120       2.3364       0.3165       8.7268       8.4857
   2988.6000      29.5483       2.3275       0.3129       8.4378       8.4944
   2988.7500      30.2790       2.3346       0.3098       9.5391       8.4248
   2988.9000      29.5239       2.3492       0.3046      10.1420       8.4654
   2989.0500      29.3841       2.3628       0.3056       9.4612       8.5627
   2989.2000      28.3863       2.3642       0.3101      10.4297       8.5515
   2989.3500      27.5233       2.3587       0.3091      12.1344       8.5970
   2989.5000      27.8446       2.3576       0.3018      11.6867       8.5545
   2989.6500      27.3020       2.3484       0.2940      11.4404       8.5659
   2989.8000      26.5292       2.3521       0.2880      10.4272       8.6334
   2989.9500      27.6364       2.3665       0.2817      11.2837       8.6126
   2990.1000      28.1765       2.3716       0.2803      11.0791       8.5928
   2990.2500      27.4427       2.3664       0.2781      10.3315       8.6296
   2990.4000      26.9465       2.3639       0.2820      10.1484       8.6562
   2990.5500      27.7430       2.3486       0.2844      10.2537       8.6114
   2990.7000      26.8127       2.3309       0.2846      10.6533       8.6558
   2990.8500      27.7837       2.3333       0.2917       9.5389       8.5802
   2991.0000      28.5242       2.3243       0.2987       9.4783       8.6221
   2991.1500      29.2713       2.3243       0.3002      10.1636       8.6236
   2991.3000      29.5689       2.3359       0.3077      10.1050       8.5599
   2991.4500      29.7267       2.3382       0.3012      10.5533       8.5539
   2991.6000      30.0573       2.3517       0.2989      11.1371       8.5668
   2991.7500      28.9133       2.3312       0.3001      11.2546       8.5257
   2991.9000      28.9644       2.3246       0.2997      10.2882       8.5206
   2992.0500      29.4911       2.3075       0.2982      11.2352       8.4603
   2992.2000      29.6302       2.3087       0.2904      10.9769       8.4005
   2992.3500      29.7879       2.3198       0.2912       9.9353       8.4234
   2992.5000      30.6285       2.3251       0.2918       9.6446       8.3978
   2992.6500      30.7618       2.3332       0.2960       9.8416       8.3863
   2992.8000      30.7708       2.3169       0.2995      10.4168       8.4408
   2992.9500      29.6550       2.3146       0.3037      10.7882       8.4627
   2993.1000      29.0584       2.3011       0.3155      11.8893       8.4543
   2993.2500      29.3446       2.2865       0.3140      13.5340       8.5072
   2993.4000      29.0651       2.2881       0.3095      13.0922       8.4753
   2993.5500      28.8949       2.2864       0.3118      11.8247       8.4256
   2993.7000      29.9154       2.3009       0.3162      10.9702       8.4422
   2993.8500      29.5160       2.2979       0.3054      11.4264       8.4522
   2994.0000      28.4522       2.3001       0.3001      10.6546       8.4966
   2994.1500      27.9401       2.2958       0.2996      10.9226       8.4660
   2994.3000      29.2666       2.3037       0.2996      10.9825       8.4477
   2994.4500      29.2525       2.3044       0.3023       9.7693       8.4321
   2994.6000      29.0413       2.2978       0.3042       9.1943       8.4001
   2994.7500      30.6345       2.3063       0.3098       9.3446       8.3609
   2994.9000      32.3493       2.2994       0.3072      10.2240       8.3807
   2995.0500      31.7785       2.3022       0.3062       9.5644       8.4641
   2995.2000      32.0347       2.3172       0.3155       9.8224       8.4199
   2995.3500      32.2696       2.2986       0.3169       9.5493       8.4391
   2995.5000      30.8544       2.2840       0.3166       9.5560       8.3784
   2995.6500      30.7855       2.2750       0.3153       8.9461       8.4773
   2995.8000      30.7971       2.2756       0.3171       9.2224       8.4631
   2995.9500      30.8796       2.2707       0.3151       8.4409       8.4372
   2996.1000      30.8572       2.2776       0.3042       7.6748       8.4996
   2996.2500      30.6905       2.2915       0.3106       7.4990       8.4942
   2996.4000      30.6128       2.2964       0.3104       7.6877       8.4951
   2996.5500      31.3531       2.3134       0.3110       8.5430       8.4423
   2996.7000      31.5084       2.3244       0.2994       8.4326       8.4423
   2996.8500      31.9549       2.3109       0.3049       9.0862       8.3796
   2997.0000      32.6903       2.3154       0.3035      10.1462       8.4363
   2997.1500      31.6507       2.3062       0.2973      10.0230       8.4247
   2997.3000      30.3949       2.3000       0.2955       9.6152       8.4447
   2997.4500      29.7025       2.2952       0.2895      10.2329       8.5064
   2997.6000      29.0714       2.2955       0.2896      10.4315       8.4628
   2997.7500      26.8429       2.2889       0.2864       9.9224       8.5219
   2997.9000      24.6373       2.2970       0.2836       9.1460       8.5299
   2998.0500      24.9548       2.2876       0.2771       9.2723       8.4842
   2998.2000      25.1320       2.2743       0.2689       8.5026       8.5727
   2998.3500      25.2605       2.2745       0.2720       9.0321       8.6126
   2998.5000      27.0462       2.2813       0.2763       9.4256       8.5960
   2998.6500      26.9482       2.3029       0.2845      10.6773       8.5482
   2998.8000      26.7820       2.3186       0.2800      10.4845       8.5003
   2998.9500      27.6392       2.3047       0.2782       9.5382       8.4856
   2999.1000      27.0353       2.3037       0.2829       9.0605       8.5275
   2999.2500      26.5079       2.2931       0.2783       8.8864       8.5224
   2999.4000      26.9759       2.3072       0.2797       9.5780       8.4991
   2999.5500      26.5723       2.2997       0.2784       9.0223       8.5563
   2999.7000      26.1086       2.2987       0.2874       9.2541       8.5075
   2999.8500      25.0276       2.3169       0.2796       8.5351       8.5337
   3000.0000      24.3823       2.3028       0.2779       8.3481       8.5648
   3000.1500      24.6374       2.2985       0.2798       8.6802       8.5813
   3000.3000      24.3432       2.2921       0.2781       9.4493       8.6129
   3000.4500      25.4275       2.3100       0.2835       9.9329       8.5408
   3000.6000      25.9902       2.3121       0.2871      10.5119       8.4803
   3000.7500      28.0520       2.3291       0.2870      10.2423       8.4470
   3000.9000      28.1044       2.3107       0.2926      10.8379       8.4886
   3001.0500      28.3696       2.3180       0.2904      11.1110       8.4567
   3001.2000      28.4762       2.3182       0.2907      11.4447       8.4438
   3001.3500      28.4595       2.3207       0.2880      11.1842       8.3721
   3001.5000      27.3743       2.3204       0.2803      11.2062       8.3057
   3001.6500      27.5539       2.3003       0.2770      10.5284       8.2677
   3001.8000      27.9917       2.2887       0.2806      10.5580       8.2821
   3001.9500      26.2568       2.3039       0.2793      11.0813       8.3149
   3002.1000      27.6456       2.3143       0.2737      11.3776       8.3461
   3002.2500      28.5837       2.3247       0.2724      11.6958       8.3371
   3002.4000      28.6497       2.3061       0.2713      10.6490       8.3010
