~VERSION -------------------------------------------
 VERS.                 2.0 : CWLS LOG ASCII STANDARD - VERSION 2.0
 WRAP.                  NO : ONE LINE PER DEPTH STEP
~WELL -----------------------------------------------
 WELL.                TYRA-2 : Well name
 UWI .                DK-TYR-002        : Unique Well ID
 LAT .                55.6832        : Latitude
 LON .                4.4123        : Longitude
 STRT.M               2400.00 : START DEPTH
 STOP.M               3099.90 : STOP DEPTH
 STEP.M               0.1500 : STEP
 NULL.                -9999 : NULL VALUE
~CURVE -----------------------------------------------
 DEPTH .M               : Depth
 GR    .GAPI            : Gamma Ray
 RHOB  .G/C3            : Bulk Density
 NPHI  .V/V             : Neutron Porosity
 RT    .OHMM            : Resistivity
 CALI  .IN              : Caliper
~A  DEPTH              GR        RHOB        NPHI          RT        CALI
# ...
   2940.7500      29.7390       2.3202       0.3256      13.7010       8.4764
   2940.9000      29.2186       2.3096       0.3255      13.2269       8.4414
   2941.0500      29.1864       2.3140       0.3186      14.4338       8.4254
   2941.2000      28.9496       2.3191       0.3137      14.0128       8.3706
   2941.3500      29.3309       2.3053       0.3161      12.2266       8.3484
   2941.5000      29.4516       2.3016       0.3115      12.7833       8.3356
   2941.6500      28.2280       2.3069       0.3108      12.3530       8.3882
   2941.8000      28.5400       2.3066       0.3054      11.4457       8.3281
   2941.9500      29.4612       2.3115       0.3094      12.0368       8.3626
   2942.1000      29.6073       2.3129       0.3134      11.1443       8.4255
   2942.2500      29.2206       2.3087       0.3024      11.1800       8.3648
   2942.4000      29.3331       2.3086       0.2979      11.8743       8.4021
   2942.5500      29.9607       2.3146       0.2948      12.5666       8.4444
   2942.7000      30.6263       2.3072       0.2961      13.1369       8.4906
   2942.8500      30.9554       2.3117       0.3047      12.5231       8.5552
   2943.0000      30.6456       2.3039       0.3105      12.9656       8.5377
   2943.1500      30.6757       2.2929       0.3071      11.4825       8.5536
   2943.3000      29.9714       2.2941       0.3141      11.0537       8.6213
   2943.4500      29.0657       2.2798       0.3206      10.5580       8.5869
   2943.6000      27.1170       2.2662       0.3170      11.0332       8.5894
   2943.7500      25.6818       2.2644       0.3152      10.3384       8.5586
   2943.9000      26.7164       2.2767       0.3093      10.2003       8.5188
   2944.0500      27.0475       2.2539       0.3154       9.6950       8.4774
   2944.2000      27.3357       2.2537       0.3118       9.4534       8.4869
   2944.3500      26.8220       2.2638       0.3086       9.4534       8.3881
   2944.5000      25.5540       2.2519       0.3073       8.2794       8.3993
   2944.6500      25.5319       2.2549       0.3047       8.1139       8.3674
   2944.8000      25.8370       2.2638       0.2967       8.5002       8.3782
   2944.9500      26.4138       2.2585       0.2975       8.1656       8.4060
   2945.1000      27.3388       2.2732       0.3080       7.4101       8.4322
   2945.2500      29.0646       2.2748       0.3135       6.9660       8.4682
   2945.4000      30.6466       2.2651       0.3180       6.1745       8.5023
   2945.5500      30.2841       2.2632       0.3162       6.1765       8.5617
   2945.7000      31.3159       2.2730       0.3213       5.9441       8.6234
   2945.8500      29.8383       2.2731       0.3144       6.3043       8.6660
   2946.0000      29.5391       2.2693       0.3153       5.5579       8.6392
   2946.1500      30.0672       2.2918       0.3202       5.5531       8.6618
   2946.3000      30.5046       2.2982       0.3160       6.5386       8.5756
   2946.4500      30.9806       2.3267       0.3184       6.8321       8.5523
   2946.6000      31.6831       2.3423       0.3180       6.8249       8.5564
   2946.7500      33.9318       2.3417       0.3223       6.1802       8.5629
   2946.9000      32.7808       2.3391       0.3272       7.0571       8.5340
   2947.0500      31.0548       2.3428       0.3211       7.2194       8.5991
   2947.2000      31.6169       2.3401       0.3233       7.0255       8.4835
   2947.3500      32.1613       2.3435       0.3283       7.2520       8.5125
   2947.5000      33.6539       2.3508       0.3272       7.8325       8.5106
   2947.6500      33.8681       2.3392       0.3297       8.1132       8.5579
   2947.8000      32.6755       2.3401       0.3395       8.1295       8.5891
   2947.9500      32.2283       2.3616       0.3393       9.0061       8.6247
   2948.1000      30.9068       2.3359       0.3247       9.1179       8.5289
   2948.2500      30.3264       2.3418       0.3256       9.5128       8.5818
   2948.4000      29.5527       2.3619       0.3238      10.5044       8.5902
   2948.5500      30.4410       2.3678       0.3294      10.7531       8.4973
   2948.7000      28.7024       2.3563       0.3243      10.4472       8.5458
   2948.8500      30.1512       2.3658       0.3273       9.8062       8.5049
   2949.0000      30.0759       2.3636       0.3168      10.4392       8.4827
   2949.1500      30.5359       2.3506       0.3115      11.7222       8.4124
   2949.3000      30.6112       2.3422       0.3119      10.0311       8.4215
   2949.4500      30.2400       2.3032       0.3190       9.5417       8.4426
   2949.6000      30.8557       2.2878       0.3183      10.0864       8.5677
   2949.7500      30.1880       2.2915       0.3149      10.0335       8.5173
   2949.9000      30.5613       2.2877       0.3120       9.6014       8.5691
   2950.0500      30.6794       2.2950       0.3114       8.1349       8.5416
   2950.2000      29.7716       2.3014       0.3166       8.7202       8.4955
   2950.3500      29.5935       2.2948       0.3116       9.2347       8.5050
   2950.5000      28.4387       2.2946       0.3147       9.1798       8.5293
   2950.6500      27.7166       2.2885       0.3153       8.6080       8.5355
   2950.8000      28.8552       2.2670       0.3157       8.4950       8.5277
   2950.9500      29.2984       2.2497       0.3071       7.7057       8.4666
   2951.1000      31.4964       2.2645       0.3117       8.6676       8.4358
   2951.2500      31.7505       2.2608       0.3110       8.9404       8.4083
   2951.4000      30.6330       2.2491       0.3096       7.9896       8.3667
   2951.5500      31.2116       2.2373       0.3084       7.3758       8.3387
   2951.7000      31.9000       2.2366       0.3096       7.3878       8.3680
   2951.8500      30.4512       2.2362       0.3116       7.6959       8.3476
   2952.0000      30.3753       2.2368       0.3202       7.8125       8.3315
   2952.1500      29.5004       2.2413       0.3247       7.0886       8.3390
   2952.3000      29.5985       2.2317       0.3252       8.6293       8.3398
   2952.4500      29.0787       2.2557       0.3113       8.5454       8.4160
   2952.6000      28.6890       2.2579       0.3074       8.8223       8.3591
   2952.7500      28.5038       2.2518       0.3049       9.2633       8.3680
   2952.9000      27.4566       2.2635       0.3064       8.3841       8.3826
   2953.0500      28.3982       2.2557       0.3109       9.2313       8.4347
   2953.2000      28.8117       2.2511       0.3114       9.6853       8.4219
   2953.3500      27.9722       2.2459       0.3125       9.9813       8.4836
   2953.5000      27.7783       2.2494       0.3066      10.0293       8.4841
   2953.6500      27.8655       2.2539       0.3076      10.5040       8.4799
   2953.8000      26.5525       2.2651       0.2970      10.1181       8.4541
   2953.9500      25.8628       2.2780       0.3013      10.6205       8.4237
   2954.1000      24.7047       2.2821       0.2930       9.7083       8.4675
   2954.2500      23.5736       2.2784       0.2922       9.0863       8.4829
   2954.4000      24.8823       2.2784       0.2922      10.0052       8.5170
   2954.5500      23.7200       2.2785       0.2905      10.2851       8.4929
   2954.7000      23.2430       2.2824       0.2860      11.3474       8.5541
   2954.8500      24.0018       2.2682       0.2800      11.5173       8.4984
   2955.0000      25.0658       2.2514       0.2803      11.1597       8.5237
   2955.1500      26.1351       2.2361       0.2739      10.6119       8.5268
   2955.3000      25.3877       2.2522       0.2726       8.9020       8.5987
   2955.4500      26.8443       2.2471       0.2745      10.3189       8.5837
   2955.6000      27.3790       2.2549       0.2712       9.4840       8.5769
   2955.7500      27.1611       2.2633       0.2803       9.9396       8.5655
   2955.9000      29.1673       2.2498       0.2831      10.1273       8.5403
   2956.0500      28.2834       2.2408       0.2797       9.4802       8.5210
