~VERSION -------------------------------------------
 VERS.                 2.0 : CWLS LOG ASCII STANDARD - VERSION 2.0
 WRAP.                  NO : ONE LINE PER DEPTH STEP
~WELL -----------------------------------------------
 WELL.                TYRA-2 : Well name
 UWI .                DK-TYR-002        : Unique Well ID
 LAT .                55.6832        : Latitude
 LON .                4.4123        : Longitude
 STRT.M               2400.00 : START DEPTH
 STOP.M               3099.90 : STOP DEPTH
 STEP.M               0.1500 : STEP
 NULL.                -9999 : NULL VALUE
~CURVE -----------------------------------------------
 DEPTH .M               : Depth
 GR    .GAPI            : Gamma Ray
 RHOB  .G/C3            : Bulk Density
 NPHI  .V/V             : Neutron Porosity
 RT    .OHMM            : Resistivity
 CALI  .IN              : Caliper
~A  DEPTH              GR        RHOB        NPHI          RT        CALI
# ...
   2801.7000      27.0244       2.2725       0.2864       5.5581       8.5155
   2801.8500      26.7441       2.2585       0.2817       5.5581       8.5710
   2802.0000      26.5458       2.2493       0.2791       6.0529       8.5981
   2802.1500      27.3115       2.2639       0.2824       5.6488       8.5974
   2802.3000      27.4700       2.2744       0.2816       5.7071       8.5180
   2802.4500      27.8790       2.3028       0.2889       5.3449       8.4705
   2802.6000      26.0786       2.3032       0.2905       5.1065       8.4337
   2802.7500      25.7447       2.3016       0.2888       5.7069       8.4633
   2802.9000      24.9949       2.3003       0.2868       6.0652       8.5777
   2803.0500      25.4363       2.2968       0.2883       5.8284       8.5489
   2803.2000      25.7664       2.2986       0.2894       6.0118       8.5268
   2803.3500      26.3773       2.2885       0.2927       5.7648       8.4884
   2803.5000      25.5241       2.2785       0.2925       6.0237       8.4444
   2803.6500      25.7534       2.2986       0.2827       6.4938       8.3779
   2803.8000      26.2833       2.2942       0.2786       6.8097       8.4295
   2803.9500      25.3015       2.2823       0.2799       7.1773       8.4919
   2804.1000      24.9606       2.2884       0.2800       6.7785       8.4992
   2804.2500      26.2259       2.2963       0.2702       6.8479       8.4524
   2804.4000      25.2981       2.2917       0.2751       6.7755       8.3722
   2804.5500      25.2450       2.2902       0.2655       5.9761       8.3701
   2804.7000      24.7886       2.3006       0.2648       6.3644       8.4293
   2804.8500      25.9660       2.2866       0.2601       6.9022       8.4956
   2805.0000      26.5318       2.2944       0.2618       6.5060       8.4717
   2805.1500      26.0633       2.2966       0.2609       7.1852       8.5108
   2805.3000      24.6443       2.2767       0.2637       6.9936       8.4820
   2805.4500      24.1591       2.2659       0.2565       7.0091       8.4497
   2805.6000      25.6483       2.2672       0.2551       7.4506       8.4426
   2805.7500      25.2975       2.2520       0.2616       6.8589       8.4257
   2805.9000      26.0338       2.2639       0.2602       7.7610       8.4749
   2806.0500      25.5170       2.2731       0.2632       7.6614       8.5059
   2806.2000      26.0917       2.2637       0.2664       7.0463       8.4551
   2806.3500      24.1491       2.2632       0.2650       7.8958       8.4077
   2806.5000      25.9204       2.2668       0.2591       7.9729       8.4272
   2806.6500      26.3470       2.2710       0.2592       7.7992       8.4128
   2806.8000      26.2175       2.2637       0.2613       8.2468       8.3900
   2806.9500      26.9842       2.2734       0.2696       7.9271       8.3378
   2807.1000      27.0246       2.2663       0.2716       7.8914       8.3068
   2807.2500      26.2129       2.2623       0.2795       8.4205       8.3351
   2807.4000      27.6167       2.2746       0.2802       7.8730       8.2428
   2807.5500      28.1966       2.2806       0.2849       9.1240       8.2307
   2807.7000      28.3338       2.2746       0.2821       8.9600       8.2285
   2807.8500      27.9091       2.2936       0.2888       9.0636       8.2223
   2808.0000      27.5712       2.2876       0.2947       9.1933       8.2742
   2808.1500      27.9862       2.2679       0.2996       9.8933       8.3406
   2808.3000      29.6442       2.2964       0.3021       9.7150       8.4056
   2808.4500      29.0063       2.3025       0.3114      10.1813       8.4211
   2808.6000      28.7474       2.2850       0.3159      10.0320       8.4784
   2808.7500      29.4846       2.3001       0.3125      10.1194       8.5461
   2808.9000      29.6320       2.3027       0.3103       8.2121       8.5569
   2809.0500      30.3037       2.2861       0.3080       8.3792       8.5370
   2809.2000      29.5195       2.2914       0.3095       9.4401       8.5059
   2809.3500      29.8245       2.2923       0.3144       9.5022       8.4883
   2809.5000      28.6891       2.3064       0.3204      10.6170       8.4799
   2809.6500      28.2882       2.3115       0.3197       9.6376       8.4719
   2809.8000      28.1652       2.3086       0.3266       9.9741       8.4881
   2809.9500      29.1766       2.2980       0.3190      10.1715       8.5361
   2810.1000      29.3815       2.3088       0.3154      10.5361       8.5143
   2810.2500      28.9598       2.3127       0.3158       9.2603       8.4790
   2810.4000      28.1608       2.3141       0.3194       9.7335       8.5340
   2810.5500      27.6415       2.3054       0.3176       8.4604       8.6169
   2810.7000      28.6780       2.3135       0.3141       7.5730       8.6659
   2810.8500      27.8871       2.3083       0.3126       8.0897       8.6948
   2811.0000      27.3585       2.3189       0.3137       8.6844       8.6674
   2811.1500      27.2937       2.3261       0.2974       7.6999       8.6195
   2811.3000      26.7201       2.3314       0.2982       7.5923       8.5793
   2811.4500      27.2654       2.3224       0.2908       8.3789       8.5242
   2811.6000      26.1787       2.3335       0.2908       8.0665       8.5531
   2811.7500      26.9572       2.3302       0.2863       8.1087       8.5915
   2811.9000      27.0143       2.3230       0.2855       7.8601       8.5745
   2812.0500      26.9101       2.3234       0.2912       8.1076       8.5405
   2812.2000      26.3638       2.3414       0.2930       7.6903       8.5714
   2812.3500      27.7228       2.3577       0.2880       7.0726       8.5572
   2812.5000      28.4299       2.3421       0.2938       6.4053       8.5781
   2812.6500      29.2459       2.3350       0.2908       7.1978       8.5665
   2812.8000      28.7208       2.3573       0.2813       6.8973       8.5563
   2812.9500      28.5702       2.3775       0.2818       7.1450       8.6162
   2813.1000      28.6758       2.3694       0.2846       7.7188       8.6035
   2813.2500      30.1443       2.3646       0.2847       8.3393       8.5837
   2813.4000      30.3305       2.3424       0.2776       9.3228       8.5849
   2813.5500      30.1454       2.3562       0.2826       9.2992       8.5313
   2813.7000      29.5897       2.3601       0.2904      10.7112       8.5399
   2813.8500      31.3476       2.3749       0.2959       9.1537       8.5192
   2814.0000      31.7646       2.3755       0.2915       9.2096       8.4863
   2814.1500      31.0866       2.3785       0.3017       8.9403       8.4753
   2814.3000      30.5212       2.3567       0.3004       9.8194       8.4445
   2814.4500      30.0605       2.3558       0.3052       9.9518       8.4186
   2814.6000      31.3472       2.3534       0.3019      10.1046       8.4224
   2814.7500      29.4808       2.3563       0.3016      10.4122       8.3749
   2814.9000      29.2033       2.3513       0.3071      11.2935       8.4219
   2815.0500      29.2014       2.3639       0.3070      10.7468       8.5085
   2815.2000      30.3596       2.3593       0.3026      11.6212       8.5009
   2815.3500      30.1235       2.3502       0.2999      11.4313       8.4766
   2815.5000      30.7518       2.3540       0.2856      10.4219       8.5531
   2815.6500      30.7705       2.3556       0.2908      10.5848       8.5634
   2815.8000      31.3393       2.3535       0.2945      10.9559       8.6721
   2815.9500      31.1963       2.3434       0.3004      11.1845       8.6586
   2816.1000      29.9218       2.3496       0.2966      10.4602       8.6320
   2816.2500      28.3129       2.3616       0.2939       9.4010       8.6504
   2816.4000      28.8764       2.3795       0.2919       8.3531       8.5709
   2816.5500      29.0477       2.3587       0.2935       8.9673       8.4762
   2816.7000      29.7353       2.3440       0.2959       7.7852       8.3951
   2816.8500      27.8565       2.3402       0.2970       8.6632       8.5484
   2817.0000      28.9528       2.3320       0.3006       8.2721       8.4483
