~VERSION -------------------------------------------
 VERS.                 2.0 : CWLS LOG ASCII STANDARD - VERSION 2.0
 WRAP.                  NO : ONE LINE PER DEPTH STEP
~WELL -----------------------------------------------
 WELL.                TYRA-2 : Well name
 UWI .                DK-TYR-002        : Unique Well ID
 LAT .                55.6832        : Latitude
 LON .                4.4123        : Longitude
 STRT.M               2400.00 : START DEPTH
 STOP.M               3099.90 : STOP DEPTH
 STEP.M               0.1500 : STEP
 NULL.                -9999 : NULL VALUE
~CURVE -----------------------------------------------
 DEPTH .M               : Depth
 GR    .GAPI            : Gamma Ray
 RHOB  .G/C3            : Bulk Density
 NPHI  .V/V             : Neutron Porosity
 RT    .OHMM            : Resistivity
 CALI  .IN              : Caliper
~A  DEPTH              GR        RHOB        NPHI          RT        CALI
# ...
   3033.4500      29.8889       2.3202       0.2932      10.4627       8.3793
   3033.6000      30.2210       2.3301       0.3004      10.8749       8.4116
   3033.7500      28.2930       2.3297       0.3039      10.8463       8.4460
   3033.9000      26.9348       2.3327       0.3031      10.0984       8.4749
   3034.0500      27.3552       2.3112       0.2999      10.2850       8.4502
   3034.2000      27.2374       2.3044       0.2985       9.5416       8.4363
   3034.3500      27.7605       2.3016       0.2909      10.2458       8.4935
   3034.5000      28.4967       2.3092       0.2916       9.5683       8.4319
   3034.6500      27.8456       2.2953       0.2950       9.4689       8.5165
   3034.8000      26.9889       2.3095       0.2811       8.7653       8.5085
   3034.9500      27.9009       2.2956       0.2799       9.1126       8.5083
   3035.1000      28.4100       2.2964       0.2777       7.5731       8.5235
   3035.2500      28.8547       2.3132       0.2730       7.4249       8.5286
   3035.4000      29.0083       2.3040       0.2734       7.4172       8.4452
   3035.5500      29.1885       2.3004       0.2744       7.9695       8.5160
   3035.7000      28.6704       2.3077       0.2663       6.8208       8.5883
   3035.8500      27.4414       2.3189       0.2707       6.1858       8.5499
   3036.0000      27.3750       2.2922       0.2757       6.7199       8.5974
   3036.1500      27.5412       2.2949       0.2725       6.7588       8.5513
   3036.3000      29.3982       2.3035       0.2693       6.4621       8.5722
   3036.4500      29.1488       2.3075       0.2681       6.5496       8.5669
   3036.6000      29.1747       2.2960       0.2761       6.5367       8.5660
   3036.7500      30.3151       2.2930       0.2686       6.5856       8.5149
   3036.9000      29.9930       2.2900       0.2697       7.0153       8.5887
   3037.0500      29.0813       2.2938       0.2701       6.9993       8.6464
   3037.2000      29.2697       2.3068       0.2710       7.1436       8.5789
   3037.3500      30.3500       2.3025       0.2812       6.9895       8.5929
   3037.5000      30.4767       2.2971       0.2803       7.1828       8.5687
   3037.6500      30.3777       2.3121       0.2754       7.8588       8.5469
   3037.8000      30.9902       2.3167       0.2798       7.6017       8.4835
   3037.9500      30.3602       2.3196       0.2785       7.3477       8.4591
   3038.1000      29.5886       2.3032       0.2873       8.2321       8.5010
   3038.2500      29.3841       2.2963       0.2939       8.7482       8.5169
   3038.4000      29.1757       2.2965       0.3022       8.1944       8.4964
   3038.5500      28.3954       2.2996       0.3003       7.1752       8.3722
   3038.7000      28.8253       2.2913       0.2947       7.8036       8.3953
   3038.8500      28.7881       2.3141       0.2999       7.7861       8.3520
   3039.0000      28.1651       2.3084       0.3004       7.4721       8.3777
   3039.1500      27.0750       2.3186       0.3048       7.1307       8.4065
   3039.3000      25.9575       2.3178       0.3066       6.4042       8.4252
   3039.4500      26.2106       2.3035       0.3011       5.7895       8.4487
   3039.6000      26.3782       2.3193       0.2944       5.9513       8.3900
   3039.7500      26.6243       2.3298       0.2899       5.9189       8.4061
   3039.9000      26.6597       2.3103       0.2910       5.4380       8.4099
   3040.0500      26.9628       2.3058       0.2983       5.1995       8.3905
   3040.2000      26.8742       2.3063       0.2957       5.5291       8.4184
   3040.3500      25.5151       2.3167       0.2934       5.8708       8.4779
   3040.5000      24.3536       2.3107       0.3010       6.3181       8.4854
   3040.6500      25.9744       2.2809       0.3045       6.0305       8.5313
   3040.8000      26.4974       2.2876       0.3011       6.2902       8.5512
   3040.9500      26.9034       2.2877       0.3016       6.7478       8.5927
   3041.1000      25.8923       2.2840       0.3048       6.4078       8.6264
   3041.2500      25.3740       2.2787       0.3035       6.6203       8.6286
   3041.4000      25.4368       2.2843       0.3055       7.1393       8.6137
   3041.5500      26.4004       2.2813       0.3116       7.9503       8.6412
   3041.7000      25.2343       2.2846       0.3183       7.7665       8.6499
   3041.8500      25.2519       2.2644       0.3054       7.8514       8.6631
   3042.0000      25.4555       2.2805       0.3058       7.0332       8.7012
   3042.1500      25.7957       2.2720       0.3076       7.2043       8.6581
   3042.3000      25.4138       2.2747       0.3048       7.8200       8.6073
   3042.4500      25.6899       2.2729       0.3100       7.8225       8.5980
   3042.6000      26.0444       2.2595       0.3023       9.0396       8.5827
   3042.7500      25.1639       2.2593       0.3081       9.2516       8.5951
   3042.9000      24.7796       2.2783       0.3032       9.4079       8.6399
   3043.0500      24.0921       2.2784       0.3016      10.8838       8.6839
   3043.2000      23.7088       2.2851       0.2976      10.1809       8.5999
   3043.3500      22.9553       2.2823       0.3008      10.0347       8.5387
   3043.5000      24.5313       2.2826       0.2928       9.9368       8.4814
   3043.6500      23.3252       2.3019       0.2893       9.8462       8.4549
   3043.8000      23.4603       2.2967       0.2903       9.9924       8.5107
   3043.9500      24.6178       2.3026       0.2922      10.4679       8.5568
   3044.1000      25.0988       2.3132       0.2872      11.1351       8.5829
   3044.2500      24.9986       2.3028       0.2915      10.5497       8.5077
   3044.4000      26.1504       2.3015       0.2873       9.2014       8.4416
   3044.5500      26.3003       2.2955       0.2851       9.1511       8.3880
   3044.7000      27.6132       2.2871       0.2886       8.8029       8.4339
   3044.8500      28.5163       2.2855       0.2949       9.2513       8.4910
   3045.0000      29.3010       2.2911       0.2969       9.7078       8.5375
   3045.1500      29.6626       2.3001       0.2871       9.4318       8.5363
   3045.3000      30.6422       2.2889       0.2910       9.1647       8.5294
   3045.4500      30.5699       2.3040       0.2849      10.3771       8.5362
   3045.6000      29.9688       2.3033       0.2932       8.4213       8.4589
   3045.7500      30.1717       2.2948       0.3001       8.5009       8.5134
   3045.9000      31.3308       2.2880       0.3090       9.0381       8.5609
   3046.0500      31.9103       2.2936       0.3049       8.0951       8.5827
   3046.2000      31.2170       2.2740       0.3091       8.1153       8.5862
   3046.3500      32.4507       2.2581       0.3063       7.9720       8.5727
   3046.5000      31.2625       2.2593       0.3090       7.7570       8.5286
   3046.6500      30.6487       2.2624       0.3066       7.7621       8.5195
   3046.8000      30.8439       2.2452       0.3169       7.9249       8.4956
   3046.9500      30.5443       2.2346       0.3114       8.0420       8.5022
   3047.1000      30.8578       2.2311       0.3084       7.1058       8.5367
   3047.2500      30.0662       2.2338       0.3084       7.3389       8.5215
   3047.4000      29.5872       2.2376       0.3048       7.9417       8.5304
   3047.5500      29.8711       2.2455       0.3037       7.7286       8.5334
   3047.7000      29.8683       2.2726       0.3020       7.6171       8.5353
   3047.8500      29.5311       2.2782       0.2998       6.7947       8.5382
   3048.0000      28.8843       2.2824       0.2971       7.1760       8.5188
   3048.1500      28.3918       2.2767       0.3032       6.9348       8.4911
   3048.3000      26.8903       2.2819       0.3050       7.5555       8.4905
   3048.4500      26.5128       2.2730       0.3076       6.7990       8.4858
   3048.6000      26.3941       2.2710       0.3010       7.6268       8.4811
   3048.7500      26.7029       2.2719       0.2988       7.1249       8.4786
