~VERSION -------------------------------------------
 VERS.                 2.0 : CWLS LOG ASCII STANDARD - VERSION 2.0
 WRAP.                  NO : ONE LINE PER DEPTH STEP
~WELL -----------------------------------------------
 WELL.                TYRA-2 : Well name
 UWI .                DK-TYR-002        : Unique Well ID
 LAT .                55.6832        : Latitude
 LON .                4.4123        : Longitude
 STRT.M               2400.00 : START DEPTH
 STOP.M               3099.90 : STOP DEPTH
 STEP.M               0.1500 : STEP
 NULL.                -9999 : NULL VALUE
~CURVE -----------------------------------------------
 DEPTH .M               : Depth
 GR    .GAPI            : Gamma Ray
 RHOB  .G/C3            : Bulk Density
 NPHI  .V/V             : Neutron Porosity
 RT    .OHMM            : Resistivity
 CALI  .IN              : Caliper
~A  DEPTH              GR        RHOB        NPHI          RT        CALI
# ...
   2724.4500      31.0463       2.3289       0.2953      10.8655       8.4628
   2724.6000      29.9201       2.3176       0.2973      10.6046       8.4365
   2724.7500      29.6703       2.3083       0.2969       9.2418       8.4226
   2724.9000      30.2906       2.3140       0.2902       8.8046       8.3531
   2725.0500      30.6998       2.3087       0.2873       9.0261       8.3091
   2725.2000      31.8695       2.3000       0.2898       8.5818       8.3011
   2725.3500      32.4144       2.2981       0.2925       9.0937       8.3845
   2725.5000      31.7659       2.2793       0.2941      10.6459       8.4126
   2725.6500      32.8141       2.2846       0.2966      10.6443       8.4314
   2725.8000      32.6903       2.2886       0.2897      10.1979       8.4165
   2725.9500      33.4859       2.2912       0.2802       9.7593       8.4004
   2726.1000      34.7822       2.2841       0.2763       9.7851       8.3619
   2726.2500      35.2104       2.2794       0.2816       9.8126       8.4095
   2726.4000      33.6766       2.2828       0.2855       9.3587       8.4373
   2726.5500      32.8419       2.2907       0.2879       8.2809       8.4241
   2726.7000      32.6743       2.2829       0.2923       8.0448       8.5035
   2726.8500      32.8701       2.2726       0.2901       7.5311       8.4826
   2727.0000      32.8651       2.2779       0.2991       7.3175       8.4756
   2727.1500      34.6347       2.2924       0.3027       7.1713       8.5248
   2727.3000      34.9216       2.2924       0.2987       6.8273       8.5775
   2727.4500      34.5683       2.2896       0.2971       6.2994       8.6329
   2727.6000      35.6020       2.2994       0.2948       6.2528       8.6745
   2727.7500      35.6100       2.2891       0.2900       7.2412       8.6341
   2727.9000      34.2312       2.2844       0.2939       7.7443       8.5511
   2728.0500      34.7927       2.2895       0.2935       7.1597       8.5435
   2728.2000      34.4661       2.2824       0.2953       7.8291       8.5587
   2728.3500      33.7845       2.2750       0.3002       7.8590       8.5082
   2728.5000      32.9079       2.2845       0.2953       6.6231       8.4511
   2728.6500      33.2494       2.2905       0.2914       6.1718       8.4525
   2728.8000      33.8980       2.2725       0.2889       5.9268       8.4396
   2728.9500      33.3077       2.2845       0.2957       5.8580       8.4449
   2729.1000      31.0832       2.2940       0.2968       5.7522       8.4478
   2729.2500      30.3240       2.2994       0.2944       5.8093       8.4834
   2729.4000      31.5145       2.2963       0.2950       6.4368       8.5869
   2729.5500      31.2443       2.2855       0.2848       6.9190       8.5967
   2729.7000      31.4403       2.2820       0.2761       7.0938       8.5559
   2729.8500      31.5909       2.2941       0.2768       7.3366       8.6240
   2730.0000      30.9104       2.2959       0.2716       8.0961       8.6537
   2730.1500      29.3861       2.2809       0.2720       7.4850       8.6749
   2730.3000      29.9405       2.2800       0.2775       7.7952       8.7053
   2730.4500      29.7699       2.2931       0.2878       8.7077       8.6511
   2730.6000      29.7216       2.2879       0.2890       9.1918       8.7125
   2730.7500      29.2340       2.3098       0.2938       8.3236       8.6389
   2730.9000      29.4354       2.2971       0.2956       8.0209       8.5613
   2731.0500      28.8702       2.2968       0.2996       7.4497       8.6035
   2731.2000      29.0649       2.3252       0.2982       6.5505       8.6178
   2731.3500      29.4553       2.3326       0.2939       6.6689       8.5821
   2731.5000      30.3947       2.3349       0.2956       7.7800       8.5803
   2731.6500      28.9490       2.3260       0.2980       7.9574       8.5184
   2731.8000      28.3750       2.3315       0.3063       8.3479       8.4661
   2731.9500      29.0497       2.3309       0.3019       9.2663       8.5390
   2732.1000      29.8266       2.3320       0.3066       8.8505       8.4690
   2732.2500      30.0845       2.3283       0.3046       8.9475       8.4878
   2732.4000      29.3723       2.3392       0.3021       9.0351       8.4619
   2732.5500      29.4122       2.3357       0.3045       8.8808       8.4171
   2732.7000      30.3676       2.3312       0.3107       8.6190       8.3765
   2732.8500      30.8977       2.3350       0.3147       8.5960       8.3335
   2733.0000      30.2841       2.3397       0.3166       8.3559       8.3056
   2733.1500      31.5862       2.3519       0.3201       8.6007       8.3490
   2733.3000      30.3362       2.3695       0.3179       8.1430       8.3272
   2733.4500      29.5732       2.3580       0.3173       7.4318       8.2519
   2733.6000      29.0405       2.3592       0.3130       7.1484       8.3211
   2733.7500      29.4941       2.3347       0.3148       6.8969       8.3736
   2733.9000      30.6646       2.3328       0.3127       6.7015       8.4595
   2734.0500      30.6826       2.3283       0.3112       7.1197       8.4980
   2734.2000      30.4937       2.3060       0.3117       7.3958       8.5480
   2734.3500      29.6284       2.2967       0.3146       6.6219       8.6185
   2734.5000      29.5023       2.3022       0.3105       6.4995       8.6564
   2734.6500      29.8199       2.3112       0.3207       7.2008       8.5849
   2734.8000      29.4694       2.3095       0.3148       6.9012       8.5750
   2734.9500      29.7694       2.3138       0.3184       6.9886       8.6159
   2735.1000      29.8314       2.3188       0.3147       6.8416       8.5225
   2735.2500      28.7387       2.3305       0.3204       6.8531       8.4648
   2735.4000      28.7716       2.3322       0.3171       6.4589       8.4236
   2735.5500      28.7694       2.3527       0.3196       6.3311       8.4549
   2735.7000      27.3895       2.3628       0.3139       6.5085       8.3590
   2735.8500      27.5141       2.3531       0.3173       6.7072       8.3291
   2736.0000      29.2979       2.3472       0.3151       6.6009       8.2973
   2736.1500      27.4167       2.3485       0.3092       7.0029       8.3151
   2736.3000      28.3827       2.3273       0.3075       7.1518       8.3926
   2736.4500      29.2161       2.3356       0.3016       7.1331       8.3678
   2736.6000      29.2786       2.3364       0.2993       7.2328       8.3971
   2736.7500      29.8820       2.3524       0.3002       7.9649       8.4299
   2736.9000      30.5027       2.3534       0.3011       8.4075       8.4598
   2737.0500      29.6157       2.3419       0.2982       7.9997       8.3917
   2737.2000      29.3271       2.3487       0.2950       7.8590       8.4858
   2737.3500      30.7423       2.3703       0.2930       9.0230       8.4692
   2737.5000      29.7751       2.3646       0.2955       8.4637       8.5300
   2737.6500      29.6586       2.3708       0.2848       7.4691       8.5428
   2737.8000      30.2225       2.3684       0.2870       7.4982       8.5362
   2737.9500      30.5638       2.3537       0.2877       7.0752       8.6368
   2738.1000      31.2210       2.3509       0.2843       7.3412       8.6363
   2738.2500      31.7467       2.3474       0.2827       7.7604       8.6308
   2738.4000      32.0209       2.3325       0.2840       7.6017       8.5912
   2738.5500      31.2611       2.3146       0.2773       8.0948       8.5898
   2738.7000      32.2619       2.3212       0.2863       7.9448       8.5212
   2738.8500      30.9946       2.3253       0.2818       7.5889       8.5362
   2739.0000      29.6551       2.3213       0.2847       7.5968       8.4920
   2739.1500      31.2380       2.3011       0.2864       7.4996       8.4725
   2739.3000      31.0637       2.3173       0.2959       7.4910       8.3966
   2739.4500      31.0930       2.3033       0.3026       7.8774       8.3741
   2739.6000      31.5847       2.3021       0.3088       7.5466       8.4414
   2739.7500      31.1501       2.3083       0.3039       7.3773       8.4646
