~VERSION -------------------------------------------
 VERS.                 2.0 : CWLS LOG ASCII STANDARD - VERSION 2.0
 WRAP.                  NO : ONE LINE PER DEPTH STEP
~WELL -----------------------------------------------
 WELL.                TYRA-2 : Well name
 UWI .                DK-TYR-002        : Unique Well ID
 LAT .                55.6832        : Latitude
 LON .                4.4123        : Longitude
 STRT.M               2400.00 : START DEPTH
 STOP.M               3099.90 : STOP DEPTH
 STEP.M               0.1500 : STEP
 NULL.                -9999 : NULL VALUE
~CURVE -----------------------------------------------
 DEPTH .M               : Depth
 GR    .GAPI            : Gamma Ray
 RHOB  .G/C3            : Bulk Density
 NPHI  .V/V             : Neutron Porosity
 RT    .OHMM            : Resistivity
 CALI  .IN              : Caliper
~A  DEPTH              GR        RHOB        NPHI          RT        CALI
# ...
   2894.4000      30.3594       2.2740       0.2807       7.9571       8.6015
   2894.5500      30.6038       2.2738       0.2860       7.9757       8.5238
   2894.7000      31.1184       2.2838       0.2871       8.2950       8.5057
   2894.8500      31.1807       2.2759       0.2802       7.7489       8.4747
   2895.0000      31.1138       2.2717       0.2894       7.4264       8.4709
   2895.1500      31.5874       2.2763       0.2822       6.4315       8.5452
   2895.3000      31.2340       2.2702       0.2826       5.9812       8.5680
   2895.4500      30.4650       2.2904       0.2821       5.8750       8.6227
   2895.6000      31.2711       2.2947       0.2790       5.9547       8.5992
   2895.7500      31.4152       2.2809       0.2819       5.4098       8.6757
   2895.9000      30.0229       2.2842       0.2888       5.5974       8.6665
   2896.0500      29.4886       2.2908       0.2924       5.7136       8.7125
   2896.2000      29.6300       2.2815       0.2965       6.1424       8.7017
   2896.3500      30.8710       2.2815       0.2865       6.1434       8.7298
   2896.5000      29.8680       2.2718       0.2850       6.2200       8.7630
   2896.6500      28.7202       2.2872       0.2938       6.3799       8.6811
   2896.8000      28.6238       2.2844       0.2888       6.7911       8.7008
   2896.9500      29.7238       2.2915       0.2947       7.5636       8.6373
   2897.1000      28.2709       2.2990       0.3020       7.3947       8.6760
   2897.2500      29.7220       2.3077       0.3023       8.2404       8.6232
   2897.4000      30.4221       2.3177       0.3102       8.5306       8.6699
   2897.5500      28.8446       2.3269       0.3047       9.0435       8.6446
   2897.7000      28.7701       2.3118       0.3092       9.7171       8.5934
   2897.8500      28.2386       2.3099       0.3156      10.8311       8.5765
   2898.0000      29.4719       2.3199       0.3062      10.7849       8.5796
   2898.1500      29.7889       2.3147       0.3073      11.0894       8.5973
   2898.3000      30.1976       2.3054       0.3103      11.5829       8.6091
   2898.4500      29.0490       2.2964       0.3144      13.1878       8.6492
   2898.6000      28.4395       2.3111       0.3161      12.9244       8.6151
   2898.7500      28.3099       2.3350       0.3130      14.8014       8.6685
   2898.9000      29.8605       2.3195       0.3129      14.8245       8.6068
   2899.0500      28.8475       2.3034       0.3084      14.3865       8.5827
   2899.2000      29.2370       2.3071       0.3125      14.1587       8.5944
   2899.3500      28.1405       2.3177       0.3193      14.2970       8.5556
   2899.5000      28.3297       2.3265       0.3157      14.2741       8.5152
   2899.6500      27.8184       2.3328       0.3085      13.0943       8.5503
   2899.8000      27.8351       2.3468       0.3100      11.6446       8.5301
   2899.9500      27.3362       2.3304       0.3007      11.3368       8.4594
   2900.1000      28.7973       2.3143       0.2965      11.6139       8.4679
   2900.2500      26.7467       2.3162       0.2965      11.0085       8.4111
   2900.4000      26.4804       2.3118       0.2933      10.9334       8.3733
   2900.5500      27.3060       2.2976       0.2889      11.4645       8.4447
   2900.7000      27.2098       2.3009       0.2889      11.2949       8.5198
   2900.8500      26.3978       2.3107       0.2822      11.6332       8.5982
   2901.0000      26.2237       2.3068       0.2866      12.1653       8.6815
   2901.1500      25.5046       2.3171       0.2892      12.1584       8.5961
   2901.3000      25.9593       2.3308       0.2894      12.2134       8.5625
   2901.4500      26.9495       2.3281       0.2873      12.5939       8.6374
   2901.6000      27.0246       2.3165       0.2867      11.8970       8.6337
   2901.7500      27.7632       2.2897       0.2881      10.8379       8.6314
   2901.9000      26.5603       2.2771       0.2883      10.8419       8.7321
   2902.0500      27.2561       2.2888       0.2958      10.3333       8.6947
   2902.2000      26.5789       2.2998       0.2912      10.6882       8.6489
   2902.3500      27.8478       2.2869       0.2911      11.8508       8.6407
   2902.5000      28.1837       2.2776       0.2903      12.0536       8.5486
   2902.6500      27.8401       2.2566       0.2980      13.3871       8.6157
   2902.8000      27.0591       2.2578       0.2951      14.1902       8.6496
   2902.9500      26.8324       2.2714       0.3011      14.3473       8.6109
   2903.1000      27.0150       2.2807       0.2981      12.9269       8.6518
   2903.2500      27.8362       2.2859       0.2918      11.8724       8.6355
   2903.4000      27.9385       2.2863       0.2859      12.0373       8.5900
   2903.5500      28.0912       2.2830       0.2932      11.0399       8.6295
   2903.7000      27.9463       2.2891       0.2896      10.0274       8.6050
   2903.8500      29.0170       2.2803       0.2975       9.2923       8.6336
   2904.0000      28.9066       2.2761       0.2917       8.9907       8.7295
   2904.1500      29.4894       2.2798       0.2952       9.9839       8.7419
   2904.3000      29.0480       2.2776       0.2969       9.8437       8.7015
   2904.4500      28.6788       2.2643       0.2977       8.9046       8.7083
   2904.6000      28.7259       2.2588       0.2984       8.7983       8.6395
   2904.7500      29.9036       2.2627       0.2981       9.3907       8.6100
   2904.9000      31.0409       2.2790       0.2946       9.8762       8.6095
   2905.0500      31.7338       2.2635       0.2843      10.3385       8.5144
   2905.2000      32.1273       2.2591       0.2855      10.2918       8.5398
   2905.3500      30.6700       2.2563       0.2833       9.9510       8.4525
   2905.5000      30.1007       2.2557       0.2874       9.1250       8.4294
   2905.6500      31.7526       2.2669       0.2915       9.1494       8.4570
   2905.8000      31.1039       2.2575       0.2934       8.5350       8.5481
   2905.9500      32.6063       2.2528       0.2873       7.9521       8.4999
   2906.1000      31.4900       2.2490       0.2914       8.1855       8.4980
   2906.2500      32.1799       2.2488       0.2945       8.6836       8.5160
   2906.4000      32.1742       2.2549       0.3023       9.1658       8.5401
   2906.5500      32.4337       2.2649       0.3008       8.3762       8.5678
   2906.7000      33.9173       2.2715       0.3095       9.4289       8.6137
   2906.8500      33.2030       2.2714       0.3086      10.6785       8.6749
   2907.0000      32.6829       2.2764       0.3147      12.1979       8.6021
   2907.1500      31.8460       2.2818       0.3127      10.6889       8.5508
   2907.3000      31.3601       2.2819       0.3143      12.4071       8.4345
   2907.4500      31.5411       2.3003       0.3128      13.3558       8.4549
   2907.6000      30.8092       2.2948       0.3104      12.5699       8.4745
   2907.7500      29.1282       2.2970       0.3131      11.5957       8.5061
   2907.9000      28.3383       2.2972       0.3161      11.7706       8.4803
   2908.0500      27.6592       2.3119       0.3207      11.6896       8.4711
   2908.2000      27.0244       2.3135       0.3223      10.7150       8.5107
   2908.3500      27.5089       2.3182       0.3240      10.0853       8.4608
   2908.5000      28.8816       2.3278       0.3219      11.3103       8.5248
   2908.6500      27.2021       2.3192       0.3146      10.6444       8.5462
   2908.8000      29.3611       2.3234       0.3199      10.7791       8.5953
   2908.9500      28.0538       2.3245       0.3208      12.0515       8.5836
   2909.1000      28.6470       2.3271       0.3218      11.8159       8.5647
   2909.2500      28.2604       2.3246       0.3227      10.6045       8.5604
   2909.4000      29.2534       2.3149       0.3215       9.5150       8.5980
   2909.5500      29.1017       2.3041       0.3252       9.7425       8.6124
   2909.7000      27.2540       2.2981       0.3176       9.1442       8.4928
