~VERSION -------------------------------------------
 VERS.                 2.0 : CWLS LOG ASCII STANDARD - VERSION 2.0
 WRAP.                  NO : ONE LINE PER DEPTH STEP
~WELL -----------------------------------------------
 WELL.                TYRA-2 : Well name
 UWI .                DK-TYR-002        : Unique Well ID
 LAT .                55.6832        : Latitude
 LON .                4.4123        : Longitude
 STRT.M               2400.00 : START DEPTH
 STOP.M               3099.90 : STOP DEPTH
 STEP.M               0.1500 : STEP
 NULL.                -9999 : NULL VALUE
~CURVE -----------------------------------------------
 DEPTH .M               : Depth
 GR    .GAPI            : Gamma Ray
 RHOB  .G/C3            : Bulk Density
 NPHI  .V/V             : Neutron Porosity
 RT    .OHMM            : Resistivity
 CALI  .IN              : Caliper
~A  DEPTH              GR        RHOB        NPHI          RT        CALI
# ...
   2848.0500      34.5867       2.3140       0.2806       7.4465       8.6336
   2848.2000      34.4722       2.3244       0.2810       7.0199       8.6873
   2848.3500      32.3503       2.3061       0.2851       6.3220       8.6273
   2848.5000      32.1001       2.3031       0.2789       5.4366       8.6108
   2848.6500      33.3329       2.3112       0.2735       5.3437       8.5922
   2848.8000      34.2308       2.3135       0.2853       4.9380       8.6034
   2848.9500      33.1586       2.3066       0.2886       4.8965       8.6201
   2849.1000      33.1840       2.3240       0.2939       4.7108       8.5769
   2849.2500      33.4401       2.3425       0.2939       4.5175       8.5972
   2849.4000      33.3188       2.3599       0.2892       4.1620       8.5305
   2849.5500      33.6026       2.3494       0.2882       4.2879       8.5304
   2849.7000      33.3228       2.3482       0.2926       4.9997       8.5040
   2849.8500      32.8821       2.3599       0.2945       5.3400       8.5229
   2850.0000      32.4346       2.3461       0.2971       5.3425       8.5331
   2850.1500      31.3791       2.3403       0.2945       5.9322       8.5355
   2850.3000      30.8243       2.3397       0.2992       6.4793       8.5122
   2850.4500      30.4893       2.3250       0.2969       6.3276       8.4570
   2850.6000      29.9622       2.3037       0.2955       6.2910       8.5043
   2850.7500      30.2938       2.3030       0.2920       6.3746       8.5175
   2850.9000      29.4572       2.2870       0.2961       6.9763       8.5696
   2851.0500      29.9306       2.3013       0.3012       7.0727       8.5570
   2851.2000      30.0370       2.3067       0.2984       7.3681       8.5313
   2851.3500      31.6496       2.3244       0.2928       7.8759       8.5436
   2851.5000      30.4482       2.3254       0.3005       8.6907       8.5578
   2851.6500      29.9556       2.3338       0.2988       8.9932       8.5575
   2851.8000      29.0575       2.3334       0.2964       8.8949       8.5874
   2851.9500      30.0118       2.3329       0.2924       9.0549       8.6202
   2852.1000      29.5880       2.3365       0.2834       9.7040       8.5491
   2852.2500      28.6084       2.3311       0.2898       9.4686       8.5366
   2852.4000      28.7961       2.3222       0.2933       9.7998       8.5204
   2852.5500      29.1517       2.3148       0.2990      10.4874       8.5146
   2852.7000      27.8738       2.3105       0.2961       9.0018       8.4893
   2852.8500      29.2995       2.3090       0.2989       8.4824       8.4556
   2853.0000      29.6936       2.3145       0.3066       8.9022       8.4352
   2853.1500      30.5013       2.3144       0.3025       8.7720       8.4104
   2853.3000      32.6839       2.3001       0.3005       8.7537       8.3605
   2853.4500      33.0270       2.3081       0.3051      10.0748       8.3229
   2853.6000      33.2967       2.3288       0.3050      10.5383       8.4482
   2853.7500      32.1744       2.3179       0.3099      11.4016       8.4728
   2853.9000      32.3070       2.3369       0.3007      11.9691       8.4686
   2854.0500      32.2489       2.3268       0.2943      12.7230       8.4622
   2854.2000      31.9457       2.3181       0.2990      12.7406       8.5672
   2854.3500      30.8874       2.3101       0.2984      13.2429       8.6532
   2854.5000      30.6967       2.3048       0.2948      12.1131       8.6523
   2854.6500      30.6888       2.2956       0.2935      12.2860       8.6814
   2854.8000      29.8851       2.2894       0.2945      12.5342       8.6922
   2854.9500      29.2100       2.2874       0.2909      11.6274       8.7241
   2855.1000      28.0565       2.2666       0.3006      11.6094       8.6430
   2855.2500      28.9247       2.2741       0.2920      13.0463       8.5875
   2855.4000      29.8199       2.2812       0.2960      12.8138       8.5851
   2855.5500      28.8782       2.3022       0.2966      10.7263       8.5939
   2855.7000      30.9770       2.3101       0.2971      12.4047       8.5803
   2855.8500      31.3598       2.3151       0.2896      13.1127       8.4952
   2856.0000      30.9028       2.3165       0.2812      12.4743       8.5550
   2856.1500      30.4876       2.3178       0.2851      11.9439       8.5087
   2856.3000      29.0954       2.3128       0.2811      11.6718       8.5233
   2856.4500      28.8698       2.3073       0.2784      11.2480       8.5693
   2856.6000      28.5545       2.2973       0.2776      10.8064       8.5950
   2856.7500      29.1635       2.3033       0.2758       9.8818       8.5869
   2856.9000      29.2954       2.2975       0.2852      10.0370       8.5895
   2857.0500      28.7486       2.2856       0.2899       8.7970       8.6398
   2857.2000      29.4040       2.2741       0.2867       8.5619       8.5687
   2857.3500      29.7126       2.2802       0.2924       8.4452       8.6168
   2857.5000      30.4479       2.2793       0.2960       9.3154       8.6167
   2857.6500      29.7502       2.2709       0.2988       8.6847       8.6408
   2857.8000      30.4760       2.2677       0.2947       8.2780       8.6932
   2857.9500      32.0538       2.2667       0.3029       9.3059       8.7293
   2858.1000      32.5136       2.2851       0.3002       9.7451       8.7476
   2858.2500      32.2764       2.2750       0.2974       9.4086       8.7971
   2858.4000      31.3113       2.2694       0.2910      10.0295       8.7371
   2858.5500      30.2639       2.2562       0.2910      10.6264       8.6330
   2858.7000      29.5004       2.2484       0.2904       9.2570       8.6508
   2858.8500      28.3583       2.2418       0.2952       8.6803       8.6079
   2859.0000      28.2619       2.2436       0.3036       9.6794       8.5961
   2859.1500      28.9236       2.2528       0.3062       8.9584       8.5597
   2859.3000      29.2740       2.2570       0.3076       8.6367       8.5206
   2859.4500      29.1335       2.2569       0.3063       7.9604       8.4419
   2859.6000      28.6975       2.2549       0.3123       8.0431       8.3846
   2859.7500      28.7926       2.2680       0.3131       9.0234       8.4130
   2859.9000      28.3054       2.2666       0.3112       8.0211       8.4522
   2860.0500      27.4431       2.2862       0.3064       7.9680       8.4484
   2860.2000      27.2820       2.2935       0.3061       8.5094       8.4674
   2860.3500      28.0989       2.2966       0.3056       8.1725       8.5038
   2860.5000      28.9748       2.3059       0.3008       7.8667       8.4758
   2860.6500      30.8638       2.3151       0.2943       8.2835       8.6081
   2860.8000      31.4903       2.3036       0.2950       8.8009       8.5938
   2860.9500      30.5037       2.2987       0.2926       7.8690       8.6354
   2861.1000      31.6989       2.2985       0.2936       7.7511       8.6657
   2861.2500      30.9041       2.3158       0.3046       7.7536       8.6434
   2861.4000      30.1768       2.3340       0.3084       7.6981       8.6426
   2861.5500      30.8906       2.3285       0.3083       7.1735       8.6554
   2861.7000      31.3215       2.3309       0.3128       7.8438       8.6662
   2861.8500      31.2585       2.3270       0.3112       8.1009       8.6633
   2862.0000      31.3465       2.3216       0.3038       7.2985       8.6973
   2862.1500      31.0966       2.3087       0.3039       7.6108       8.5934
   2862.3000      31.1024       2.3167       0.3045       8.2591       8.6028
   2862.4500      30.1389       2.3169       0.3108       9.2118       8.5173
   2862.6000      30.8653       2.3196       0.2988       9.8401       8.4892
   2862.7500      30.1882       2.3147       0.3005       9.0517       8.4201
   2862.9000      31.3238       2.3239       0.2999       9.3805       8.4490
   2863.0500      33.0059       2.3198       0.3040       9.9328       8.4693
   2863.2000      32.2778       2.3245       0.3024       8.9104       8.3944
   2863.3500      32.6574       2.3145       0.2934       9.1407       8.3641
