~VERSION -------------------------------------------
 VERS.                 2.0 : CWLS LOG ASCII STANDARD - VERSION 2.0
 WRAP.                  NO : ONE LINE PER DEPTH STEP
~WELL -----------------------------------------------
 WELL.                TYRA-2 : Well name
 UWI .                DK-TYR-002        : Unique Well ID
 LAT .                55.6832        : Latitude
 LON .                4.4123        : Longitude
 STRT.M               2400.00 : START DEPTH
 STOP.M               3099.90 : STOP DEPTH
 STEP.M               0.1500 : STEP
 NULL.                -9999 : NULL VALUE
~CURVE -----------------------------------------------
 DEPTH .M               : Depth
 GR    .GAPI            : Gamma Ray
 RHOB  .G/C3            : Bulk Density
 NPHI  .V/V             : Neutron Porosity
 RT    .OHMM            : Resistivity
 CALI  .IN              : Caliper
~A  DEPTH              GR        RHOB        NPHI          RT        CALI
# ...
   2446.3500      28.9867       2.2802       0.3096      13.3142       8.4889
   2446.5000      28.7473       2.2851       0.3163      13.6119       8.4295
   2446.6500      28.1933       2.2654       0.3146      12.1220       8.4593
   2446.8000      29.2187       2.2617       0.3135      11.0676       8.4162
   2446.9500      29.2426       2.2661       0.3203       9.9540       8.4653
   2447.1000      29.7621       2.2565       0.3230       9.4921       8.4869
   2447.2500      28.8587       2.2543       0.3194      10.1863       8.5169
   2447.4000      28.9492       2.2570       0.3201       9.7835       8.4994
   2447.5500      28.1503       2.2641       0.3119      10.4407       8.4310
   2447.7000      27.6604       2.2487       0.3091       9.3854       8.4557
   2447.8500      27.8684       2.2542       0.3073       9.6544       8.4305
   2448.0000      26.5639       2.2591       0.3086      10.2873       8.5018
   2448.1500      26.0034       2.2638       0.3057       9.8350       8.5132
   2448.3000      23.9643       2.2614       0.3030       8.4331       8.5585
   2448.4500      23.8448       2.2540       0.3057       8.1974       8.5944
   2448.6000      24.6391       2.2449       0.3034       8.5470       8.6075
   2448.7500      25.0696       2.2501       0.2931       8.8100       8.5295
   2448.9000      25.2827       2.2595       0.2987       6.9640       8.5863
   2449.0500      26.0878       2.2657       0.2956       6.9524       8.5624
   2449.2000      25.7336       2.2561       0.2902       6.2386       8.5666
   2449.3500      25.0912       2.2393       0.2922       6.3796       8.6095
   2449.5000      24.1984       2.2334       0.2922       6.2680       8.5382
   2449.6500      25.1062       2.2559       0.2984       6.6013       8.5396
   2449.8000      25.5644       2.2583       0.3036       6.6600       8.5365
   2449.9500      25.4663       2.2511       0.2926       6.4957       8.4652
   2450.1000      25.3021       2.2539       0.2995       6.6152       8.4324
   2450.2500      26.2128       2.2528       0.3025       6.8457       8.5100
   2450.4000      25.7492       2.2478       0.3024       6.4648       8.4431
   2450.5500      27.2398       2.2572       0.3136       5.5838       8.5051
   2450.7000      26.9275       2.2733       0.3114       5.4965       8.4272
   2450.8500      25.6989       2.2749       0.3195       5.5913       8.4272
   2451.0000      26.0326       2.2648       0.3186       5.4590       8.5043
   2451.1500      26.8162       2.2727       0.3176       5.3896       8.5093
   2451.3000      26.7076       2.2681       0.3175       5.7323       8.5235
   2451.4500      28.0727       2.2834       0.3038       5.7835       8.5323
   2451.6000      28.3268       2.2922       0.2978       5.6723       8.5278
   2451.7500      28.9530       2.2950       0.3120       5.2707       8.4575
   2451.9000      28.9399       2.2927       0.3043       5.2707       8.4657
   2452.0500      28.8045       2.3007       0.3142       5.9751       8.3931
   2452.2000      29.9444       2.2773       0.3182       6.8208       8.4037
   2452.3500      30.9990       2.2846       0.3171       6.9294       8.4565
   2452.5000      31.4980       2.2967       0.3152       7.3086       8.3794
   2452.6500      30.0561       2.3013       0.3208       7.4594       8.3927
   2452.8000      28.5724       2.2985       0.3279       7.6914       8.3429
   2452.9500      28.7535       2.2924       0.3315       7.5386       8.3144
   2453.1000      29.4128       2.2946       0.3279       8.4059       8.2973
   2453.2500      28.1065       2.2983       0.3292       8.0671       8.3012
   2453.4000      27.8824       2.3034       0.3332       8.1498       8.3575
   2453.5500      26.8371       2.2892       0.3271       8.5720       8.4118
   2453.7000      28.6037       2.2731       0.3285       9.0041       8.4430
   2453.8500      30.1681       2.2771       0.3218       9.5981       8.4746
   2454.0000      30.7035       2.2862       0.3192      10.0626       8.5241
   2454.1500      30.8539       2.2790       0.3245      10.3381       8.4868
   2454.3000      32.2365       2.2716       0.3230      10.5937       8.5060
   2454.4500      30.5995       2.2598       0.3272      10.2201       8.5136
   2454.6000      30.6816       2.2631       0.3357      10.0273       8.5313
   2454.7500      29.0197       2.2530       0.3285      11.5242       8.6000
   2454.9000      28.9411       2.2497       0.3271      12.5503       8.5877
   2455.0500      29.9551       2.2376       0.3273      12.3966       8.6123
   2455.2000      29.6094       2.2519       0.3181      10.8728       8.5953
   2455.3500      29.6526       2.2646       0.3197      11.0833       8.5212
   2455.5000      30.8608       2.2607       0.3187       9.9649       8.5325
   2455.6500      30.8608       2.2575       0.3103       9.3827       8.5456
   2455.8000      30.8608       2.2747       0.2978       9.8717       8.5393
   2455.9500      31.4012       2.2871       0.2990      10.4029       8.5311
   2456.1000      31.1985       2.3048       0.2906      10.7808       8.5687
   2456.2500      32.1330       2.3128       0.2890      11.3277       8.5694
   2456.4000      32.5317       2.3067       0.2847      11.1452       8.5278
   2456.5500      33.2766       2.3081       0.2832      11.4272       8.5039
   2456.7000      32.6490       2.3071       0.2825      11.2558       8.5710
   2456.8500      31.1112       2.3102       0.2912      11.4068       8.5377
   2457.0000      31.4301       2.3244       0.2984      10.9688       8.4770
   2457.1500      30.6834       2.3475       0.2893      11.5422       8.4158
   2457.3000      30.3074       2.3610       0.2845      11.6459       8.4224
   2457.4500      31.1956       2.3591       0.2819      11.3689       8.4431
   2457.6000      30.2608       2.3572       0.2824      12.4180       8.4230
   2457.7500      30.4268       2.3780       0.2872      10.5683       8.3919
   2457.9000      31.8702       2.3720       0.2932      10.6329       8.4040
   2458.0500      30.6512       2.3947       0.2855       9.4387       8.4065
   2458.2000      30.8246       2.3960       0.2930       9.4600       8.3379
   2458.3500      30.5110       2.3835       0.2958       8.7561       8.3948
   2458.5000      29.6989       2.3773       0.2976       8.8797       8.4777
   2458.6500      31.1018       2.3631       0.2990       9.0652       8.5540
   2458.8000      32.2992       2.3584       0.3007       8.8026       8.5546
   2458.9500      31.0798       2.3473       0.3019       9.1612       8.5661
   2459.1000      30.6804       2.3293       0.3070       7.8398       8.5927
   2459.2500      30.1997       2.3227       0.3035       8.2852       8.5863
   2459.4000      31.0087       2.3388       0.3026       8.4257       8.5713
   2459.5500      30.7304       2.3429       0.3030       7.5233       8.5217
   2459.7000      29.7856       2.3685       0.3088       7.4816       8.5241
   2459.8500      30.1735       2.3637       0.2989       7.1834       8.4392
   2460.0000      29.0451       2.3541       0.2925       6.6911       8.5068
   2460.1500      29.4077       2.3184       0.2911       6.9745       8.4265
   2460.3000      29.1261       2.3185       0.2953       6.8678       8.4152
   2460.4500      28.5100       2.3188       0.3030       6.4435       8.4402
   2460.6000      28.5220       2.3179       0.2953       5.8087       8.3910
   2460.7500      30.4287       2.2912       0.2953       6.5875       8.3857
   2460.9000      29.1431       2.2957       0.2968       6.8614       8.4240
   2461.0500      29.4192       2.2748       0.2986       6.8801       8.4860
   2461.2000      28.8343       2.2740       0.2997       6.8777       8.5006
   2461.3500      28.7691       2.2882       0.2929       7.2317       8.5735
   2461.5000      28.4185       2.2889       0.2901       7.5903       8.4230
   2461.6500      27.3588       2.2957       0.2931       7.9117       8.4518
