~VERSION -------------------------------------------
 VERS.                 2.0 : CWLS LOG ASCII STANDARD - VERSION 2.0
 WRAP.                  NO : ONE LINE PER DEPTH STEP
~WELL -----------------------------------------------
 WELL.                TYRA-2 : Well name
 UWI .                DK-TYR-002        : Unique Well ID
 LAT .                55.6832        : Latitude
 LON .                4.4123        : Longitude
 STRT.M               2400.00 : START DEPTH
 STOP.M               3099.90 : STOP DEPTH
 STEP.M               0.1500 : STEP
 NULL.                -9999 : NULL VALUE
~CURVE -----------------------------------------------
 DEPTH .M               : Depth
 GR    .GAPI            : Gamma Ray
 RHOB  .G/C3            : Bulk Density
 NPHI  .V/V             : Neutron Porosity
 RT    .OHMM            : Resistivity
 CALI  .IN              : Caliper
~A  DEPTH              GR        RHOB        NPHI          RT        CALI
   2400.0000      13.3020       1.1541       0.1556       2.3148       4.2531
   2400.1500      14.3942       1.2737       0.1682       2.3687       5.0946
   2400.3000      15.0747       1.3890       0.1819       2.6196       5.9764
   2400.4500      16.5178       1.5104       0.2005       3.0466       6.8214
   2400.6000      18.3781       1.6374       0.2139       3.3546       7.6832
   2400.7500      19.7902       1.7470       0.2312       3.5044       8.5236
   2400.9000      20.5505       1.8666       0.2471       3.7419       8.5163
   2401.0500      22.2396       1.9860       0.2605       4.1039       8.4770
   2401.2000      24.2607       2.1044       0.2801       4.7646       8.4709
   2401.3500      26.9885       2.2162       0.2977       5.2652       8.5061
   2401.5000      29.2536       2.3281       0.3127       6.0701       8.4366
   2401.6500      27.9943       2.3292       0.3071       6.1825       8.4880
   2401.8000      28.5624       2.3248       0.3080       6.6411       8.4499
   2401.9500      28.3276       2.3177       0.3012       6.8959       8.4692
   2402.1000      27.5744       2.3249       0.2979       7.0682       8.4090
   2402.2500      28.2151       2.3110       0.2994       6.5819       8.4078
   2402.4000      29.8517       2.3155       0.2922       6.3566       8.4346
   2402.5500      30.1421       2.3046       0.2894       5.9465       8.5125
   2402.7000      29.9155       2.3041       0.2864       5.7911       8.5189
   2402.8500      30.8384       2.3015       0.2989       6.1877       8.5106
   2403.0000      31.0600       2.3057       0.3035       6.8323       8.5992
   2403.1500      30.3679       2.2993       0.3097       7.1418       8.5962
   2403.3000      30.0873       2.3048       0.3082       7.3856       8.5817
   2403.4500      30.1370       2.2951       0.3059       7.0080       8.6306
   2403.6000      29.7773       2.2859       0.3014       6.5129       8.7493
   2403.7500      28.7652       2.2815       0.2979       7.6955       8.7730
   2403.9000      29.6377       2.2823       0.2988       7.9556       8.7800
   2404.0500      30.0008       2.2737       0.2954       8.1772       8.6762
   2404.2000      29.2487       2.2634       0.2922       7.6071       8.7169
   2404.3500      27.9568       2.2581       0.2912       7.5628       8.6788
   2404.5000      27.4346       2.2521       0.2891       7.3796       8.6443
   2404.6500      28.3012       2.2528       0.2865       7.0211       8.5573
   2404.8000      26.7863       2.2686       0.2837       7.5717       8.5792
   2404.9500      26.0893       2.2701       0.2878       8.3025       8.5561
   2405.1000      26.5431       2.2543       0.2896       8.8362       8.5142
   2405.2500      25.8563       2.2627       0.2897       9.3612       8.4868
   2405.4000      25.5853       2.2511       0.2934       8.7230       8.4993
   2405.5500      25.2485       2.2568       0.3016       9.3411       8.4794
   2405.7000      25.1907       2.2524       0.3086      10.5108       8.4396
   2405.8500      25.0539       2.2524       0.2993      10.0421       8.4254
   2406.0000      25.4371       2.2608       0.2957       9.0262       8.4412
   2406.1500      26.0494       2.2673       0.2900       8.6758       8.4637
   2406.3000      27.5603       2.2521       0.2939       8.4751       8.4263
   2406.4500      28.2974       2.2472       0.2944       8.4579       8.4127
   2406.6000      28.9265       2.2310       0.2998       9.8048       8.3694
   2406.7500      30.0348       2.2598       0.2996       9.3288       8.3546
   2406.9000      30.5526       2.2480       0.2991       9.4468       8.3868
   2407.0500      29.5871       2.2609       0.3043       9.3095       8.4529
   2407.2000      31.2096       2.2638       0.3009       9.0585       8.4689
   2407.3500      31.3182       2.2642       0.2996       9.7180       8.4685
   2407.5000      31.6634       2.2735       0.2996       9.6087       8.4596
   2407.6500      31.1828       2.2747       0.2999      10.4650       8.5032
   2407.8000      32.4825       2.2695       0.3024      10.1884       8.5468
   2407.9500      33.3516       2.2804       0.3016       9.4737       8.5245
   2408.1000      33.0318       2.2925       0.3001       8.8361       8.5180
   2408.2500      32.9732       2.2790       0.3020      10.1158       8.5282
   2408.4000      31.9704       2.2784       0.3025      10.8518       8.4938
   2408.5500      32.2529       2.2552       0.3034      10.1404       8.4441
   2408.7000      31.9187       2.2563       0.3000      10.4764       8.4136
   2408.8500      31.8296       2.2582       0.2963      10.5260       8.4228
   2409.0000      31.9373       2.2407       0.3015      11.3237       8.4441
   2409.1500      31.5858       2.2266       0.3009      11.9306       8.3753
   2409.3000      31.8272       2.2358       0.3067      11.9025       8.3543
   2409.4500      30.3206       2.2393       0.3058      11.8870       8.3596
   2409.6000      29.0410       2.2511       0.3084      10.7517       8.4183
   2409.7500      28.8444       2.2293       0.3098      10.3423       8.5005
   2409.9000      29.2178       2.2377       0.3095       9.9856       8.4975
   2410.0500      29.1472       2.2246       0.3085      10.3314       8.6001
   2410.2000      26.6557       2.2250       0.3073      10.7952       8.6538
   2410.3500      25.6700       2.2190       0.3081       9.3725       8.6855
   2410.5000      25.5411       2.2184       0.3138       9.7074       8.6135
   2410.6500      24.9454       2.2215       0.3122       9.7237       8.6794
   2410.8000      25.3586       2.2142       0.3176      10.2815       8.7246
   2410.9500      25.0744       2.2224       0.3217      10.5970       8.6910
   2411.1000      25.6123       2.2281       0.3228      11.1669       8.6034
   2411.2500      26.3657       2.2377       0.3175      10.0729       8.5456
   2411.4000      26.0079       2.2504       0.3254      10.2973       8.5471
   2411.5500      25.4274       2.2834       0.3223      10.9782       8.5252
   2411.7000      25.7116       2.2873       0.3241      10.4666       8.4904
   2411.8500      26.7386       2.2707       0.3260      10.6169       8.4372
   2412.0000      25.3363       2.2825       0.3239      10.9052       8.4335
   2412.1500      26.3389       2.2854       0.3277      11.1877       8.3956
   2412.3000      24.9657       2.2711       0.3201      10.4741       8.4574
   2412.4500      25.3225       2.2886       0.3197       9.8289       8.4315
   2412.6000      25.6481       2.3013       0.3217      10.0653       8.4348
   2412.7500      27.5253       2.2973       0.3272      10.0014       8.4277
   2412.9000      26.3925       2.2887       0.3254      11.7503       8.5043
   2413.0500      26.2836       2.2941       0.3216      11.3342       8.4832
   2413.2000      27.0169       2.2911       0.3306      11.5422       8.5564
   2413.3500      26.9552       2.3042       0.3352      12.3223       8.5676
   2413.5000      26.2984       2.2993       0.3330      12.3210       8.5599
   2413.6500      28.2219       2.2956       0.3435      12.0951       8.5662
   2413.8000      27.7107       2.2864       0.3392      10.4122       8.4685
   2413.9500      28.2109       2.2783       0.3339       9.8715       8.5189
   2414.1000      27.6843       2.2861       0.3309       9.5765       8.5582
   2414.2500      27.3839       2.2865       0.3278       8.9426       8.5807
   2414.4000      27.9868       2.2825       0.3213       8.3814       8.4867
   2414.5500      27.4689       2.2714       0.3164       8.0346       8.4283
   2414.7000      28.4247       2.2695       0.3104       7.7004       8.3318
   2414.8500      27.9847       2.2991       0.3109       8.3173       8.3525
   2415.0000      28.9267       2.2860       0.3120       8.4549       8.4048
   2415.1500      28.5728       2.2991       0.3088       8.3873       8.4588
   2415.3000      29.8482       2.3126       0.3069       8.5297       8.5173
