~VERSION -------------------------------------------
 VERS.                 2.0 : CWLS LOG ASCII STANDARD - VERSION 2.0
 WRAP.                  NO : ONE LINE PER DEPTH STEP
~WELL -----------------------------------------------
 WELL.                TYRA-2 : Well name
 UWI .                DK-TYR-002        : Unique Well ID
 LAT .                55.6832        : Latitude
 LON .                4.4123        : Longitude
 STRT.M               2400.00 : START DEPTH
 STOP.M               3099.90 : STOP DEPTH
 STEP.M               0.1500 : STEP
 NULL.                -9999 : NULL VALUE
~CURVE -----------------------------------------------
 DEPTH .M               : Depth
 GR    .GAPI            : Gamma Ray
 RHOB  .G/C3            : Bulk Density
 NPHI  .V/V             : Neutron Porosity
 RT    .OHMM            : Resistivity
 CALI  .IN              : Caliper
~A  DEPTH              GR        RHOB        NPHI          RT        CALI
# ...
   2678.1000      26.3365       2.2543       0.2913       7.9797       8.4365
   2678.2500      26.8311       2.2520       0.2937       8.0022       8.4412
   2678.4000      26.9334       2.2689       0.3001       7.9729       8.4437
   2678.5500      26.5431       2.2701       0.2956       8.6097       8.4593
   2678.7000      26.8781       2.2709       0.2955       9.5133       8.4361
   2678.8500      27.3481       2.2753       0.2966       9.2277       8.4060
   2679.0000      27.7765       2.2766       0.2963       9.0097       8.4319
   2679.1500      27.2813       2.2561       0.2881       8.7876       8.4789
   2679.3000      27.2421       2.2660       0.2921       9.2899       8.5097
   2679.4500      28.0158       2.2917       0.2889       9.7583       8.5097
   2679.6000      27.4867       2.2806       0.2835       9.7209       8.4787
   2679.7500      28.1236       2.2908       0.2801      10.5061       8.4933
   2679.9000      28.7614       2.3014       0.2840      10.9070       8.5520
   2680.0500      29.6217       2.3129       0.2783      10.8269       8.5472
   2680.2000      29.1360       2.3113       0.2826      11.0418       8.5797
   2680.3500      27.4845       2.3015       0.2885      10.7363       8.5504
   2680.5000      28.0785       2.3070       0.2911      11.4519       8.5281
   2680.6500      28.4493       2.3060       0.2898      11.8485       8.4521
   2680.8000      28.8655       2.3093       0.2941      12.0021       8.4122
   2680.9500      31.0689       2.3150       0.3062      11.1008       8.4198
   2681.1000      29.9755       2.3020       0.2985       9.9706       8.4026
   2681.2500      29.3004       2.2855       0.2982      10.3329       8.4881
   2681.4000      28.9494       2.2701       0.2923       9.4279       8.4450
   2681.5500      29.1223       2.2663       0.2965       9.2043       8.5535
   2681.7000      29.5283       2.2755       0.3037       8.7419       8.5999
   2681.8500      29.2998       2.2626       0.3062       9.1685       8.5895
   2682.0000      28.7020       2.2637       0.3012       9.2840       8.5925
   2682.1500      28.7071       2.2665       0.3010       9.2503       8.5697
   2682.3000      28.8246       2.2732       0.3016       9.0272       8.5530
   2682.4500      28.8846       2.2653       0.3041      10.4450       8.5454
   2682.6000      29.0531       2.2845       0.3046       9.8002       8.5454
   2682.7500      29.0662       2.2893       0.3078       9.5705       8.4070
   2682.9000      30.3121       2.2907       0.3078       8.3222       8.3855
   2683.0500      30.3527       2.2827       0.3181       8.7659       8.3121
   2683.2000      31.8102       2.2712       0.3123       9.1945       8.2231
   2683.3500      32.0010       2.2871       0.3164       9.2925       8.2783
   2683.5000      32.4032       2.2727       0.3119       9.1870       8.3054
   2683.6500      32.6328       2.2654       0.3085       9.1191       8.3603
   2683.8000      30.9105       2.2427       0.3017       9.0309       8.3683
   2683.9500      28.5591       2.2324       0.2873       8.6358       8.4302
   2684.1000      29.1180       2.2375       0.2846       9.1270       8.4302
   2684.2500      28.5751       2.2570       0.2848       8.7317       8.4935
   2684.4000      27.8914       2.2433       0.2851       9.1417       8.4707
   2684.5500      28.0260       2.2305       0.2797       8.2158       8.5236
   2684.7000      28.5387       2.2356       0.2757       9.0024       8.5869
   2684.8500      28.5271       2.2425       0.2728       9.6575       8.6011
   2685.0000      28.0352       2.2411       0.2756       9.5188       8.5824
   2685.1500      27.3991       2.2298       0.2797      10.7347       8.5727
   2685.3000      26.8389       2.2224       0.2792      10.8221       8.5475
   2685.4500      25.7127       2.2218       0.2803       9.3568       8.5026
   2685.6000      25.7822       2.2139       0.2845      10.0009       8.6139
   2685.7500      26.9441       2.2007       0.2816       9.9592       8.5842
   2685.9000      24.9071       2.1877       0.2796      10.1096       8.5871
   2686.0500      24.7370       2.2086       0.2803       9.7138       8.5509
   2686.2000      24.0222       2.2260       0.2843       9.0644       8.5359
   2686.3500      23.9491       2.2337       0.2801       8.4920       8.5049
   2686.5000      23.9491       2.2339       0.2789       8.0895       8.4525
   2686.6500      23.4421       2.2403       0.2787       7.7055       8.4783
   2686.8000      23.9571       2.2468       0.2755       7.5736       8.5389
   2686.9500      23.4155       2.2612       0.2866       7.7903       8.5832
   2687.1000      23.8954       2.2649       0.2897       7.4051       8.5244
   2687.2500      24.8958       2.2582       0.2920       8.1808       8.4934
   2687.4000      25.9621       2.2724       0.2953       8.5280       8.5492
   2687.5500      26.8310       2.2937       0.3059       8.9985       8.5089
   2687.7000      25.5879       2.2652       0.3092       8.5226       8.4523
   2687.8500      26.0201       2.2689       0.3114       7.9630       8.5033
   2688.0000      26.0673       2.2730       0.3079       8.2318       8.4987
   2688.1500      27.1114       2.2774       0.3035       8.5380       8.4229
   2688.3000      28.3241       2.2786       0.3043       8.4919       8.4356
   2688.4500      29.4725       2.2851       0.2994       9.3177       8.3743
   2688.6000      30.2869       2.2805       0.2956       8.8689       8.3582
   2688.7500      29.1158       2.2978       0.2920       8.3056       8.3472
   2688.9000      29.3808       2.3066       0.2894       9.4081       8.3051
   2689.0500      28.7857       2.2906       0.2878       8.9155       8.4052
   2689.2000      29.0640       2.2940       0.2869       8.6210       8.4461
   2689.3500      29.6036       2.2934       0.2870       9.0915       8.4193
   2689.5000      29.5054       2.3123       0.2892       9.7168       8.4830
   2689.6500      29.6189       2.3192       0.2885       9.6818       8.5104
   2689.8000      29.8095       2.3300       0.3041       9.8261       8.5022
   2689.9500      30.9882       2.3214       0.3013       9.0387       8.5654
   2690.1000      30.8539       2.3328       0.3016       9.4558       8.6054
   2690.2500      29.5226       2.3278       0.3017       9.2323       8.6184
   2690.4000      28.0982       2.3177       0.3059       8.4992       8.6593
   2690.5500      26.8457       2.3108       0.2983       8.2212       8.5811
   2690.7000      26.4211       2.3357       0.2915       7.9051       8.6242
   2690.8500      25.4093       2.3141       0.2840       7.4111       8.5927
   2691.0000      25.8169       2.3100       0.2838       7.6277       8.6362
   2691.1500      25.3036       2.3143       0.2881       7.0573       8.6706
   2691.3000      23.9175       2.3187       0.2819       7.3604       8.6286
   2691.4500      24.9332       2.3182       0.2871       6.9309       8.6070
   2691.6000      23.1795       2.3138       0.2880       7.1924       8.5804
   2691.7500      24.2642       2.2994       0.2933       7.3446       8.5837
   2691.9000      24.2472       2.2912       0.2984       6.8833       8.5915
   2692.0500      24.4021       2.2978       0.2977       7.6431       8.5914
   2692.2000      24.7338       2.2999       0.3021       7.7334       8.6199
   2692.3500      24.3003       2.2899       0.3065       7.3543       8.6237
   2692.5000      23.8005       2.2736       0.3062       6.4945       8.5483
   2692.6500      25.1588       2.2611       0.3047       7.0540       8.5213
   2692.8000      24.4533       2.2704       0.2938       7.0538       8.5911
   2692.9500      24.0992       2.2733       0.2878       7.9144       8.5495
   2693.1000      24.3089       2.2649       0.2904       7.8984       8.5530
   2693.2500      25.8447       2.2862       0.2885       7.7448       8.5860
   2693.4000      26.6057       2.3069       0.2872       7.9467       8.5232
