~VERSION -------------------------------------------
 VERS.                 2.0 : CWLS LOG ASCII STANDARD - VERSION 2.0
 WRAP.                  NO : ONE LINE PER DEPTH STEP
~WELL -----------------------------------------------
 WELL.                TYRA-2 : Well name
 UWI .                DK-TYR-002        : Unique Well ID
 LAT .                55.6832        : Latitude
 LON .                4.4123        : Longitude
 STRT.M               2400.00 : START DEPTH
 STOP.M               3099.90 : STOP DEPTH
 STEP.M               0.1500 : STEP
 NULL.                -9999 : NULL VALUE
~CURVE -----------------------------------------------
 DEPTH .M               : Depth
 GR    .GAPI            : Gamma Ray
 RHOB  .G/C3            : Bulk Density
 NPHI  .V/V             : Neutron Porosity
 RT    .OHMM            : Resistivity
 CALI  .IN              : Caliper
~A  DEPTH              GR        RHOB        NPHI          RT        CALI
# ...
   2539.0500      28.9337       2.2556       0.3000      10.2447       8.6871
   2539.2000      27.2259       2.2310       0.3042      10.4453       8.6783
   2539.3500      27.1626       2.2451       0.3007      11.4116       8.6098
   2539.5000      27.3489       2.2471       0.3004      11.5972       8.5575
   2539.6500      28.1981       2.2562       0.2974      12.9933       8.5581
   2539.8000      28.6241       2.2849       0.3030      11.9195       8.5194
   2539.9500      29.9737       2.3004       0.3051      11.9328       8.5021
   2540.1000      28.7581       2.2930       0.3040      10.6362       8.5009
   2540.2500      28.1732       2.2904       0.3055      10.7026       8.4845
   2540.4000      28.3223       2.2987       0.3044      11.0550       8.5210
   2540.5500      28.3875       2.2977       0.3125      11.2210       8.5269
   2540.7000      29.5380       2.2907       0.3109      10.8445       8.4450
   2540.8500      28.6363       2.2929       0.3077       9.8551       8.4706
   2541.0000      27.7863       2.2971       0.3064      11.2309       8.5015
   2541.1500      28.9913       2.2939       0.3059      12.2866       8.4797
   2541.3000      28.2629       2.2904       0.2957      11.7673       8.4887
   2541.4500      28.7884       2.2856       0.2959      10.7392       8.4528
   2541.6000      30.0213       2.2804       0.2999      10.5825       8.3995
   2541.7500      29.4541       2.2878       0.2951      10.2143       8.4461
   2541.9000      29.6494       2.2910       0.2940      10.0271       8.3801
   2542.0500      31.9436       2.2866       0.2963      10.1033       8.3892
   2542.2000      32.8353       2.3127       0.2955       9.5296       8.4951
   2542.3500      32.9442       2.3114       0.3025       9.2038       8.4751
   2542.5000      33.2721       2.3148       0.3036       9.2034       8.4511
   2542.6500      33.1638       2.3234       0.3100       8.9675       8.4426
   2542.8000      33.1015       2.3124       0.3171       9.7537       8.4503
   2542.9500      31.7890       2.3065       0.3110      10.6547       8.4277
   2543.1000      33.2434       2.3241       0.3076      11.5516       8.4106
   2543.2500      33.4036       2.3176       0.3019      11.0389       8.3440
   2543.4000      34.3033       2.2980       0.2977      10.8426       8.3792
   2543.5500      34.9513       2.3043       0.2979      10.8226       8.4337
   2543.7000      35.3518       2.3024       0.2954      11.7417       8.4009
   2543.8500      35.8424       2.3209       0.2993      12.1699       8.4111
   2544.0000      35.6340       2.3109       0.2971      11.3749       8.4342
   2544.1500      35.4577       2.3227       0.2984      10.0527       8.4942
   2544.3000      34.9669       2.3195       0.2996      10.6456       8.5594
   2544.4500      34.3932       2.3334       0.3073      11.4382       8.6144
   2544.6000      34.0036       2.3260       0.3110      10.7225       8.6392
   2544.7500      32.9554       2.3156       0.3090       9.8126       8.6470
   2544.9000      32.4953       2.3216       0.3115       9.5698       8.5981
   2545.0500      31.7709       2.3223       0.3165       8.8395       8.5721
   2545.2000      31.5141       2.3176       0.3188       9.2052       8.5223
   2545.3500      30.9866       2.3166       0.3179       9.3798       8.5366
   2545.5000      30.2876       2.3303       0.3154       8.7639       8.5765
   2545.6500      29.0740       2.3172       0.3114       8.3629       8.5749
   2545.8000      29.1387       2.3100       0.3060       7.4106       8.4745
   2545.9500      29.2630       2.2937       0.3064       6.4512       8.4643
   2546.1000      27.9246       2.2799       0.3042       6.6551       8.4621
   2546.2500      28.3667       2.2882       0.3055       6.1505       8.4650
   2546.4000      28.5979       2.2932       0.3131       5.9649       8.4510
   2546.5500      28.6369       2.2845       0.3153       6.1100       8.4753
   2546.7000      28.3469       2.2894       0.3200       5.4746       8.5086
   2546.8500      29.8036       2.2839       0.3176       5.1471       8.4444
   2547.0000      29.9622       2.2893       0.3153       5.2954       8.3780
   2547.1500      29.6145       2.2805       0.3132       5.6937       8.4081
   2547.3000      30.0377       2.2886       0.3226       5.0558       8.4398
   2547.4500      29.0784       2.2735       0.3220       5.4449       8.4314
   2547.6000      28.3628       2.2921       0.3196       5.1454       8.4893
   2547.7500      28.7315       2.3022       0.3242       5.7235       8.4866
   2547.9000      28.7808       2.2925       0.3272       5.5065       8.4681
   2548.0500      27.1203       2.3036       0.3277       5.5378       8.3851
   2548.2000      27.2384       2.2874       0.3227       5.0716       8.4005
   2548.3500      26.8522       2.2731       0.3199       5.0035       8.5216
   2548.5000      27.4141       2.2629       0.3189       5.3982       8.5975
   2548.6500      27.6812       2.2647       0.3313       5.1967       8.5420
   2548.8000      27.3458       2.2886       0.3262       5.6954       8.5403
   2548.9500      28.1877       2.2969       0.3243       6.1520       8.5557
   2549.1000      28.3028       2.2946       0.3262       6.7191       8.4662
   2549.2500      28.0896       2.2871       0.3262       7.6861       8.4723
   2549.4000      27.0229       2.2941       0.3267       8.0453       8.5346
   2549.5500      27.1307       2.3063       0.3241       7.5763       8.6361
   2549.7000      26.9503       2.3007       0.3163       7.2062       8.6523
   2549.8500      26.5043       2.2907       0.3136       7.4655       8.6488
   2550.0000      26.5763       2.3057       0.3137       8.0551       8.6783
   2550.1500      27.1368       2.3145       0.3141       8.9543       8.7404
   2550.3000      26.8420       2.3074       0.3098       9.4202       8.7493
   2550.4500      27.2858       2.3273       0.3049       8.6096       8.7597
   2550.6000      26.9957       2.3110       0.3050       9.4170       8.7597
   2550.7500      28.2550       2.3073       0.3027       9.1355       8.7634
   2550.9000      27.2624       2.3030       0.2989       9.6258       8.7628
   2551.0500      28.7308       2.2873       0.2904      10.1871       8.6908
   2551.2000      28.5953       2.2838       0.2900      12.5292       8.6026
   2551.3500      29.2775       2.2927       0.2909      13.7775       8.5905
   2551.5000      29.5319       2.2968       0.2899      15.3373       8.5459
   2551.6500      29.2863       2.2964       0.2823      14.9317       8.5573
   2551.8000      30.9516       2.2793       0.2891      15.5316       8.5823
   2551.9500      30.1697       2.2879       0.2889      14.4485       8.6182
   2552.1000      30.4526       2.2878       0.2872      13.6980       8.7089
   2552.2500      31.3118       2.2970       0.2897      14.0056       8.6805
   2552.4000      31.5365       2.2994       0.2861      13.5962       8.6429
   2552.5500      31.9454       2.2837       0.2776      14.2627       8.6378
   2552.7000      30.3196       2.3000       0.2803      15.1641       8.6540
   2552.8500      29.5527       2.2906       0.2813      15.0811       8.6604
   2553.0000      30.0708       2.2675       0.2838      14.3015       8.6477
   2553.1500      29.9942       2.2687       0.2806      12.8468       8.6035
   2553.3000      31.0058       2.2703       0.2846      14.3290       8.5309
   2553.4500      31.8569       2.2620       0.2851      16.0565       8.5117
   2553.6000      32.5702       2.2714       0.2784      14.9414       8.4567
   2553.7500      32.2272       2.2733       0.2826      15.4710       8.5246
   2553.9000      31.9292       2.2776       0.2913      15.9885       8.5184
   2554.0500      32.2597       2.2792       0.2953      15.3951       8.5800
   2554.2000      31.7899       2.2941       0.2933      14.0434       8.6468
   2554.3500      32.2383       2.2936       0.2917      13.4638       8.5687
