~VERSION -------------------------------------------
 VERS.                 2.0 : CWLS LOG ASCII STANDARD - VERSION 2.0
 WRAP.                  NO : ONE LINE PER DEPTH STEP
~WELL -----------------------------------------------
 WELL.                TYRA-2 : Well name
 UWI .                DK-TYR-002        : Unique Well ID
 LAT .                55.6832        : Latitude
 LON .                4.4123        : Longitude
 STRT.M               2400.00 : START DEPTH
 STOP.M               3099.90 : STOP DEPTH
 STEP.M               0.1500 : STEP
 NULL.                -9999 : NULL VALUE
~CURVE -----------------------------------------------
 DEPTH .M               : Depth
 GR    .GAPI            : Gamma Ray
 RHOB  .G/C3            : Bulk Density
 NPHI  .V/V             : Neutron Porosity
 RT    .OHMM            : Resistivity
 CALI  .IN              : Caliper
~A  DEPTH              GR        RHOB        NPHI          RT        CALI
# ...
   2492.7000      30.0762       2.3007       0.2967       8.1743       8.5293
   2492.8500      30.3233       2.2911       0.2959       8.2585       8.5227
   2493.0000      31.0006       2.2730       0.2901       7.5025       8.5214
   2493.1500      30.7453       2.2810       0.2894       6.7523       8.5793
   2493.3000      31.1121       2.2845       0.2907       6.8505       8.5624
   2493.4500      30.2778       2.3020       0.2943       6.4219       8.5282
   2493.6000      30.6093       2.3066       0.2968       6.4310       8.4891
   2493.7500      29.5386       2.2953       0.2935       6.7884       8.5089
   2493.9000      30.4948       2.3084       0.3023       6.1485       8.5440
   2494.0500      29.9072       2.2958       0.3087       6.7122       8.5670
   2494.2000      30.8208       2.3048       0.3024       6.4574       8.4870
   2494.3500      30.3490       2.2882       0.3064       6.4786       8.5136
   2494.5000      29.0420       2.2962       0.3088       6.2934       8.5251
   2494.6500      29.4195       2.3010       0.3074       6.5575       8.4607
   2494.8000      28.0976       2.2873       0.3098       6.3959       8.4403
   2494.9500      28.1617       2.2860       0.3113       6.0311       8.4823
   2495.1000      27.0005       2.2740       0.3101       5.8518       8.5431
   2495.2500      27.7294       2.2795       0.3073       5.8797       8.4668
   2495.4000      26.7086       2.2955       0.3096       6.0582       8.4137
   2495.5500      26.5976       2.3075       0.3021       7.0485       8.4297
   2495.7000      26.6822       2.3155       0.3021       7.0794       8.4562
   2495.8500      27.0748       2.3146       0.3017       7.3541       8.4671
   2496.0000      26.7439       2.3259       0.3028       9.0119       8.4598
   2496.1500      26.3443       2.3210       0.2985       9.8550       8.5119
   2496.3000      26.9482       2.3085       0.3024       9.2160       8.4849
   2496.4500      27.3814       2.3023       0.3018       8.8476       8.4797
   2496.6000      27.2809       2.2999       0.2937       9.3424       8.3863
   2496.7500      26.9279       2.2938       0.2920      10.0833       8.4557
   2496.9000      25.4828       2.2826       0.2896       9.6731       8.4871
   2497.0500      25.8223       2.2938       0.2930       9.7885       8.4782
   2497.2000      25.0058       2.2830       0.2929       9.8434       8.5008
   2497.3500      25.0627       2.2876       0.2962       9.7751       8.4315
   2497.5000      25.3520       2.2825       0.2940      10.0383       8.4941
   2497.6500      25.3185       2.2789       0.2869      10.6484       8.4856
   2497.8000      25.6147       2.2767       0.2810      12.8977       8.5602
   2497.9500      23.9644       2.2846       0.2827      13.3398       8.5130
   2498.1000      23.9396       2.2988       0.2796      12.5145       8.5714
   2498.2500      23.7245       2.2947       0.2850      12.3411       8.4932
   2498.4000      23.2164       2.2918       0.2888      12.4455       8.4996
   2498.5500      23.9174       2.2949       0.2907      11.1467       8.4513
   2498.7000      23.4508       2.2831       0.2902      10.6470       8.6182
   2498.8500      23.4731       2.2806       0.2872       8.9268       8.6894
   2499.0000      23.6381       2.2944       0.2836       7.8553       8.6881
   2499.1500      23.4859       2.2827       0.2942       7.7777       8.6677
   2499.3000      23.1030       2.2805       0.2976       7.7763       8.6552
   2499.4500      23.4024       2.2884       0.3027       7.8325       8.7148
   2499.6000      22.4569       2.2800       0.3060       8.0576       8.6689
   2499.7500      23.9166       2.2783       0.3047       7.9547       8.6912
   2499.9000      25.8727       2.2712       0.3019       8.1701       8.7200
   2500.0500      26.5295       2.2787       0.2999       8.2845       8.7452
   2500.2000      26.4483       2.2788       0.3037       7.9871       8.5438
   2500.3500      26.5204       2.2777       0.2990       7.9254       8.5006
   2500.5000      26.2197       2.2709       0.3040       8.0882       8.4112
   2500.6500      26.3518       2.2878       0.3059       8.5829       8.3699
   2500.8000      26.9134       2.2782       0.3054       8.2176       8.3060
   2500.9500      27.2981       2.2714       0.3038       8.1050       8.2759
   2501.1000      27.4103       2.2590       0.3015       7.9053       8.3369
   2501.2500      26.9970       2.2692       0.3025       8.7472       8.4486
   2501.4000      26.2505       2.2671       0.2919       8.6797       8.4131
   2501.5500      25.6083       2.2693       0.2887       9.2941       8.3760
   2501.7000      25.3011       2.2677       0.2881       9.1688       8.4012
   2501.8500      25.5562       2.2620       0.2839      11.0824       8.4478
   2502.0000      26.2600       2.2694       0.2823      10.8558       8.5267
   2502.1500      26.8761       2.2742       0.2765      11.4617       8.6093
   2502.3000      26.6124       2.2765       0.2741      12.1176       8.6794
   2502.4500      26.1987       2.2709       0.2654      12.7298       8.6811
   2502.6000      26.4478       2.2846       0.2663      13.0639       8.6834
   2502.7500      26.1606       2.2943       0.2679      11.2655       8.5538
   2502.9000      24.2170       2.2973       0.2639      11.5419       8.5052
   2503.0500      24.0576       2.2873       0.2643      10.7246       8.6233
   2503.2000      24.1912       2.2903       0.2636      11.8612       8.6226
   2503.3500      24.9312       2.2870       0.2649      12.4838       8.6167
   2503.5000      24.2638       2.2833       0.2650      12.0383       8.5307
   2503.6500      23.8137       2.2882       0.2621      10.8259       8.5521
   2503.8000      22.8451       2.2916       0.2700      10.2852       8.5725
   2503.9500      24.0566       2.2996       0.2733       9.5250       8.5192
   2504.1000      24.8483       2.3080       0.2756      10.1595       8.4823
   2504.2500      25.1612       2.3022       0.2772       9.0762       8.5330
   2504.4000      26.1992       2.2997       0.2851       9.5955       8.5388
   2504.5500      26.5407       2.2869       0.2912       8.7564       8.4827
   2504.7000      26.9051       2.3049       0.2885       8.5570       8.5209
   2504.8500      26.3148       2.3111       0.2937       7.4232       8.5136
   2505.0000      25.6312       2.2915       0.2990       7.5442       8.5136
   2505.1500      25.2319       2.2887       0.2987       7.7261       8.4232
   2505.3000      25.6990       2.3011       0.3000       8.1085       8.3784
   2505.4500      28.0669       2.3000       0.3108       7.6797       8.4197
   2505.6000      29.5647       2.2868       0.3113       6.8878       8.4228
   2505.7500      28.3921       2.2906       0.3138       7.8614       8.4042
   2505.9000      29.2938       2.2897       0.3165       7.4265       8.3984
   2506.0500      28.2141       2.3006       0.3159       7.7876       8.4095
   2506.2000      29.1805       2.2840       0.3148       7.3747       8.3949
   2506.3500      28.6910       2.2867       0.3264       7.0522       8.4018
   2506.5000      29.9696       2.3047       0.3192       7.5356       8.4668
   2506.6500      29.5252       2.2911       0.3322       7.4783       8.4932
   2506.8000      29.6170       2.2987       0.3324       7.7828       8.4763
   2506.9500      30.2597       2.2945       0.3248       9.3170       8.4494
   2507.1000      30.3859       2.2995       0.3324       9.4486       8.5114
   2507.2500      29.4441       2.3002       0.3276       9.8146       8.5200
   2507.4000      29.5517       2.2987       0.3276      10.0323       8.5200
   2507.5500      28.6388       2.3175       0.3201      10.1416       8.4907
   2507.7000      28.6713       2.3188       0.3224      11.3004       8.4188
   2507.8500      27.9218       2.3202       0.3224      11.2993       8.4092
   2508.0000      27.5036       2.3277       0.3252      12.8393       8.3991
