~VERSION -------------------------------------------
 VERS.                 2.0 : CWLS LOG ASCII STANDARD - VERSION 2.0
 WRAP.                  NO : ONE LINE PER DEPTH STEP
~WELL -----------------------------------------------
 WELL.                TYRA-2 : Well name
 UWI .                DK-TYR-002        : Unique Well ID
 LAT .                55.6832        : Latitude
 LON .                4.4123        : Longitude
 STRT.M               2400.00 : START DEPTH
 STOP.M               3099.90 : STOP DEPTH
 STEP.M               0.1500 : STEP
 NULL.                -9999 : NULL VALUE
~CURVE -----------------------------------------------
 DEPTH .M               : Depth
 GR    .GAPI            : Gamma Ray
 RHOB  .G/C3            : Bulk Density
 NPHI  .V/V             : Neutron Porosity
 RT    .OHMM            : Resistivity
 CALI  .IN              : Caliper
~A  DEPTH              GR        RHOB        NPHI          RT        CALI
# ...
   2755.3500      32.8428       2.2990       0.2963       7.7267       8.5786
   2755.5000      31.7810       2.2989       0.2909       8.4444       8.5185
   2755.6500      31.5846       2.2754       0.2969       8.1903       8.4597
   2755.8000      31.5167       2.2640       0.3011       7.8819       8.4757
   2755.9500      32.0788       2.2529       0.2993       7.5862       8.5056
   2756.1000      32.1070       2.2724       0.2896       6.9717       8.4510
   2756.2500      32.1373       2.2730       0.2882       7.4508       8.4130
   2756.4000      32.6383       2.2759       0.2949       7.0259       8.5945
   2756.5500      31.1221       2.2788       0.2984       6.9464       8.6148
   2756.7000      30.9761       2.2806       0.2965       6.9769       8.5484
   2756.8500      30.1335       2.2682       0.2960       6.1527       8.5620
   2757.0000      30.9511       2.2756       0.3002       5.9347       8.5526
   2757.1500      31.9403       2.2655       0.2978       5.6524       8.5169
   2757.3000      32.4202       2.2846       0.2909       6.4932       8.5310
   2757.4500      31.8270       2.2879       0.2910       6.7593       8.4182
   2757.6000      31.7214       2.3058       0.2938       7.4280       8.4285
   2757.7500      32.5918       2.2951       0.2999       7.3092       8.4960
   2757.9000      33.1559       2.3108       0.3033       7.6991       8.3446
   2758.0500      33.1715       2.3028       0.3077       6.9442       8.3773
   2758.2000      32.0474       2.3162       0.3023       6.5448       8.3890
   2758.3500      31.4843       2.3229       0.3054       7.6229       8.3959
   2758.5000      31.3436       2.3203       0.3135       6.5659       8.4512
   2758.6500      33.1073       2.3273       0.3081       6.5785       8.4911
   2758.8000      32.8328       2.3324       0.3017       6.5790       8.4513
   2758.9500      33.0915       2.3217       0.2965       6.4384       8.4973
   2759.1000      31.9254       2.3159       0.3029       6.4384       8.5091
   2759.2500      32.0140       2.3116       0.3022       6.7809       8.5254
   2759.4000      32.0926       2.3190       0.2929       6.3885       8.5562
   2759.5500      32.1876       2.3075       0.2938       6.8470       8.5118
   2759.7000      32.9622       2.3141       0.2860       7.4952       8.5682
   2759.8500      32.3049       2.3038       0.2895       8.2661       8.5675
   2760.0000      31.8233       2.3089       0.2849       8.5011       8.5892
   2760.1500      30.9194       2.3109       0.2817       9.4621       8.6298
   2760.3000      31.0526       2.3058       0.2888       9.7606       8.7193
   2760.4500      31.4823       2.2822       0.2899       9.0676       8.6952
   2760.6000      30.9051       2.2756       0.2908       8.5558       8.6166
   2760.7500      28.7098       2.2782       0.2911       8.6371       8.5911
   2760.9000      26.9045       2.2789       0.2955       7.6704       8.5666
   2761.0500      26.5357       2.2833       0.2959       7.0917       8.6140
   2761.2000      27.4937       2.2766       0.2973       7.0905       8.6419
   2761.3500      26.9499       2.2704       0.2899       6.1230       8.7317
   2761.5000      27.5499       2.2766       0.2784       7.1886       8.6928
   2761.6500      27.2504       2.2783       0.2807       6.9677       8.6904
   2761.8000      27.4380       2.2793       0.2831       6.9671       8.6047
   2761.9500      26.7018       2.2757       0.2937       7.5930       8.6404
   2762.1000      27.1798       2.2790       0.2909       7.7560       8.6709
   2762.2500      27.3647       2.2832       0.2930       7.4579       8.6479
   2762.4000      27.1432       2.2776       0.2940       8.2678       8.7213
   2762.5500      27.5075       2.2918       0.2907       8.3344       8.6393
   2762.7000      26.4694       2.2898       0.2971       7.7823       8.5930
   2762.8500      26.3787       2.2920       0.2953       7.5363       8.5353
   2763.0000      26.7643       2.2827       0.2978       7.7075       8.5558
   2763.1500      27.0667       2.2999       0.3013       6.8174       8.4866
   2763.3000      25.6127       2.3096       0.3053       6.5133       8.4942
   2763.4500      26.4371       2.3107       0.3090       6.5972       8.4658
   2763.6000      26.2345       2.3153       0.3001       6.6380       8.4176
   2763.7500      25.8368       2.3168       0.2951       6.2150       8.4621
   2763.9000      25.5585       2.3156       0.2947       6.4409       8.3482
   2764.0500      25.4437       2.3302       0.2906       6.9289       8.3452
   2764.2000      25.9234       2.3174       0.2853       7.1582       8.3785
   2764.3500      26.4435       2.3268       0.2869       7.6894       8.3649
   2764.5000      26.9523       2.3350       0.2949       6.8429       8.3319
   2764.6500      26.9753       2.3255       0.2933       7.2555       8.3605
   2764.8000      26.7222       2.3127       0.3008       8.0352       8.4085
   2764.9500      26.6608       2.3321       0.3030       7.9141       8.4101
   2765.1000      27.0397       2.3051       0.2970       8.7661       8.4809
   2765.2500      27.9255       2.3058       0.2930       8.9819       8.4003
   2765.4000      27.1551       2.3181       0.2867       8.4228       8.4618
   2765.5500      28.3585       2.3179       0.2914       9.0379       8.5434
   2765.7000      26.9732       2.3202       0.2869       9.5151       8.5594
   2765.8500      27.9141       2.3195       0.2843       9.1828       8.5211
   2766.0000      28.1161       2.3252       0.2872       8.4087       8.5213
   2766.1500      27.3161       2.3125       0.2828       8.8261       8.5871
   2766.3000      28.0137       2.2952       0.2745       8.6985       8.5817
   2766.4500      26.8713       2.3107       0.2643       8.4052       8.5941
   2766.6000      27.9844       2.2900       0.2764       7.8161       8.5734
   2766.7500      28.9720       2.2941       0.2809       8.2170       8.6237
   2766.9000      30.4295       2.2738       0.2763       7.4158       8.5991
   2767.0500      31.3136       2.2663       0.2754       7.0707       8.5867
   2767.2000      30.9520       2.2897       0.2843       7.0856       8.5547
   2767.3500      29.6852       2.2776       0.2944       6.5736       8.5656
   2767.5000      28.2748       2.2587       0.2918       6.7150       8.5589
   2767.6500      28.7761       2.2608       0.2892       6.2602       8.4870
   2767.8000      30.2174       2.2761       0.2890       6.0948       8.4458
   2767.9500      31.2541       2.2664       0.2786       5.7259       8.4622
   2768.1000      30.8173       2.2712       0.2840       5.9504       8.4684
   2768.2500      30.4537       2.2689       0.2764       6.4025       8.4328
   2768.4000      31.8550       2.2632       0.2833       6.4380       8.4928
   2768.5500      30.7078       2.2618       0.2765       5.6903       8.4738
   2768.7000      31.7257       2.2502       0.2833       5.7772       8.5079
   2768.8500      30.8280       2.2534       0.2815       6.2231       8.5973
   2769.0000      30.8129       2.2568       0.2802       7.1675       8.5774
   2769.1500      31.8620       2.2661       0.2845       8.1000       8.5761
   2769.3000      32.4903       2.2735       0.2905       7.2596       8.5705
   2769.4500      33.0836       2.2856       0.3003       8.4040       8.5720
   2769.6000      31.8159       2.2984       0.2957       8.6594       8.5911
   2769.7500      31.3860       2.2878       0.2898       9.1799       8.6214
   2769.9000      30.8863       2.3001       0.2879      10.2964       8.5552
   2770.0500      29.8025       2.2987       0.2942      11.2780       8.6129
   2770.2000      29.7460       2.2845       0.2846      11.7938       8.5463
   2770.3500      30.3828       2.2881       0.2808      11.7503       8.5218
   2770.5000      30.7453       2.3008       0.2821      11.4246       8.5576
   2770.6500      29.7219       2.3127       0.2852      13.0486       8.5725
