~VERSION -------------------------------------------
 VERS.                 2.0 : CWLS LOG ASCII STANDARD - VERSION 2.0
 WRAP.                  NO : ONE LINE PER DEPTH STEP
~WELL -----------------------------------------------
 WELL.                TYRA-2 : Well name
 UWI .                DK-TYR-002        : Unique Well ID
 LAT .                55.6832        : Latitude
 LON .                4.4123        : Longitude
 STRT.M               2400.00 : START DEPTH
 STOP.M               3099.90 : STOP DEPTH
 STEP.M               0.1500 : STEP
 NULL.                -9999 : NULL VALUE
~CURVE -----------------------------------------------
 DEPTH .M               : Depth
 GR    .GAPI            : Gamma Ray
 RHOB  .G/C3            : Bulk Density
 NPHI  .V/V             : Neutron Porosity
 RT    .OHMM            : Resistivity
 CALI  .IN              : Caliper
~A  DEPTH              GR        RHOB        NPHI          RT        CALI
# ...
   3079.8000      31.3701       2.3454       0.3026       6.1217       8.6131
   3079.9500      31.0715       2.3535       0.3063       5.8759       8.5251
   3080.1000      30.9903       2.3587       0.3104       5.7671       8.4866
   3080.2500      29.7539       2.3439       0.3083       6.8278       8.4665
   3080.4000      29.6762       2.3423       0.3131       6.9059       8.4971
   3080.5500      28.3939       2.3385       0.3133       6.8233       8.5002
   3080.7000      28.6583       2.3324       0.3045       6.8481       8.4175
   3080.8500      27.3880       2.3122       0.3093       6.8835       8.4604
   3081.0000      25.8372       2.2916       0.3185       6.6833       8.4592
   3081.1500      26.5756       2.2909       0.3124       6.7826       8.4618
   3081.3000      25.7929       2.2846       0.3184       6.1905       8.5208
   3081.4500      25.9902       2.2840       0.3154       6.8263       8.5482
   3081.6000      24.9238       2.2782       0.3098       6.8513       8.5949
   3081.7500      25.1520       2.2764       0.3096       6.6229       8.5827
   3081.9000      25.4422       2.2924       0.3090       6.9711       8.5570
   3082.0500      25.2236       2.2811       0.3097       7.6311       8.5184
   3082.2000      26.1483       2.2994       0.3065       8.3069       8.5408
   3082.3500      26.9773       2.2944       0.2996       7.7743       8.5311
   3082.5000      27.7335       2.2900       0.2982       7.6998       8.4924
   3082.6500      27.7484       2.2926       0.2947       7.8814       8.5437
   3082.8000      26.5352       2.2841       0.2981       7.8617       8.5275
   3082.9500      26.7040       2.2721       0.2967       8.8065       8.5138
   3083.1000      26.0952       2.2526       0.2882       8.4745       8.5169
   3083.2500      25.7944       2.2432       0.2916       7.5475       8.4878
   3083.4000      26.3742       2.2439       0.2885       7.1517       8.5240
   3083.5500      27.9112       2.2223       0.2883       6.6772       8.5696
   3083.7000      26.8632       2.2277       0.2976       6.9478       8.5661
   3083.8500      28.0427       2.2418       0.2927       7.7153       8.5181
   3084.0000      29.0899       2.2627       0.2886       8.1024       8.5011
   3084.1500      28.2483       2.2790       0.2920       8.0453       8.4691
   3084.3000      28.0973       2.2979       0.2918       8.1682       8.4582
   3084.4500      28.8343       2.2957       0.2915       8.4777       8.4122
   3084.6000      28.0516       2.3168       0.2902       8.5450       8.3927
   3084.7500      27.9431       2.3101       0.2917       9.5902       8.3574
   3084.9000      27.1747       2.2873       0.3002      10.3327       8.3867
   3085.0500      27.6239       2.3093       0.2993      10.1925       8.3937
   3085.2000      27.9016       2.3073       0.3013      10.6612       8.4141
   3085.3500      26.9223       2.2975       0.3017      12.2217       8.4585
   3085.5000      26.0744       2.2907       0.2967      11.8583       8.4614
   3085.6500      28.2406       2.2913       0.2965      10.8236       8.4361
   3085.8000      29.2936       2.2869       0.2884      10.2377       8.4468
   3085.9500      28.6160       2.2881       0.2909       9.2474       8.4877
   3086.1000      28.8432       2.3057       0.2994      10.2149       8.5250
   3086.2500      29.7412       2.3351       0.2956       9.6142       8.5625
   3086.4000      30.4099       2.3333       0.2940       9.0526       8.5251
   3086.5500      29.2719       2.3522       0.2936       9.3336       8.5284
   3086.7000      28.7120       2.3523       0.2868       8.7177       8.4950
   3086.8500      28.8111       2.3435       0.2919       9.0539       8.4864
   3087.0000      27.5691       2.3147       0.2939       8.7505       8.5401
   3087.1500      27.0162       2.2784       0.2963       8.9065       8.6197
   3087.3000      26.8835       2.2708       0.2910       8.9355       8.6345
   3087.4500      26.0537       2.2821       0.2882       7.8093       8.5937
   3087.6000      25.8135       2.2660       0.2896       7.7218       8.5495
   3087.7500      25.5619       2.2810       0.2943       7.2268       8.5485
   3087.9000      26.6027       2.3021       0.2852       6.6911       8.4997
   3088.0500      26.6821       2.2986       0.2897       5.8516       8.4475
   3088.2000      26.9610       2.2955       0.2901       5.5937       8.4513
   3088.3500      27.8907       2.3116       0.2984       5.2275       8.4743
   3088.5000      27.4327       2.3215       0.2939       5.1507       8.4641
   3088.6500      26.9884       2.3154       0.2935       5.4149       8.3873
   3088.8000      26.0590       2.3102       0.2949       6.0481       8.3396
   3088.9500      26.6087       2.3244       0.2961       6.9337       8.3601
   3089.1000      26.6561       2.3068       0.2912       5.8769       8.4044
   3089.2500      27.1327       2.2873       0.2928       5.9550       8.4157
   3089.4000      26.0566       2.2822       0.2970       5.8802       8.4859
   3089.5500      26.4050       2.2733       0.3039       5.7012       8.5305
   3089.7000      26.9464       2.2658       0.3083       6.3679       8.4993
   3089.8500      26.2172       2.2739       0.3067       5.4543       8.4750
   3090.0000      27.8603       2.2854       0.3086       5.3976       8.4834
   3090.1500      27.6522       2.3132       0.3142       5.0528       8.4462
   3090.3000      27.6810       2.3109       0.3126       5.7237       8.4588
   3090.4500      27.7550       2.2928       0.3193       5.7223       8.4983
   3090.6000      28.4990       2.3030       0.3169       5.7737       8.5507
   3090.7500      28.8677       2.2984       0.3063       5.7297       8.5143
   3090.9000      27.6331       2.2981       0.3108       5.4568       8.4783
   3091.0500      28.3713       2.2943       0.3152       6.2769       8.5328
   3091.2000      26.6279       2.2858       0.3147       5.7172       8.5581
   3091.3500      26.1189       2.2799       0.3089       5.6810       8.6079
   3091.5000      25.9132       2.2879       0.3169       6.1283       8.5917
   3091.6500      24.7414       2.3036       0.3142       5.8621       8.6339
   3091.8000      24.7085       2.3159       0.3162       5.1690       8.6527
   3091.9500      25.5841       2.3024       0.3123       4.8158       8.6376
   3092.1000      26.0210       2.3179       0.3135       5.0470       8.6465
   3092.2500      25.9104       2.3165       0.3132       5.4660       8.6175
   3092.4000      25.5348       2.3230       0.3204       6.0273       8.6119
   3092.5500      26.2314       2.3298       0.3151       6.8952       8.5440
   3092.7000      27.3103       2.3325       0.3149       6.4533       8.5599
   3092.8500      28.1334       2.3215       0.3155       6.9088       8.5601
   3093.0000      26.7031       2.3240       0.3084       6.9505       8.5307
   3093.1500      27.1793       2.3115       0.3112       7.9283       8.5556
   3093.3000      27.2667       2.3193       0.3113       7.2917       8.5479
   3093.4500      26.8667       2.3320       0.3130       7.9072       8.5824
   3093.6000      28.4613       2.3283       0.3169       8.3696       8.4986
   3093.7500      27.5910       2.3206       0.3193       8.4658       8.5599
   3093.9000      28.4673       2.3126       0.3185       8.9934       8.5654
   3094.0500      27.7664       2.3106       0.3101       8.7352       8.5398
   3094.2000      28.6524       2.3241       0.3136       9.8912       8.6004
   3094.3500      29.7871       2.3172       0.3114      10.4477       8.5360
   3094.5000      30.6646       2.3118       0.3095      10.4469       8.5349
   3094.6500      30.7325       2.2920       0.3103      11.0146       8.4876
   3094.8000      30.4350       2.2983       0.3057      12.6205       8.4936
   3094.9500      30.1774       2.3170       0.3037      12.0295       8.4475
   3095.1000      29.9463       2.2848       0.3027      12.5147       8.5054
