~VERSION -------------------------------------------
 VERS.                 2.0 : CWLS LOG ASCII STANDARD - VERSION 2.0
 WRAP.                  NO : ONE LINE PER DEPTH STEP
~WELL -----------------------------------------------
 WELL.                TYRA-2 : Well name
 UWI .                DK-TYR-002        : Unique Well ID
 LAT .                55.6832        : Latitude
 LON .                4.4123        : Longitude
 STRT.M               2400.00 : START DEPTH
 STOP.M               3099.90 : STOP DEPTH
 STEP.M               0.1500 : STEP
 NULL.                -9999 : NULL VALUE
~CURVE -----------------------------------------------
 DEPTH .M               : Depth
 GR    .GAPI            : Gamma Ray
 RHOB  .G/C3            : Bulk Density
 NPHI  .V/V             : Neutron Porosity
 RT    .OHMM            : Resistivity
 CALI  .IN              : Caliper
~A  DEPTH              GR        RHOB        NPHI          RT        CALI
# ...
   2585.4000      25.5419       2.2778       0.3029      10.4235       8.4599
   2585.5500      24.7714       2.2799       0.3040       9.1735       8.4692
   2585.7000      23.6762       2.2725       0.3009       8.3322       8.5123
   2585.8500      22.7490       2.2516       0.2999       8.5606       8.5254
   2586.0000      21.9466       2.2490       0.3069       8.4082       8.4867
   2586.1500      22.3516       2.2710       0.3105       8.3403       8.5043
   2586.3000      23.6087       2.2759       0.3119      10.6195       8.4501
   2586.4500      24.5698       2.2864       0.3096      10.9653       8.4065
   2586.6000      24.5692       2.2963       0.3121      11.0572       8.4619
   2586.7500      24.2191       2.2786       0.3073      12.6178       8.5154
   2586.9000      23.3316       2.2766       0.3173      13.6985       8.5118
   2587.0500      24.0328       2.2641       0.3158      11.7674       8.4880
   2587.2000      24.5537       2.2571       0.3112      10.8425       8.4292
   2587.3500      25.2512       2.2608       0.3062      11.0889       8.4451
   2587.5000      26.1644       2.2623       0.3082      11.5297       8.4587
   2587.6500      26.7343       2.2664       0.3116      11.5974       8.4854
   2587.8000      26.7510       2.2840       0.3065      12.6057       8.4384
   2587.9500      25.9183       2.2850       0.3060      13.8749       8.4578
   2588.1000      25.9363       2.2906       0.2990      15.7455       8.4167
   2588.2500      27.8093       2.2889       0.3015      14.9004       8.4193
   2588.4000      26.7915       2.2790       0.2984      12.5721       8.3691
   2588.5500      27.4761       2.2719       0.2921      13.2337       8.3671
   2588.7000      28.2104       2.2912       0.2921      12.4014       8.3783
   2588.8500      28.7966       2.2985       0.2914      10.5250       8.3620
   2589.0000      29.8224       2.2889       0.2887      11.3276       8.3934
   2589.1500      31.0043       2.2766       0.2905      11.7975       8.4218
   2589.3000      30.3173       2.2835       0.2971       8.7456       8.4282
   2589.4500      30.4729       2.2599       0.2994       8.3520       8.3753
   2589.6000      29.3950       2.2703       0.2933       8.3148       8.3480
   2589.7500      30.3079       2.2877       0.2949       7.8241       8.3135
   2589.9000      31.2820       2.2807       0.2860       6.9974       8.4208
   2590.0500      30.3203       2.2883       0.2824       7.7587       8.4186
   2590.2000      29.3212       2.3090       0.2880       7.8867       8.4297
   2590.3500      29.5583       2.3004       0.2808       7.0150       8.4585
   2590.5000      28.3509       2.2935       0.2779       6.2859       8.5185
   2590.6500      29.4275       2.2961       0.2677       6.5448       8.4682
   2590.8000      29.5064       2.2845       0.2725       5.9274       8.4897
   2590.9500      30.5402       2.2903       0.2767       5.2848       8.5255
   2591.1000      30.3113       2.2939       0.2754       5.2176       8.5830
   2591.2500      29.6053       2.2850       0.2767       5.3855       8.5781
   2591.4000      30.7120       2.2994       0.2792       5.3855       8.5432
   2591.5500      30.5270       2.3037       0.2804       5.5821       8.5668
   2591.7000      29.4086       2.3049       0.2765       6.4695       8.6146
   2591.8500      30.5661       2.2917       0.2810       7.0081       8.6117
   2592.0000      30.6805       2.3025       0.2789       6.6950       8.5078
   2592.1500      29.9639       2.3162       0.2728       6.9501       8.5084
   2592.3000      29.8806       2.3105       0.2659       7.3033       8.4929
   2592.4500      29.7086       2.3203       0.2693       7.3377       8.4799
   2592.6000      29.7086       2.3139       0.2761       7.4714       8.4471
   2592.7500      29.4951       2.3027       0.2744       7.6045       8.4823
   2592.9000      30.1689       2.3212       0.2797       8.0531       8.4300
   2593.0500      31.0966       2.3182       0.2877       7.5513       8.3447
   2593.2000      31.7253       2.3043       0.2832       8.7845       8.2896
   2593.3500      31.0054       2.3038       0.2851       9.9860       8.3566
   2593.5000      31.4826       2.3074       0.2909      10.6815       8.4248
   2593.6500      30.6984       2.3067       0.2973       9.9624       8.3991
   2593.8000      31.2976       2.2977       0.2985       9.7259       8.4676
   2593.9500      30.7455       2.2947       0.2967      10.6326       8.4865
   2594.1000      30.5764       2.2997       0.2985       9.5262       8.5746
   2594.2500      30.0403       2.3074       0.2935      10.6049       8.5670
   2594.4000      30.6593       2.3194       0.2972      11.5423       8.6086
   2594.5500      30.2251       2.3148       0.2998      10.4623       8.6860
   2594.7000      30.1500       2.3048       0.2997       9.9345       8.7716
   2594.8500      28.4064       2.3206       0.2931       9.5918       8.6970
   2595.0000      27.4649       2.3259       0.2979       9.5008       8.7268
   2595.1500      27.5505       2.3260       0.2943       7.9644       8.7385
   2595.3000      27.8098       2.3278       0.2924       8.1613       8.6807
   2595.4500      27.1191       2.3163       0.2883       7.5506       8.6895
   2595.6000      27.7617       2.3028       0.2863       7.1952       8.6419
   2595.7500      28.7328       2.2940       0.2880       6.8760       8.6212
   2595.9000      29.3665       2.2807       0.2922       6.7945       8.6592
   2596.0500      29.9244       2.2824       0.2864       6.5007       8.6763
   2596.2000      30.8099       2.2999       0.2925       6.0037       8.6257
   2596.3500      32.2303       2.2888       0.2947       6.0288       8.6072
   2596.5000      33.2634       2.2907       0.2961       6.1663       8.5933
   2596.6500      33.1993       2.2795       0.2928       6.8976       8.5651
   2596.8000      31.8867       2.2922       0.2858       6.9811       8.6037
   2596.9500      33.5050       2.2816       0.2866       6.7585       8.5746
   2597.1000      33.1978       2.2888       0.2884       7.4799       8.5863
   2597.2500      32.9412       2.2924       0.2977       7.0103       8.5494
   2597.4000      31.2371       2.2736       0.2979       6.7611       8.4684
   2597.5500      31.2721       2.2883       0.3061       7.5645       8.4373
   2597.7000      30.6009       2.3031       0.3085       7.1680       8.4570
   2597.8500      30.7411       2.3121       0.3159       7.2542       8.4689
   2598.0000      30.9145       2.3092       0.3143       7.2769       8.4223
   2598.1500      29.8802       2.3098       0.3207       8.0563       8.5056
   2598.3000      30.2033       2.3080       0.3236       7.7099       8.5149
   2598.4500      30.5980       2.3077       0.3275       8.0025       8.5314
   2598.6000      31.3016       2.3356       0.3306       7.9838       8.4662
   2598.7500      30.4662       2.3377       0.3202       8.3543       8.4668
   2598.9000      28.7243       2.3376       0.3178       8.1686       8.4988
   2599.0500      28.6273       2.3242       0.3182       8.6155       8.5119
   2599.2000      27.9631       2.3024       0.3139       8.4424       8.4962
   2599.3500      26.7092       2.3076       0.3137       8.3424       8.4857
   2599.5000      24.3804       2.3001       0.3109       8.2147       8.5599
   2599.6500      24.8740       2.3077       0.3137       8.4097       8.4765
   2599.8000      24.6442       2.3101       0.3176       8.6841       8.4720
   2599.9500      23.7722       2.3067       0.3095       8.0169       8.4919
   2600.1000      24.3981       2.2930       0.3134       7.7808       8.5296
   2600.2500      24.1991       2.2935       0.3069       7.3382       8.5500
   2600.4000      24.9575       2.3071       0.3054       7.2707       8.5357
   2600.5500      25.1511       2.3057       0.3047       7.5503       8.5176
   2600.7000      26.2681       2.2877       0.3032       7.7675       8.5093
