~VERSION -------------------------------------------
 VERS.                 2.0 : CWLS LOG ASCII STANDARD - VERSION 2.0
 WRAP.                  NO : ONE LINE PER DEPTH STEP
~WELL -----------------------------------------------
 WELL.                TYRA-2 : Well name
 UWI .                DK-TYR-002        : Unique Well ID
 LAT .                55.6832        : Latitude
 LON .                4.4123        : Longitude
 STRT.M               2400.00 : START DEPTH
 STOP.M               3099.90 : STOP DEPTH
 STEP.M               0.1500 : STEP
 NULL.                -9999 : NULL VALUE
~CURVE -----------------------------------------------
 DEPTH .M               : Depth
 GR    .GAPI            : Gamma Ray
 RHOB  .G/C3            : Bulk Density
 NPHI  .V/V             : Neutron Porosity
 RT    .OHMM            : Resistivity
 CALI  .IN              : Caliper
~A  DEPTH              GR        RHOB        NPHI          RT        CALI
# ...
   2631.7500      30.1025       2.2799       0.2907      11.0016       8.4663
   2631.9000      29.8970       2.2776       0.2899       9.7071       8.3915
   2632.0500      30.1123       2.2705       0.2828       9.6311       8.4524
   2632.2000      28.6511       2.2716       0.2889       9.3135       8.5036
   2632.3500      29.2152       2.2816       0.2838       9.1006       8.4903
   2632.5000      29.7750       2.2841       0.2881       9.3939       8.4624
   2632.6500      29.1432       2.2843       0.2838      10.5759       8.5407
   2632.8000      28.7853       2.2925       0.2865      10.0323       8.5836
   2632.9500      28.2105       2.2905       0.2926      11.4480       8.6030
   2633.1000      27.7519       2.2763       0.2944      10.8232       8.6139
   2633.2500      27.9850       2.2621       0.2961      10.6247       8.5649
   2633.4000      28.7307       2.2687       0.2950      11.3985       8.5982
   2633.5500      28.2090       2.2755       0.2951      11.2825       8.5976
   2633.7000      28.2231       2.2630       0.3044      11.0772       8.5392
   2633.8500      27.7974       2.2588       0.3045      10.3059       8.5813
   2634.0000      27.4458       2.2521       0.3016      10.4287       8.5917
   2634.1500      28.3105       2.2581       0.2980      10.1552       8.5482
   2634.3000      28.5413       2.2677       0.2939       9.7440       8.5106
   2634.4500      28.0490       2.2653       0.2982      10.8027       8.4329
   2634.6000      27.8788       2.2568       0.2998      10.9772       8.3721
   2634.7500      27.4297       2.2713       0.2935      11.6387       8.4197
   2634.9000      27.2397       2.2805       0.2941      12.9485       8.4348
   2635.0500      26.3784       2.2825       0.2938      12.8558       8.4327
   2635.2000      25.9748       2.2962       0.2939      14.3077       8.4258
   2635.3500      25.4428       2.2973       0.2905      13.5925       8.4716
   2635.5000      24.4879       2.2987       0.2836      14.9710       8.5192
   2635.6500      25.3490       2.2907       0.2893      13.3591       8.5169
   2635.8000      24.0868       2.2924       0.2873      12.6046       8.5323
   2635.9500      25.2614       2.2804       0.2831      11.2175       8.6140
   2636.1000      26.4263       2.2946       0.2810      10.9024       8.6169
   2636.2500      26.3964       2.2973       0.2782      11.1473       8.5931
   2636.4000      25.6393       2.2676       0.2877      10.1272       8.6403
   2636.5500      26.0142       2.2702       0.2884      10.6909       8.6446
   2636.7000      25.7958       2.2822       0.2776      11.2385       8.6922
   2636.8500      25.7854       2.2755       0.2785      11.8032       8.6445
   2637.0000      26.1804       2.2840       0.2783      11.7354       8.5926
   2637.1500      26.7073       2.2773       0.2694      12.3868       8.5632
   2637.3000      25.5893       2.2806       0.2647      12.3337       8.5611
   2637.4500      25.9981       2.2813       0.2598      10.8863       8.5617
   2637.6000      25.6635       2.2955       0.2633      10.1477       8.6277
   2637.7500      25.9692       2.2894       0.2702       9.5548       8.6913
   2637.9000      25.8481       2.2787       0.2661       9.7567       8.6734
   2638.0500      27.3824       2.2869       0.2740       9.3397       8.7266
   2638.2000      28.5318       2.2937       0.2682       9.3651       8.6390
   2638.3500      28.4026       2.2762       0.2668      10.4640       8.6361
   2638.5000      28.6398       2.2878       0.2772       9.4367       8.6122
   2638.6500      27.9030       2.2949       0.2868      10.6208       8.7135
   2638.8000      30.3412       2.2900       0.2914      10.4927       8.6894
   2638.9500      29.3763       2.2763       0.2935      11.7461       8.6815
   2639.1000      28.7532       2.2781       0.2981      12.1731       8.6223
   2639.2500      29.2037       2.2842       0.2960      11.7955       8.5995
   2639.4000      30.1293       2.3157       0.2924      11.9665       8.5682
   2639.5500      30.2509       2.3178       0.2944      11.4049       8.4903
   2639.7000      29.9502       2.3137       0.3053      11.6965       8.5520
   2639.8500      30.8073       2.3176       0.3066      10.4485       8.5761
   2640.0000      31.5502       2.3097       0.3063       9.9947       8.6050
   2640.1500      31.6115       2.3180       0.3129       8.7965       8.5819
   2640.3000      33.4684       2.3052       0.3208       8.5478       8.6376
   2640.4500      33.0246       2.3040       0.3349       8.9386       8.5877
   2640.6000      33.0051       2.2835       0.3382       9.1314       8.6694
   2640.7500      32.6169       2.2600       0.3335       9.1409       8.6807
   2640.9000      33.2026       2.2759       0.3411       8.2795       8.6694
   2641.0500      31.8172       2.2723       0.3426       9.0829       8.6914
   2641.2000      31.4579       2.2610       0.3531       8.4743       8.7161
   2641.3500      31.0704       2.2710       0.3518       7.8579       8.7045
   2641.5000      31.5853       2.2657       0.3484       8.6036       8.7154
   2641.6500      31.2229       2.2654       0.3318       8.5592       8.6342
   2641.8000      29.0127       2.2622       0.3337       9.7654       8.5640
   2641.9500      29.1365       2.2868       0.3344       8.7602       8.6024
   2642.1000      28.1441       2.2780       0.3323       8.3010       8.5019
   2642.2500      27.5151       2.2836       0.3238       8.5502       8.4938
   2642.4000      26.7421       2.2723       0.3225       9.0377       8.5398
   2642.5500      26.2677       2.2805       0.3209       9.4897       8.5144
   2642.7000      26.4878       2.2767       0.3149       8.8091       8.4281
   2642.8500      26.1462       2.2751       0.3146       9.2322       8.3816
   2643.0000      26.4526       2.2622       0.3110       8.7198       8.3985
   2643.1500      24.9996       2.2575       0.3111       9.4371       8.4925
   2643.3000      23.4664       2.2653       0.3047      10.1801       8.4764
   2643.4500      23.7438       2.2499       0.2991      10.5313       8.4555
   2643.6000      24.1253       2.2507       0.2952      11.6152       8.4400
   2643.7500      25.0977       2.2747       0.2863      12.4454       8.4252
   2643.9000      23.9010       2.2689       0.2838      12.8456       8.3887
   2644.0500      24.1428       2.2652       0.2808      12.1009       8.4753
   2644.2000      24.1749       2.2524       0.2780      12.2241       8.5064
   2644.3500      24.8553       2.2550       0.2872      10.9977       8.5689
   2644.5000      24.5719       2.2557       0.2819      10.4160       8.5803
   2644.6500      25.3046       2.2484       0.2959       8.8908       8.5295
   2644.8000      26.0078       2.2543       0.2877       8.5405       8.5836
   2644.9500      27.4977       2.2455       0.2859       8.9624       8.5808
   2645.1000      28.8551       2.2531       0.2904       9.3684       8.6048
   2645.2500      28.4725       2.2441       0.3045       8.7863       8.5725
   2645.4000      28.3487       2.2512       0.3112       8.4172       8.5637
   2645.5500      28.9245       2.2345       0.3149       9.4833       8.4412
   2645.7000      29.0535       2.2425       0.3146       8.6694       8.4426
   2645.8500      28.5384       2.2622       0.3188       8.6781       8.3990
   2646.0000      28.2471       2.2809       0.3228       9.1979       8.3694
   2646.1500      28.2970       2.2890       0.3205       8.9291       8.3917
   2646.3000      28.9618       2.2890       0.3229       8.5502       8.3807
   2646.4500      27.7527       2.3015       0.3263       8.4190       8.3538
   2646.6000      27.9307       2.2981       0.3289       8.1945       8.3947
   2646.7500      26.6749       2.2916       0.3421       7.6217       8.4514
   2646.9000      27.6992       2.2966       0.3377       7.1762       8.4488
   2647.0500      28.1758       2.2990       0.3349       7.4945       8.4542
