# LAS format log file from PETREL
# Project units are specified as depth units
#==================================================================
~Version information
VERS.   2.0:
WRAP.   NO:
#==================================================================
~Well
STRT .m      48.200100000 :
STOP .m      3124.0001000 :
STEP .m     0.10000000 :
NULL .        -999.250000 :
COMP.           : COMPANY
WELL.  F02-01   : WELL
FLD.            : FIELD
LOC.            : LOCATION
SRVC.           : SERVICE COMPANY
DATE.  2023-08-04 09:51:40   : Log Export Date {yyyy-MM-dd HH:mm:ss}
PROV.           : PROVINCE
UWI.   8727   : UNIQUE WELL ID
API.            : API NUMBER
#==================================================================
~Curve
DEPT .m                   : DEPTH
DT .us/ft                 : DT
DRHO .g/cm3               : DRHO
RHOB .g/cm3               : RHOB
NPHI .m3/m3               : NPHI
GR .gAPI                  : GR
~Parameter
#==================================================================
~Ascii
# ...
 639.80010000 167.35162354 0.0795859993 2.0152900219  -999.250000 93.705673218
 639.90010000 166.35742188 0.0792850032 1.9943079948  -999.250000 94.504669189
 640.00010000 165.09667969 0.0837420002 1.9802080393  -999.250000 95.732513428
 640.10010000 164.04710388 0.0877590030 1.9787559509  -999.250000 97.409729004
 640.20010000 163.52319336 0.0870160013 1.9887690544  -999.250000 99.760070801
 640.30010000 163.43382263 0.0819810033 2.0050899982  -999.250000 102.62379456
 640.40010000 163.74717712 0.0758629963 2.0252149105  -999.250000 104.77130127
 640.50010000 164.55090332 0.0734020025 2.0476880074  -999.250000 106.05683899
 640.60010000 165.88966370 0.0774179995 2.0714969635  -999.250000 107.34570313
 640.70010000 167.74771118 0.0848480016 2.0881919861  -999.250000 108.83529663
 640.80010000 169.70706177 0.0902020037 2.0944120884  -999.250000 109.83277893
 640.90010000 171.32754517 0.0906549990 2.0939950943  -999.250000 109.70930481
 641.00010000 171.82595825 0.0890640020 2.0908248425  -999.250000 108.17509460
 641.10010000 171.21891785 0.0883020014 2.0856339931  -999.250000 106.22491455
 641.20010000 170.18457031 0.0881900042 2.0768430233  -999.250000 105.21482849
 641.30010000 168.95056152 0.0837379992 2.0629079342  -999.250000 105.36389160
 641.40010000 167.72186279 0.0743020028 2.0481832027  -999.250000 105.93246460
 641.50010000 166.94924927 0.0651239976 2.0411391258  -999.250000 106.18949890
 641.60010000 166.94259644 0.0567269996 2.0398440361  -999.250000 105.81173706
 641.70010000 167.41473389 0.0481249988 2.0398430824  -999.250000 105.11515808
 641.80010000 167.77377319 0.0416299999 2.0440371037  -999.250000 104.74751282
 641.90010000 167.31759644 0.0412559994 2.0521860123  -999.250000 103.74525452
 642.00010000 165.82012939 0.0472149998 2.0600860119  -999.250000 101.27160645
 642.10010000 163.44720459 0.0562309995 2.0647060871  -999.250000 98.088836670
 642.20010000 160.65954590 0.0612649992 2.0625209808  -999.250000 94.361694336
 642.30010000 157.97766113 0.0597470030 2.0550310612  -999.250000 89.859054565
 642.40010000 155.71464539 0.0593979992 2.0518410206  -999.250000 85.133422852
 642.50010000 154.34570313 0.0655839965 2.0549728870  -999.250000 81.837646484
 642.60010000 154.19009399 0.0770350024 2.0579359531  -999.250000 81.011077881
 642.70010000 155.22879028 0.0931579992 2.0598189831  -999.250000 81.106353760
 642.80010000 156.82028198 0.1081670001 2.0567569733  -999.250000 81.196624756
 642.90010000 157.90455627 0.1106790006 2.0443449020  -999.250000 82.067779541
 643.00010000 158.31198120 0.0915400013 2.0372710228  -999.250000 84.761215210
 643.10010000 157.99383545 0.0639539957 2.0499269962  -999.250000 88.257812500
 643.20010000 156.91036987 0.0581870005 2.0769889355  -999.250000 89.779953003
 643.30010000 155.64132690 0.0726019964 2.1024889946  -999.250000 88.675674438
 643.40010000 154.56411743 0.0914459974 2.1136841774  -999.250000 85.541000366
 643.50010000 153.38331604 0.1039960012 2.1129188538  -999.250000 81.872802734
 643.60010000 152.57839966 0.1063039973 2.1043291092  -999.250000 79.042968750
 643.70010000 152.71591187 0.1004879996 2.0920991898  -999.250000 77.837142944
 643.80010000 152.96734619 0.0986130014 2.0853860378  -999.250000 77.457763672
 643.90010000 152.73159790 0.1028999984 2.0861659050  -999.250000 77.482131958
 644.00010000 152.09934998 0.1041050032 2.0912108421  -999.250000 78.165435791
 644.10010000 151.59121704 0.0925659984 2.0980048180  -999.250000 79.448272705
 644.20010000 151.27282715 0.0705799982 2.1059851646  -999.250000 81.122543335
 644.30010000 150.80258179 0.0495999977 2.1150238514  -999.250000 82.932525635
 644.40010000 150.21897888 0.0371920019 2.1239881516  -999.250000 84.546615601
 644.50010000 149.94570923 0.0335480012 2.1322739124  -999.250000 85.507980347
 644.60010000 150.53121948 0.0350690000 2.1388039589  -999.250000 85.117645264
 644.70010000 151.94738770 0.0381719992 2.1410810947  -999.250000 83.243164063
 644.80010000 153.71997070 0.0418030024 2.1369349957  -999.250000 80.569091797
 644.90010000 155.18441772 0.0450779982 2.1287839413  -999.250000 78.361129761
 645.00010000 156.08847046 0.0461279973 2.1249828339  -999.250000 76.909271240
 645.10010000 156.42611694 0.0453650020 2.1296451092  -999.250000 76.251281738
 645.20010000 156.07794189 0.0454449989 2.1366369724  -999.250000 76.757431030
 645.30010000 155.11895752 0.0443989970 2.1392900944  -999.250000 77.532394409
 645.40010000 153.94921875 0.0395740010 2.1364939213  -999.250000 77.669540405
 645.50010000 153.14132690 0.0338959992 2.1318020821  -999.250000 77.711120605
 645.60010000 152.82421875 0.0296749994 2.1265540123  -999.250000 78.094284058
 645.70010000 152.75341797 0.0264940001 2.1193549633  -999.250000 78.742355347
 645.80010000 152.81942749 0.0228570011 2.1110739708  -999.250000 79.748367310
 645.90010000 153.06759644 0.0177980009 2.1051759720  -999.250000 81.495849609
 646.00010000 153.51480103 0.0125819994 2.1047680378  -999.250000 83.886749268
 646.10010000 153.90960693 0.0094799995 2.1085062027  -999.250000 85.790328979
 646.20010000 154.01525879 0.0090600001 2.1128339767  -999.250000 86.429504395
 646.30010000 153.82617188 0.0103380000 2.1152489185  -999.250000 86.047637939
 646.40010000 153.38519287 0.0138479993 2.1148450375  -999.250000 84.611526489
 646.50010000 152.79876709 0.0189410001 2.1136419773  -999.250000 82.088958740
 646.60010000 152.23458862 0.0237159990 2.1137528419  -999.250000 79.028366089
 646.70010000 151.95703125 0.0274020005 2.1138839722  -999.250000 76.905151367
 646.80010000 152.08239746 0.0296909995 2.1131579876  -999.250000 76.568527222
 646.90010000 152.47299194 0.0299469996 2.1138980389  -999.250000 77.291946411
 647.00010000 152.93383789 0.0276239999 2.1177170277  -999.250000 78.213699341
 647.10010000 153.33026123 0.0224629994 2.1231040955  -999.250000 79.433258057
 647.20010000 153.57708740 0.0162610002 2.1269900799  -999.250000 81.673385620
 647.30010000 153.55700684 0.0133839995 2.1285979748  -999.250000 84.404953003
 647.40010000 153.40267944 0.0138760004 2.1284542084  -999.250000 86.530929565
 647.50010000 153.43513489 0.0137759997 2.1265759468  -999.250000 87.673355103
 647.60010000 153.73574829 0.0125080002 2.1238050461  -999.250000 88.114532471
 647.70010000 154.11557007 0.0093319984 2.1202609539  -999.250000 87.406127930
 647.80010000 154.40460205 0.0033880000 2.1150548458  -999.250000 85.131439209
 647.90010000 154.65702820 -0.000807000 2.1080729961  -999.250000 82.931030273
 648.00010000 155.10937500 0.0007030000 2.1017251015  -999.250000 81.624603271
 648.10010000 155.88909912 0.0054330002 2.0981040001  -999.250000 80.084854126
 648.20010000 156.84162903 0.0076430002 2.0946509838  -999.250000 77.728485107
 648.30010000 157.41506958 0.0066990000 2.0896639824  -999.250000 75.676300049
 648.40010000 157.24639893 0.0066420003 2.0849518776  -999.250000 75.132171631
 648.50010000 156.74462891 0.0083249994 2.0812489986  -999.250000 75.324768066
 648.60010000 156.21343994 0.0092300000 2.0769629478  -999.250000 74.796112061
 648.70010000 155.60720825 0.0082390001 2.0704529285  -999.250000 72.968734741
 648.80010000 155.17153931 0.0073239999 2.0623140335  -999.250000 70.030487061
 648.90010000 155.07974243 0.0058869999 2.0547738075  -999.250000 66.918838501
 649.00010000 155.20666504 0.0022580000 2.0503211021  -999.250000 64.849761963
 649.10010000 155.56016541 0.0007550000 2.0528349876  -999.250000 65.080062866
 649.20010000 156.09722900 0.0035810000 2.0593810081  -999.250000 66.748321533
 649.30010000 156.61239624 0.0073630000 2.0622351170  -999.250000 67.695281982
 649.40010000 156.89663696 0.0090039996 2.0576899052  -999.250000 67.222030640
 649.50010000 157.05438232 0.0077490001 2.0469040871  -999.250000 65.995819092
 649.60010000 157.32476807 0.0045580002 2.0327529907  -999.250000 64.850311279
 649.70010000 157.60345459 0.0017460000 2.0184710026  -999.250000 64.799499512
 649.80010000 157.74725342 0.0011770000 2.0109229088  -999.250000 65.897735596
 649.90010000 157.83349609 0.0029960000 2.0155129433  -999.250000 67.423477173
