# LAS format log file from PETREL
# Project units are specified as depth units
#==================================================================
~Version information
VERS.   2.0:
WRAP.   NO:
#==================================================================
~Well
STRT .m      48.200100000 :
STOP .m      3124.0001000 :
STEP .m     0.10000000 :
NULL .        -999.250000 :
COMP.           : COMPANY
WELL.  F02-01   : WELL
FLD.            : FIELD
LOC.            : LOCATION
SRVC.           : SERVICE COMPANY
DATE.  2023-08-04 09:51:40   : Log Export Date {yyyy-MM-dd HH:mm:ss}
PROV.           : PROVINCE
UWI.   8727   : UNIQUE WELL ID
API.            : API NUMBER
#==================================================================
~Curve
DEPT .m                   : DEPTH
DT .us/ft                 : DT
DRHO .g/cm3               : DRHO
RHOB .g/cm3               : RHOB
NPHI .m3/m3               : NPHI
GR .gAPI                  : GR
~Parameter
#==================================================================
~Ascii
# ...
 1976.0001000 113.62428284 0.0522239991 2.1041121483 0.4086529911 58.103668213
 1976.1001000 113.63856506 0.0681210011 2.1084971428 0.4410069883 57.240783691
 1976.2001000 114.99239349 0.0716620013 2.1005079746 0.4628599882 56.808090210
 1976.3001000 116.52914429 0.0644089952 2.0923140049 0.4620839953 57.218917847
 1976.4001000 116.20814514 0.0596040003 2.0993049145 0.4503639936 58.335334778
 1976.5001000 114.33894348 0.0583170019 2.1171000004 0.4400320053 60.084327698
 1976.6001000 112.65235901 0.0588059984 2.1380939484 0.4335699975 62.517005920
 1976.7001000 112.11398315 0.0637900010 2.1639399529 0.4281499982 65.440734863
 1976.8001000 112.88577271 0.0646660030 2.1920189857 0.4210880101 68.615142822
 1976.9001000 113.92817688 0.0599550009 2.2190160751 0.4116910100 71.801132202
 1977.0001000 114.02609253 0.0609709993 2.2447829247 0.4018189907 74.639755249
 1977.1001000 114.32073975 0.0637659952 2.2604179382 0.3989309967 76.118911743
 1977.2001000 115.37792969 0.0572169982 2.2580280304 0.4018430114 75.641128540
 1977.3001000 115.83599854 0.0417299978 2.2430059910 0.4001689851 73.863876343
 1977.4001000 115.44407654 0.0383429974 2.2370569706 0.3957419991 72.159225464
 1977.5001000 115.06933594 0.0491199978 2.2428569794 0.3963980079 71.393157959
 1977.6001000 115.27610779 0.0528359972 2.2418000698 0.4039880037 71.465209961
 1977.7001000 116.05809021 0.0507599972 2.2375481129 0.4100849926 71.072052002
 1977.8001000 116.75399780 0.0531139970 2.2381830215 0.4113959968 69.939651489
 1977.9001000 116.61975098 0.0591440015 2.2383739948 0.4136709869 69.114791870
 1978.0001000 115.96585083 0.0658420026 2.2300209999 0.4273540080 68.986282349
 1978.1001000 115.30673218 0.0677429959 2.2169170380 0.4477469921 69.480255127
 1978.2001000 114.59959412 0.0570710003 2.2096250057 0.4589619935 70.796600342
 1978.3001000 114.15262604 0.0470479988 2.2132670879 0.4537940025 71.951492310
 1978.4001000 114.21614838 0.0472019985 2.2203109264 0.4388889968 71.960937500
 1978.5001000 114.68238831 0.0499040000 2.2177360058 0.4232879877 70.655105591
 1978.6001000 115.02690125 0.0557969995 2.2038049698 0.4140129983 68.951370239
 1978.7001000 115.13580322 0.0650640056 2.1840419769 0.4103139937 67.762435913
 1978.8001000 115.54147339 0.0668700039 2.1618049145 0.4054549932 67.569351196
 1978.9001000 116.39254761 0.0672440007 2.1469099522 0.3980369866 67.675247192
 1979.0001000 116.91302490 0.0719670057 2.1448190212 0.3912340105 67.334930420
 1979.1001000 115.22171021 0.0673809946 2.1542670727 0.3889580071 66.429931641
 1979.2001000 112.78527832 0.0629319996 2.1723258495 0.3925450146 65.126800537
 1979.3001000 111.68142700 0.0698990002 2.1952490807 0.3985790014 63.745002747
 1979.4001000 111.54418945 0.0700239986 2.2180519104 0.3981240094 62.973106384
 1979.5001000 111.10646057 0.0700899959 2.2474069595 0.3962419927 62.476135254
 1979.6001000 110.00886536 0.0870189965 2.2865049839 0.4033930004 61.636756897
 1979.7001000 109.35905457 0.1038300022 2.3111941814 0.4230389893 61.017730713
 1979.8001000 110.33480835 0.1059499979 2.3108329773 0.4517579973 60.473335266
 1979.9001000 112.86857605 0.0962470025 2.2967190742 0.4826920033 59.318588257
 1980.0001000 114.00819397 0.0780190006 2.2884619236 0.4968529940 57.921043396
 1980.1001000 111.40066528 0.0599539988 2.2994098663 0.4923219979 56.667953491
 1980.2001000 105.13246155 0.0516269989 2.3305170536 0.4837949872 55.444923401
 1980.3001000 96.219421387 0.0529440008 2.3734750748 0.4756039977 54.252418518
 1980.4001000 86.406555176 0.0497599989 2.4184899330 0.4517830014 52.432464600
 1980.5001000 77.433418274 0.0276410002 2.4599838257 0.3944729865 49.139694214
 1980.6001000 71.914382935 0.0095549999 2.4955611229 0.3177500069 46.679191589
 1980.7001000 71.919952393 0.0165780000 2.5155978203 0.2582519948 47.309768677
 1980.8001000 76.768363953 0.0353260003 2.5072300434 0.2440750003 50.132461548
 1980.9001000 85.634567261 0.0548620000 2.4636089802 0.2718560100 54.534545898
 1981.0001000 97.121612549 0.0684079975 2.3934130669 0.3175430000 59.485984802
 1981.1001000 109.20260620 0.0705210045 2.3202300072 0.3595139980 62.988174438
 1981.2001000 117.39477539 0.0575920008 2.2604889870 0.3830749989 64.836166382
 1981.3001000 118.79946899 0.0380299985 2.2202219963 0.3861140013 66.029067993
 1981.4001000 116.11131287 0.0333870016 2.2011480331 0.3811509907 66.476959229
 1981.5001000 113.28401947 0.0451650023 2.1928730011 0.3794809878 65.904327393
 1981.6001000 113.32504272 0.0582149997 2.1789419651 0.3872120082 64.499679565
 1981.7001000 114.49436951 0.0716470033 2.1683030128 0.4005129933 62.471427917
 1981.8001000 115.16403198 0.0820510015 2.1642959118 0.4228050113 60.659919739
 1981.9001000 115.20863342 0.0799729973 2.1562538147 0.4555169940 60.291091919
 1982.0001000 115.13902283 0.0676399991 2.1416559219 0.4792239964 60.924468994
 1982.1001000 114.90992737 0.0546669997 2.1320061684 0.4809339941 62.068046570
 1982.2001000 114.10415649 0.0527070016 2.1437118053 0.4686920047 63.609474182
 1982.3001000 113.39440918 0.0627769977 2.1716499329 0.4499070048 65.025390625
 1982.4001000 113.44465637 0.0761770010 2.1999959946 0.4302229881 65.903823853
 1982.5001000 113.75350952 0.0807769969 2.2167470455 0.4174009860 66.492279053
 1982.6001000 113.78263855 0.0753860027 2.2183210850 0.4143140018 66.856445313
 1982.7001000 113.66183472 0.0684840009 2.2113821507 0.4189389944 66.828720093
 1982.8001000 114.00335693 0.0706249997 2.2113921642 0.4251610041 66.395950317
 1982.9001000 114.47743225 0.0842100009 2.2204329967 0.4300200045 65.533660889
 1983.0001000 114.44215393 0.0997549966 2.2250061035 0.4338259995 64.343139648
 1983.1001000 114.32527161 0.1024789959 2.2135658264 0.4346889853 63.395019531
 1983.2001000 114.33229065 0.0914280042 2.1927990913 0.4269129932 63.405807495
 1983.3001000 114.08827209 0.0761060044 2.1805849075 0.4105519950 64.700103760
 1983.4001000 113.37275696 0.0605480000 2.1830959320 0.4012010098 66.625350952
 1983.5001000 112.05461121 0.0515589975 2.1991732121 0.4068830013 68.295471191
 1983.6001000 110.16432190 0.0562699996 2.2275559902 0.4167619944 69.307586670
 1983.7001000 108.35836792 0.0684670061 2.2629308701 0.4173740149 69.432037354
 1983.8001000 107.62737274 0.0748290047 2.2895729542 0.4032050073 68.529342651
 1983.9001000 108.19378662 0.0720990002 2.2950358391 0.3823690116 66.490615845
 1984.0001000 108.94436646 0.0721860006 2.2917771339 0.3703759909 63.631965637
 1984.1001000 109.07673645 0.0832690001 2.2960338593 0.3749879897 60.644515991
 1984.2001000 108.77082825 0.0977450013 2.3086631298 0.3904829919 57.852844238
 1984.3001000 106.98261261 0.1088710055 2.3312389851 0.4094479978 54.976188660
 1984.4001000 101.84884644 0.1085579991 2.3585028648 0.4198510051 51.369636536
 1984.5001000 92.210922241 0.0872770026 2.3807389736 0.4036670029 47.123245239
 1984.6001000 79.800048828 0.0521820001 2.4021010399 0.3549480140 43.223670959
 1984.7001000 69.660247803 0.0223899987 2.4353759289 0.2889420092 40.887741089
 1984.8001000 66.707519531 0.0090459995 2.4761230946 0.2325370014 40.910278320
 1984.9001000 70.263778687 0.0104420008 2.4994390011 0.2092150003 43.290626526
 1985.0001000 76.085372925 0.0250109993 2.4860191345 0.2196100056 47.107749939
 1985.1001000 82.392211914 0.0533489995 2.4400758743 0.2500300109 51.215156555
 1985.2001000 89.276779175 0.0700879991 2.3679671288 0.2882019877 55.593132019
 1985.3001000 97.994903564 0.0612620004 2.2814939022 0.3306280077 59.858863831
 1985.4001000 107.64942932 0.0531180017 2.2102880478 0.3687250018 62.146781921
 1985.5001000 114.39073181 0.0575079992 2.1641268730 0.3953169882 62.876548767
 1985.6001000 115.89637756 0.0623800009 2.1331660748 0.4096370041 63.868415833
 1985.7001000 114.96972656 0.0626929998 2.1144518852 0.4164049923 65.357238770
 1985.8001000 114.46177673 0.0575390011 2.1097459793 0.4194639921 66.839065552
 1985.9001000 114.44946289 0.0544539988 2.1234900951 0.4186390042 67.936645508
 1986.0001000 114.72046661 0.0638640001 2.1527719498 0.4151819944 68.559173584
 1986.1001000 115.61395264 0.0773859993 2.1857728958 0.4112159908 68.527603149
