# LAS format log file from PETREL
# Project units are specified as depth units
#==================================================================
~Version information
VERS.   2.0:
WRAP.   NO:
#==================================================================
~Well
STRT .m      48.200100000 :
STOP .m      3124.0001000 :
STEP .m     0.10000000 :
NULL .        -999.250000 :
COMP.           : COMPANY
WELL.  F02-01   : WELL
FLD.            : FIELD
LOC.            : LOCATION
SRVC.           : SERVICE COMPANY
DATE.  2023-08-04 09:51:40   : Log Export Date {yyyy-MM-dd HH:mm:ss}
PROV.           : PROVINCE
UWI.   8727   : UNIQUE WELL ID
API.            : API NUMBER
#==================================================================
~Curve
DEPT .m                   : DEPTH
DT .us/ft                 : DT
DRHO .g/cm3               : DRHO
RHOB .g/cm3               : RHOB
NPHI .m3/m3               : NPHI
GR .gAPI                  : GR
~Parameter
#==================================================================
~Ascii
# ...
 456.20010000 160.53770447 0.0417849980 1.7478840351  -999.250000 47.218353271
 456.30010000 162.87716675 0.0504110008 1.6968060732  -999.250000 45.044532776
 456.40010000 164.60098267 0.0528270006 1.6186130047  -999.250000 42.846755981
 456.50010000 165.81848145 0.0491870008 1.5385589600  -999.250000 41.481712341
 456.60010000 166.36004639 0.0471739992 1.4943079948  -999.250000 41.318565369
 456.70010000 165.90396118 0.0522859991 1.5012229681  -999.250000 41.829421997
 456.80010000 164.99703979 0.0644619986 1.5443439484  -999.250000 42.656349182
 456.90010000 164.55136108 0.0775049999 1.6007061005  -999.250000 43.389823914
 457.00010000 164.86373901 0.0850929990 1.6594649553  -999.250000 43.535751343
 457.10010000 165.59100342 0.0845229998 1.6927790642  -999.250000 43.161064148
 457.20010000 166.06680298 0.0774479955 1.6853010654  -999.250000 42.445175171
 457.30010000 165.88996887 0.0674240068 1.6497519016  -999.250000 41.174598694
 457.40010000 164.99511719 0.0610019974 1.6089138985  -999.250000 39.431480408
 457.50010000 164.01858521 0.0610879995 1.5817120075  -999.250000 37.795555115
 457.60010000 163.82812500 0.0645949990 1.5746500492  -999.250000 37.024085999
 457.70010000 164.50534058 0.0674670041 1.5733659267  -999.250000 37.197830200
 457.80010000 165.85104370 0.0698940009 1.5691460371  -999.250000 38.049041748
 457.90010000 167.99121094 0.0752509981 1.5741499662  -999.250000 39.407806396
 458.00010000 170.76338196 0.0852460042 1.5980579853  -999.250000 41.078407288
 458.10010000 173.06286621 0.0980409980 1.6413719654  -999.250000 42.982025146
 458.20010000 173.44915771 0.1093150005 1.7000899315  -999.250000 45.155158997
 458.30010000 171.82632446 0.1138870046 1.7692989111  -999.250000 47.653205872
 458.40010000 169.19573975 0.1099210009 1.8420059681  -999.250000 50.135215759
 458.50010000 166.61828613 0.1006549969 1.9105789661  -999.250000 52.279876709
 458.60010000 164.67691040 0.0891080052 1.9681469202  -999.250000 54.524314880
 458.70010000 163.61067200 0.0771869943 2.0102810860  -999.250000 57.331214905
 458.80010000 163.35220337 0.0670379996 2.0395359993  -999.250000 60.605781555
 458.90010000 163.50094604 0.0608550012 2.0577661991  -999.250000 64.169479370
 459.00010000 163.45074463 0.0596650019 2.0658509731  -999.250000 67.592315674
 459.10010000 162.81399536 0.0618619993 2.0678730011  -999.250000 70.305465698
 459.20010000 161.91999817 0.0644429997 2.0654351711  -999.250000 71.766571045
 459.30010000 161.33709717 0.0649619997 2.0575349331  -999.250000 71.818695068
 459.40010000 161.27575684 0.0626910031 2.0448448658  -999.250000 70.934127808
 459.50010000 161.51016235 0.0585489981 2.0317988396  -999.250000 70.099014282
 459.60010000 161.62600708 0.0573079996 2.0207901001  -999.250000 69.612289429
 459.70010000 161.35330200 0.0649649948 2.0106289387  -999.250000 68.879272461
 459.80010000 160.70153809 0.0840360001 2.0039389133  -999.250000 67.432861328
 459.90010000 159.76652527 0.1044919938 1.9882090092  -999.250000 65.797790527
 460.00010000 158.59341431 0.1112710014 1.9418330193  -999.250000 64.960769653
 460.10010000 157.33218384 0.1092679948 1.8898210526  -999.250000 65.031036377
 460.20010000 156.22763062 0.1100510061 1.8610389233  -999.250000 65.510360718
 460.30010000 155.43701172 0.1161250025 1.8514289856  -999.250000 66.050521851
 460.40010000 154.97900391 0.1235840023 1.8460099697  -999.250000 66.052291870
 460.50010000 154.87463379 0.1289740056 1.8373990059  -999.250000 65.015441895
 460.60010000 155.21922302 0.1313389987 1.8258929253  -999.250000 62.809326172
 460.70010000 155.87884521 0.1309279948 1.8138248920  -999.250000 60.678298950
 460.80010000 156.54058838 0.1276849955 1.8026620150  -999.250000 59.457969666
 460.90010000 156.94165039 0.1203209981 1.7926260233  -999.250000 58.742950439
 461.00010000 157.20001221 0.1137479991 1.7870730162  -999.250000 58.614532471
 461.10010000 157.48605347 0.1121120006 1.7898830175  -999.250000 59.112045288
 461.20010000 157.74478149 0.1143720001 1.8055119514  -999.250000 59.704460144
 461.30010000 157.95176697 0.1176690012 1.8304200172  -999.250000 59.964622498
 461.40010000 158.16360474 0.1189740002 1.8529980183  -999.250000 59.749252319
 461.50010000 158.44161987 0.1139789969 1.8578408957  -999.250000 58.779563904
 461.60010000 158.80235291 0.1072559953 1.8475639820  -999.250000 57.204299927
 461.70010000 159.21450806 0.1052259952 1.8345350027  -999.250000 55.641967773
 461.80010000 159.65779114 0.1078889966 1.8226569891  -999.250000 54.948966980
 461.90010000 160.18426514 0.1130020022 1.8132330179  -999.250000 55.557968140
 462.00010000 160.82492065 0.1187419966 1.8071359396  -999.250000 57.163185120
 462.10010000 161.45239258 0.1219219938 1.8039870262  -999.250000 58.982864380
 462.20010000 161.92440796 0.1199060008 1.7977550030  -999.250000 60.055130005
 462.30010000 162.22402954 0.1132059991 1.7831749916  -999.250000 60.003204346
 462.40010000 162.32232666 0.1058320031 1.7603709698  -999.250000 58.869621277
 462.50010000 162.29724121 0.0998340026 1.7348320484  -999.250000 56.837348938
 462.60010000 162.29171753 0.0940150023 1.7112200260  -999.250000 54.184455872
 462.70010000 162.43994141 0.0896790028 1.6896579266  -999.250000 52.454978943
 462.80010000 162.81182861 0.0874130055 1.6704460382  -999.250000 52.382400513
 462.90010000 163.37762451 0.0855989978 1.6556590796  -999.250000 53.111427307
 463.00010000 164.34207153 0.0829029977 1.6441990137  -999.250000 54.199584961
 463.10010000 165.50082397 0.0790339932 1.6321280003  -999.250000 55.174057007
 463.20010000 166.16560364 0.0745410025 1.6168320179  -999.250000 55.312377930
 463.30010000 166.20849609 0.0692759976 1.5991910696  -999.250000 54.670776367
 463.40010000 165.97918701 0.0645570010 1.5822130442  -999.250000 53.937072754
 463.50010000 165.75601196 0.0636949986 1.5683768988  -999.250000 53.638488770
 463.60010000 165.62777710 0.0672600046 1.5616819859  -999.250000 53.816406250
 463.70010000 165.58276367 0.0737259984 1.5644611120  -999.250000 54.190292358
 463.80010000 165.55215454 0.0832519978 1.5726169348  -999.250000 54.544067383
 463.90010000 165.47164917 0.0954959989 1.5874749422  -999.250000 54.621284485
 464.00010000 165.30403137 0.1091460064 1.6146759987  -999.250000 54.392883301
 464.10010000 165.08424377 0.1238839999 1.6562190056  -999.250000 54.507980347
 464.20010000 164.85418701 0.1374960095 1.7070050240  -999.250000 55.123031616
 464.30010000 164.64096069 0.1460749954 1.7551460266  -999.250000 55.712608337
 464.40010000 164.44598389 0.1486379951 1.7934739590  -999.250000 55.938491821
 464.50010000 164.29179382 0.1451829970 1.8168809414  -999.250000 55.814689636
 464.60010000 164.21318054 0.1379539967 1.8237419128  -999.250000 55.670959473
 464.70010000 164.17944336 0.1325679868 1.8216960430  -999.250000 55.836791992
 464.80010000 164.14533997 0.1315030009 1.8162559271  -999.250000 56.016029358
 464.90010000 164.08502197 0.1304609925 1.8066319227  -999.250000 55.462905884
 465.00010000 163.97564697 0.1254590005 1.7895619869  -999.250000 54.748321533
 465.10010000 163.78713989 0.1175059974 1.7658480406  -999.250000 54.725402832
 465.20010000 163.49365234 0.1131249964 1.7452239990  -999.250000 55.326812744
 465.30010000 163.02655029 0.1138890013 1.7299919128  -999.250000 56.609375000
 465.40010000 162.32662964 0.1171140000 1.7176020145  -999.250000 58.577102661
 465.50010000 161.49078369 0.1201220006 1.7096099854  -999.250000 60.211997986
 465.60010000 160.56988525 0.1196790040 1.7056120634  -999.250000 60.869400024
 465.70010000 159.59649658 0.1147310063 1.7031080723  -999.250000 60.499618530
 465.80010000 158.65017700 0.1102959961 1.7005300522  -999.250000 59.218872070
 465.90010000 157.80789185 0.1081640050 1.6968420744  -999.250000 57.046058655
 466.00010000 157.20440674 0.1048189998 1.6902329922  -999.250000 54.463058472
 466.10010000 157.02352905 0.0984229967 1.6778719425  -999.250000 52.787673950
 466.20010000 157.48358154 0.0879550055 1.6556730270  -999.250000 52.103332520
 466.30010000 158.65530396 0.0717519969 1.6199820042  -999.250000 50.955368042
