# LAS format log file from PETREL
# Project units are specified as depth units
#==================================================================
~Version information
VERS.   2.0:
WRAP.   NO:
#==================================================================
~Well
STRT .m      48.200100000 :
STOP .m      3124.0001000 :
STEP .m     0.10000000 :
NULL .        -999.250000 :
COMP.           : COMPANY
WELL.  F02-01   : WELL
FLD.            : FIELD
LOC.            : LOCATION
SRVC.           : SERVICE COMPANY
DATE.  2023-08-04 09:51:40   : Log Export Date {yyyy-MM-dd HH:mm:ss}
PROV.           : PROVINCE
UWI.   8727   : UNIQUE WELL ID
API.            : API NUMBER
#==================================================================
~Curve
DEPT .m                   : DEPTH
DT .us/ft                 : DT
DRHO .g/cm3               : DRHO
RHOB .g/cm3               : RHOB
NPHI .m3/m3               : NPHI
GR .gAPI                  : GR
~Parameter
#==================================================================
~Ascii
# ...
 2741.0001000 96.368377686 0.0131983357 2.4607388973 0.2731016874 90.368705750
 2741.1001000 97.154586792 0.0115014082 2.4631230831 0.2771119773 90.845878601
 2741.2001000 97.765602112 0.0103552900 2.4624094963 0.2813056111 91.419616699
 2741.3001000 98.236549377 0.0124238506 2.4653809071 0.2886882126 91.896720886
 2741.4001000 98.752571106 0.0139279934 2.4675085545 0.2965382934 91.880569458
 2741.5001000 99.398536682 0.0118701309 2.4636886120 0.3009192348 91.314796448
 2741.6001000 100.04676819 0.0112801744 2.4621760845 0.3039160073 90.955429077
 2741.7001000 100.70114136 0.0158538315 2.4675252438 0.3088281751 91.323860168
 2741.8001000 101.41814423 0.0237042867 2.4750680923 0.3163180053 92.415992737
 2741.9001000 101.95296478 0.0298397355 2.4777517319 0.3238658905 93.914970398
 2742.0001000 102.11605072 0.0317751430 2.4737250805 0.3299587965 95.085105896
 2742.1001000 101.91078949 0.0298947766 2.4659755230 0.3342763484 95.742980957
 2742.2001000 101.37316132 0.0238511041 2.4563102722 0.3344286978 96.815147400
 2742.3001000 100.56766510 0.0163839404 2.4463150501 0.3311725259 98.573204041
 2742.4001000 99.557563782 0.0118001560 2.4380583763 0.3287438452 100.07386017
 2742.5001000 98.514579773 0.0102989888 2.4332745075 0.3297619522 100.55056763
 2742.6001000 97.489479065 0.0094916122 2.4301693439 0.3343228400 99.851211548
 2742.7001000 96.407821655 0.0088921972 2.4265265465 0.3403080106 98.227798462
 2742.8001000 95.317184448 0.0095576635 2.4249701500 0.3423858583 96.484199524
 2742.9001000 94.562286377 0.0111168781 2.4289748669 0.3376644850 95.332214355
 2743.0001000 94.580833435 0.0114653073 2.4377424717 0.3291959465 94.907264709
 2743.1001000 95.268562317 0.0111137060 2.4467799664 0.3228267133 94.822174072
 2743.2001000 96.358612061 0.0108305663 2.4512939453 0.3200176060 94.438728333
 2743.3001000 97.902748108 0.0096862921 2.4504268169 0.3168154061 93.610450745
 2743.4001000 99.640487671 0.0085562598 2.4473512173 0.3122721016 93.001701355
 2743.5001000 100.99179077 0.0077695721 2.4455666542 0.3084486425 93.288955688
 2743.6001000 101.40117645 0.0057270899 2.4450569153 0.3070827127 94.476715088
 2743.7001000 101.07707977 0.0031012539 2.4448163509 0.3096289039 96.540153503
 2743.8001000 100.44754791 0.0024373201 2.4451956749 0.3163245916 99.107536316
 2743.9001000 99.644248962 0.0047643343 2.4475481510 0.3254666924 101.02950287
 2744.0001000 99.051261902 0.0084755719 2.4504022598 0.3348372579 101.72557068
 2744.1001000 98.933082581 0.0119909709 2.4507892132 0.3419398069 101.60894012
 2744.2001000 99.138900757 0.0149570704 2.4486184120 0.3436725438 101.24935913
 2744.3001000 99.571388245 0.0155128986 2.4475891590 0.3407828212 100.81797028
 2744.4001000 100.32308197 0.0132954465 2.4505398273 0.3373348713 100.65612793
 2744.5001000 101.41195679 0.0118229417 2.4548373222 0.3366713226 101.64304352
 2744.6001000 102.73103333 0.0116563281 2.4560875893 0.3388396502 103.45148468
 2744.7001000 103.91600800 0.0104035102 2.4535951614 0.3423410058 104.76995087
 2744.8001000 104.57370758 0.0080816476 2.4519073963 0.3478749096 104.96379089
 2744.9001000 104.54148102 0.0076009547 2.4555466175 0.3572013378 104.06455994
 2745.0001000 103.62303925 0.0123734344 2.4636738300 0.3673586845 102.80995941
 2745.1001000 101.71201324 0.0215326641 2.4692180157 0.3709378839 102.28781128
 2745.2001000 99.579032898 0.0275859050 2.4625682831 0.3668861389 102.74912262
 2745.3001000 98.258087158 0.0274043866 2.4460959435 0.3628371060 103.61518097
 2745.4001000 98.077812195 0.0270926226 2.4361686707 0.3669058383 104.18974304
 2745.5001000 98.778350830 0.0261369161 2.4371430874 0.3776983917 103.89350891
 2745.6001000 100.36569977 0.0198475998 2.4381370544 0.3860852122 102.75021362
 2745.7001000 103.05162811 0.0106903259 2.4311590195 0.3848265707 101.48484802
 2745.8001000 105.45133209 0.0055782078 2.4212846756 0.3731883168 100.85366058
 2745.9001000 106.18354034 0.0119542014 2.4198939800 0.3586341143 100.98881531
 2746.0001000 105.81601715 0.0318780988 2.4307053089 0.3514832854 101.58800507
 2746.1001000 105.06774902 0.0502472743 2.4407529831 0.3545158803 103.47269440
 2746.2001000 104.27103424 0.0546173155 2.4405233860 0.3612704575 106.44840240
 2746.3001000 103.70692444 0.0529413745 2.4387595654 0.3636073470 108.34645844
 2746.4001000 103.47432709 0.0540308096 2.4432690144 0.3623006344 108.75887299
 2746.5001000 103.53786469 0.0552735180 2.4499716759 0.3619437218 108.67111969
 2746.6001000 103.85407257 0.0487500802 2.4501636028 0.3630647659 108.27152252
 2746.7001000 104.26460266 0.0386262611 2.4485242367 0.3648404479 106.83801270
 2746.8001000 104.43863678 0.0312188044 2.4492394924 0.3682252467 104.48451996
 2746.9001000 103.97496796 0.0229225960 2.4433209896 0.3757728934 102.47982025
 2747.0001000 102.69945526 0.0151934568 2.4355854988 0.3865224719 101.14693451
 2747.1001000 101.03498077 0.0126800062 2.4353215694 0.3957764804 99.955032349
 2747.2001000 99.789527893 0.0155682024 2.4391365051 0.3981622756 98.670570374
 2747.3001000 99.273704529 0.0224292614 2.4436540604 0.3910592496 97.776184082
 2747.4001000 99.359657288 0.0303391758 2.4498445988 0.3782196939 97.551628113
 2747.5001000 100.16170502 0.0340216532 2.4597742558 0.3675663173 97.636611938
 2747.6001000 101.59303284 0.0314870924 2.4669945240 0.3606897295 96.726203918
 2747.7001000 103.25298309 0.0249820258 2.4663650990 0.3546640277 94.601577759
 2747.8001000 104.88837433 0.0168083534 2.4625678062 0.3472388387 93.432647705
 2747.9001000 106.14099121 0.0129916165 2.4641470909 0.3444325924 94.681587219
 2748.0001000 106.85784912 0.0171995535 2.4730432034 0.3515916467 97.679405212
 2748.1001000 107.15938568 0.0279953815 2.4807047844 0.3700360656 100.40405273
 2748.2001000 107.24499512 0.0401736386 2.4785213470 0.3906946778 101.97865295
 2748.3001000 107.25109863 0.0503267013 2.4665031433 0.4043167830 102.86383057
 2748.4001000 107.22408295 0.0578130372 2.4558205605 0.4024348259 103.28162384
 2748.5001000 107.21679688 0.0614517406 2.4512062073 0.3892723620 103.21002960
 2748.6001000 107.27230072 0.0602643974 2.4489336014 0.3747789860 102.76734924
 2748.7001000 107.39179230 0.0515664257 2.4473299980 0.3685234785 102.95779419
 2748.8001000 107.60730743 0.0408155099 2.4491462708 0.3693403304 103.34741211
 2748.9001000 107.95529938 0.0369407199 2.4572367668 0.3703879118 102.55448914
 2749.0001000 108.43210602 0.0375238173 2.4644498825 0.3718301058 100.94596863
 2749.1001000 108.93982697 0.0373613276 2.4653222561 0.3748030365 100.06629944
 2749.2001000 109.35564423 0.0357212834 2.4609994888 0.3777111769 101.04961395
 2749.3001000 109.59956360 0.0326900668 2.4527482986 0.3763527274 102.35522461
 2749.4001000 109.68240356 0.0287678484 2.4424138069 0.3730456233 102.48854065
 2749.5001000 109.65575409 0.0249067228 2.4323303699 0.3759042621 101.66825867
 2749.6001000 109.55333710 0.0249668639 2.4265882969 0.3869339228 100.47321320
 2749.7001000 109.40107727 0.0303482153 2.4280400276 0.3998581171 99.603973389
 2749.8001000 109.21043396 0.0372082740 2.4359161854 0.4061803818 99.716415405
 2749.9001000 109.02018738 0.0353667177 2.4378321171 0.4047818184 101.20514679
 2750.0001000 108.88372803 0.0221315157 2.4266812801 0.3998798132 103.42008209
 2750.1001000 108.82732391 0.0123744998 2.4169356823 0.3946324885 104.57860565
 2750.2001000 108.83972931 0.0134508042 2.4159030914 0.3922607303 104.11540222
 2750.3001000 108.87017059 0.0218501743 2.4196832180 0.3940074742 102.83840179
 2750.4001000 108.86582947 0.0345266275 2.4253797531 0.3957794607 101.44297791
 2750.5001000 108.75516510 0.0453274027 2.4315028191 0.3940444887 100.72535706
 2750.6001000 108.46861267 0.0481483899 2.4363224506 0.3892555833 101.21093750
 2750.7001000 107.96802521 0.0454055108 2.4373598099 0.3854296505 102.46215820
 2750.8001000 107.25949860 0.0397193842 2.4360716343 0.3858381510 103.41476440
 2750.9001000 106.57021332 0.0322040394 2.4361839294 0.3899457753 103.23792267
 2751.0001000 106.26498413 0.0233816504 2.4310972691 0.3941296339 103.17614746
 2751.1001000 106.52706146 0.0141554540 2.4180214405 0.3927088678 103.65805817
