# LAS format log file from PETREL
# Project units are specified as depth units
#==================================================================
~Version information
VERS.   2.0:
WRAP.   NO:
#==================================================================
~Well
STRT .m      48.200100000 :
STOP .m      3124.0001000 :
STEP .m     0.10000000 :
NULL .        -999.250000 :
COMP.           : COMPANY
WELL.  F02-01   : WELL
FLD.            : FIELD
LOC.            : LOCATION
SRVC.           : SERVICE COMPANY
DATE.  2023-08-04 09:51:40   : Log Export Date {yyyy-MM-dd HH:mm:ss}
PROV.           : PROVINCE
UWI.   8727   : UNIQUE WELL ID
API.            : API NUMBER
#==================================================================
~Curve
DEPT .m                   : DEPTH
DT .us/ft                 : DT
DRHO .g/cm3               : DRHO
RHOB .g/cm3               : RHOB
NPHI .m3/m3               : NPHI
GR .gAPI                  : GR
~Parameter
#==================================================================
~Ascii
# ...
 2547.2001000 118.27272034 0.0465190224 2.3673517704 0.4268898368 98.989547729
 2547.3001000 118.85713959 0.0486717075 2.3672442436 0.4268370867 99.092643738
 2547.4001000 119.61955261 0.0478157252 2.3567290306 0.4235575795 98.516441345
 2547.5001000 120.55947876 0.0471134037 2.3459932804 0.4131638110 98.351249695
 2547.6001000 121.70451355 0.0484652855 2.3384969234 0.3963865936 99.094352722
 2547.7001000 123.21016693 0.0520188846 2.3333902359 0.3840027452 99.757034302
 2547.8001000 124.52230072 0.0539311841 2.3280336857 0.3861576319 99.003036499
 2547.9001000 125.06542969 0.0512473881 2.3216416836 0.4017497599 96.743141174
 2548.0001000 124.93268585 0.0454715639 2.3184790611 0.4126901329 95.069595337
 2548.1001000 124.47323608 0.0388103276 2.3180058002 0.4121171832 94.889076233
 2548.2001000 123.83879089 0.0329407342 2.3176457882 0.4063166082 95.515617371
 2548.3001000 122.54627228 0.0335537493 2.3238306046 0.4064277709 95.550743103
 2548.4001000 120.37207031 0.0413453877 2.3371152878 0.4155756831 94.683471680
 2548.5001000 117.58264160 0.0517581627 2.3516697884 0.4291169047 93.529396057
 2548.6001000 114.05851746 0.0625374392 2.3707308769 0.4403605163 92.350532532
 2548.7001000 110.03875732 0.0687026903 2.3899395466 0.4445017576 90.947204590
 2548.8001000 106.13378906 0.0651371628 2.3989572525 0.4410189986 89.102874756
 2548.9001000 103.35583496 0.0510302559 2.4047672749 0.4357036352 86.657218933
 2549.0001000 102.26248169 0.0321148485 2.4174017906 0.4308646917 83.827911377
 2549.1001000 102.60841370 0.0150062107 2.4385008812 0.4231863916 80.962806702
 2549.2001000 104.88266754 0.0055129561 2.4644398689 0.4097858369 78.384216309
 2549.3001000 108.86048889 0.0091187367 2.4841964245 0.3953229487 76.738487244
 2549.4001000 113.46664429 0.0295370948 2.4863357544 0.3883938193 76.755363464
 2549.5001000 117.25653839 0.0454112738 2.4492452145 0.3926504552 78.613754272
 2549.6001000 119.27302551 0.0404270515 2.3856282234 0.4051350057 81.753097534
 2549.7001000 119.80919647 0.0302144457 2.3469531536 0.4215112031 85.701042175
 2549.8001000 119.52153778 0.0303317253 2.3410236835 0.4380149841 89.810249329
 2549.9001000 119.14391327 0.0398070142 2.3421554565 0.4491387606 93.265777588
 2550.0001000 118.89426422 0.0420774892 2.3417098522 0.4497598112 95.979927063
 2550.1001000 118.80525970 0.0368734375 2.3453886509 0.4405973554 98.026626587
 2550.2001000 118.87664032 0.0368270688 2.3562402725 0.4297976196 99.423248291
 2550.3001000 119.07323456 0.0434776731 2.3625037670 0.4257371128 99.903404236
 2550.4001000 119.34620667 0.0481636338 2.3562715054 0.4299235940 99.437889099
 2550.5001000 119.61644745 0.0441450737 2.3434667587 0.4365607202 98.461639404
 2550.6001000 119.85343170 0.0401939005 2.3329679966 0.4427925348 96.895927429
 2550.7001000 120.03823853 0.0399434865 2.3275957108 0.4448928237 95.301681519
 2550.8001000 120.15313721 0.0361795463 2.3219702244 0.4408241510 94.813285828
 2550.9001000 120.15370178 0.0289045628 2.3125898838 0.4373479486 95.374832153
 2551.0001000 120.13497162 0.0223600846 2.3010461330 0.4374427795 96.383049011
 2551.1001000 120.36482239 0.0199987069 2.2929751873 0.4347813427 97.348823547
 2551.2001000 120.88369751 0.0250568539 2.2915818691 0.4305444956 98.184761047
 2551.3001000 121.56066895 0.0356028862 2.2936289310 0.4281976819 98.502204895
 2551.4001000 122.22608185 0.0417497270 2.2908954620 0.4268776178 97.439170837
 2551.5001000 122.87280273 0.0394915491 2.2815515995 0.4317302704 95.687812805
 2551.6001000 123.45339966 0.0317694657 2.2711427212 0.4476121962 94.559730530
 2551.7001000 123.65463257 0.0234526359 2.2672297955 0.4658624828 94.213104248
 2551.8001000 123.39427948 0.0177054834 2.2714784145 0.4750756025 94.461807251
 2551.9001000 122.87046051 0.0145383235 2.2791686058 0.4719912410 95.105552673
 2552.0001000 122.29204559 0.0117815118 2.2836618423 0.4654441178 95.611351013
 2552.1001000 121.70339203 0.0092520574 2.2820534706 0.4608671367 95.946044922
 2552.2001000 121.11171722 0.0091721499 2.2764720917 0.4556015134 96.427520752
 2552.3001000 120.75051880 0.0122707905 2.2728869915 0.4489822388 96.720420837
 2552.4001000 120.72180939 0.0191372503 2.2755548954 0.4417315125 96.360832214
 2552.5001000 120.90591431 0.0313026458 2.2831587791 0.4340174496 95.353546143
 2552.6001000 121.21754456 0.0472421050 2.2890791893 0.4261058271 94.386634827
 2552.7001000 121.61222839 0.0604825318 2.2911856174 0.4212556779 94.373435974
 2552.8001000 122.04051971 0.0625918284 2.2925174236 0.4242539704 95.673301697
 2552.9001000 122.46327209 0.0522839986 2.2900629044 0.4338279963 97.451705933
 2553.0001000 122.75111389 0.0362729989 2.2836298943 0.4465779960 98.655944824
 2553.1001000 122.63773346 0.0233789999 2.2815380096 0.4598999918 99.046737671
 2553.2001000 122.02090454 0.0176359992 2.2852489948 0.4682439864 98.978393555
 2553.3001000 120.90768433 0.0170239974 2.2918469906 0.4711300135 98.830200195
 2553.4001000 119.37810516 0.0192339998 2.3015949726 0.4744339883 98.699935913
 2553.5001000 117.57655334 0.0226419996 2.3130910397 0.4772010148 98.796554565
 2553.6001000 115.66456604 0.0255929995 2.3227019310 0.4740760028 99.441375732
 2553.7001000 113.97691345 0.0253849998 2.3281750679 0.4652020037 100.76797485
 2553.8001000 112.76400757 0.0242599994 2.3349239826 0.4494560063 102.45004272
 2553.9001000 112.14686584 0.0248360001 2.3491790295 0.4265109897 103.76718140
 2554.0001000 111.91310120 0.0246009994 2.3687679768 0.4029439986 104.21893311
 2554.1001000 111.63383484 0.0260319989 2.3909528255 0.3873830140 103.81120300
 2554.2001000 111.01467896 0.0342019983 2.4154520035 0.3836219907 102.97184753
 2554.3001000 110.12881470 0.0454399996 2.4408569336 0.3858810067 102.14741516
 2554.4001000 109.47052002 0.0515000001 2.4589350224 0.3871130049 101.43792725
 2554.5001000 109.47723389 0.0480730012 2.4624121189 0.3858860135 100.65834045
 2554.6001000 110.06849670 0.0383209996 2.4570548534 0.3833959997 99.906997681
 2554.7001000 111.10050964 0.0271189995 2.4494400024 0.3808780015 99.724777222
 2554.8001000 112.61291504 0.0165700000 2.4406700134 0.3782080114 100.56076050
 2554.9001000 114.38723755 0.0089639993 2.4324769974 0.3762679994 101.96611023
 2555.0001000 115.95442200 0.0076230001 2.4220979214 0.3778379858 103.06906128
 2555.1001000 117.00146484 0.0158450007 2.4073278904 0.3825150132 103.63835144
 2555.2001000 117.54563904 0.0323179998 2.3943710327 0.3838199973 104.05296326
 2555.3001000 117.91784668 0.0456290022 2.3826680183 0.3803830147 104.07388306
 2555.4001000 118.50776672 0.0443730019 2.3650381565 0.3783740103 103.10086060
 2555.5001000 119.41037750 0.0325320028 2.3434288502 0.3823690116 101.57431030
 2555.6001000 120.29248047 0.0218439996 2.3254928589 0.3930140138 100.24449158
 2555.7001000 120.78323364 0.0201790016 2.3180348873 0.4049130082 99.399139404
 2555.8001000 120.92495728 0.0264190007 2.3219051361 0.4101009965 98.875946045
 2555.9001000 120.89852905 0.0333370008 2.3287770748 0.4108720124 98.827087402
 2556.0001000 120.78715515 0.0357570015 2.3294579983 0.4138930142 99.325576782
 2556.1001000 120.65275574 0.0346940011 2.3242018223 0.4162710011 99.592529297
 2556.2001000 120.55769348 0.0339760035 2.3208491802 0.4113189876 99.055328369
 2556.3001000 120.53820801 0.0357949995 2.3240230083 0.4004029930 98.090682983
 2556.4001000 120.57309723 0.0399039984 2.3299069405 0.3927710056 97.520111084
 2556.5001000 120.63465881 0.0434870012 2.3328759670 0.3889810145 97.688690186
 2556.6001000 120.71093750 0.0436719991 2.3308670521 0.3838259876 98.321777344
 2556.7001000 120.79554749 0.0397610031 2.3238329887 0.3795210123 99.129364014
 2556.8001000 120.89413452 0.0360490009 2.3103899956 0.3814300001 100.19378662
 2556.9001000 121.02905273 0.0369089991 2.2928190231 0.3899779916 101.33012390
 2557.0001000 121.24000549 0.0415159985 2.2793030739 0.4017199874 101.63633728
 2557.1001000 121.25131226 0.0422669984 2.2724928856 0.4124140143 100.73979187
 2557.2001000 120.79972076 0.0355440006 2.2700338364 0.4209020138 99.320175171
 2557.3001000 119.94441223 0.0293250009 2.2747871876 0.4319280088 98.371337891
