# LAS format log file from PETREL
# Project units are specified as depth units
#==================================================================
~Version information
VERS.   2.0:
WRAP.   NO:
#==================================================================
~Well
STRT .m      48.200100000 :
STOP .m      3124.0001000 :
STEP .m     0.10000000 :
NULL .        -999.250000 :
COMP.           : COMPANY
WELL.  F02-01   : WELL
FLD.            : FIELD
LOC.            : LOCATION
SRVC.           : SERVICE COMPANY
DATE.  2023-08-04 09:51:40   : Log Export Date {yyyy-MM-dd HH:mm:ss}
PROV.           : PROVINCE
UWI.   8727   : UNIQUE WELL ID
API.            : API NUMBER
#==================================================================
~Curve
DEPT .m                   : DEPTH
DT .us/ft                 : DT
DRHO .g/cm3               : DRHO
RHOB .g/cm3               : RHOB
NPHI .m3/m3               : NPHI
GR .gAPI                  : GR
~Parameter
#==================================================================
~Ascii
# ...
 1027.4001000 129.13787842 0.0427935645 2.2627956867  -999.250000 61.763351440
 1027.5001000 128.39840698 0.0451956019 2.2706470490  -999.250000 61.954559326
 1027.6001000 127.77551270 0.0429282710 2.2706019878  -999.250000 62.185878754
 1027.7001000 127.12289429 0.0364554785 2.2653481960  -999.250000 62.196941376
 1027.8001000 126.42362976 0.0304090455 2.2597866058  -999.250000 62.279815674
 1027.9001000 125.87527466 0.0294559486 2.2589488029  -999.250000 62.702877045
 1028.0001000 125.68419647 0.0333281234 2.2653326988  -999.250000 63.226085663
 1028.1001000 125.87535858 0.0373529755 2.2741322517  -999.250000 64.000366211
 1028.2001000 126.36981964 0.0366556980 2.2775056362  -999.250000 64.751770020
 1028.3001000 127.12798309 0.0302114505 2.2724130154  -999.250000 64.401596069
 1028.4001000 128.24787903 0.0200321823 2.2598805428  -999.250000 63.043769836
 1028.5001000 129.50886536 0.0117083220 2.2470166683  -999.250000 61.890754700
 1028.6001000 130.31785583 0.0112184826 2.2432608604  -999.250000 61.765399933
 1028.7001000 130.42015076 0.0132609541 2.2429864407  -999.250000 62.155387878
 1028.8001000 129.94374084 0.0128024612 2.2389550209  -999.250000 62.089004517
 1028.9001000 129.00021362 0.0149618378 2.2359788418  -999.250000 61.223514557
 1029.0001000 127.67158508 0.0214565005 2.2388961315  -999.250000 60.427349091
 1029.1001000 126.34909058 0.0278995577 2.2443025112  -999.250000 60.514461517
 1029.2001000 125.63730621 0.0306582451 2.2451698780  -999.250000 61.401851654
 1029.3001000 125.90905762 0.0349826738 2.2458512783  -999.250000 62.459453583
 1029.4001000 126.84563446 0.0422317460 2.2497181892  -999.250000 63.204486847
 1029.5001000 127.79538727 0.0420272127 2.2479536533  -999.250000 63.544483185
 1029.6001000 128.33528137 0.0338571742 2.2438189983  -999.250000 63.489883423
 1029.7001000 128.41746521 0.0253754836 2.2446498871  -999.250000 63.087379456
 1029.8001000 128.02005005 0.0215967745 2.2472023964  -999.250000 62.331230164
 1029.9001000 126.99681091 0.0192113835 2.2467045784  -999.250000 61.713233948
 1030.0001000 125.50196838 0.0150761362 2.2433502674  -999.250000 61.629394531
 1030.1001000 124.22850800 0.0134576159 2.2401082516  -999.250000 62.022609711
 1030.2001000 123.47451019 0.0157856680 2.2389602661  -999.250000 62.162220001
 1030.3001000 123.05103302 0.0189398453 2.2395675182  -999.250000 61.661815643
 1030.4001000 122.93070221 0.0181627814 2.2398927212  -999.250000 61.239543915
 1030.5001000 123.03585815 0.0137184476 2.2387983799  -999.250000 61.162513733
 1030.6001000 123.19982147 0.0089877313 2.2367050648  -999.250000 61.142498016
 1030.7001000 123.28658295 0.0086763073 2.2354192734  -999.250000 61.327320099
 1030.8001000 123.34226227 0.0129107609 2.2357597351  -999.250000 61.540031433
 1030.9001000 123.46794128 0.0186352748 2.2371225357  -999.250000 61.337337494
 1031.0001000 123.55807495 0.0232473891 2.2366845608  -999.250000 60.186904907
 1031.1001000 123.43910217 0.0276485980 2.2337677479  -999.250000 58.033657074
 1031.2001000 123.03525543 0.0340306126 2.2297899723  -999.250000 55.173759460
 1031.3001000 123.03500366 0.0428521745 2.2204313278  -999.250000 52.950466156
 1031.4001000 123.81052399 0.0524543971 2.2047276497  -999.250000 51.810451508
 1031.5001000 125.11209869 0.0609215312 2.1867518425  -999.250000 51.091018677
 1031.6001000 126.52265930 0.0632446855 2.1721525192  -999.250000 50.220001221
 1031.7001000 128.16571045 0.0612120368 2.1640610695  -999.250000 48.983894348
 1031.8001000 130.65516663 0.0641160980 2.1617693901  -999.250000 47.442855835
 1031.9001000 133.30371094 0.0643267930 2.1646111012  -999.250000 46.697559357
 1032.0001000 135.06823730 0.0530922487 2.1698038578  -999.250000 47.604454041
 1032.1001000 135.83139038 0.0360620357 2.1721456051  -999.250000 49.716812134
 1032.2001000 135.71246338 0.0242258329 2.1736016273  -999.250000 52.289215088
 1032.3001000 134.86836243 0.0242539607 2.1815750599  -999.250000 54.638603210
 1032.4001000 133.29066467 0.0336226225 2.2027659416  -999.250000 56.507102966
 1032.5001000 131.24468994 0.0436439775 2.2257041931  -999.250000 57.909812927
 1032.6001000 129.23413086 0.0464711785 2.2339088917  -999.250000 58.994255066
 1032.7001000 127.01103973 0.0471273437 2.2383544445  -999.250000 59.790882111
 1032.8001000 124.76096344 0.0471240059 2.2436497211  -999.250000 60.546592712
 1032.9001000 123.08297729 0.0437613688 2.2442286015  -999.250000 61.676490784
 1033.0001000 122.10743713 0.0410197414 2.2448751926  -999.250000 62.798370361
 1033.1001000 121.77532196 0.0400579609 2.2467291355  -999.250000 63.184711456
 1033.2001000 121.87467957 0.0366474129 2.2443344593  -999.250000 62.650047302
 1033.3001000 122.23355103 0.0309237260 2.2424008846  -999.250000 62.313713074
 1033.4001000 122.71094513 0.0242796466 2.2450842857  -999.250000 62.725166321
 1033.5001000 123.14406586 0.0180582218 2.2475605011  -999.250000 63.033489227
 1033.6001000 123.61113739 0.0169111416 2.2461514473  -999.250000 63.262557983
 1033.7001000 124.12968445 0.0206902158 2.2433989048  -999.250000 63.670711517
 1033.8001000 124.45427704 0.0196979977 2.2456645966  -999.250000 63.844726563
 1033.9001000 124.50598907 0.0162044968 2.2483704090  -999.250000 63.995918274
 1034.0001000 124.40540314 0.0189892109 2.2464079857  -999.250000 64.424621582
 1034.1001000 124.35546112 0.0267931931 2.2490193844  -999.250000 64.516036987
 1034.2001000 124.43602753 0.0350577347 2.2582259178  -999.250000 63.929870605
 1034.3001000 124.60707092 0.0399471149 2.2660312653  -999.250000 62.875755310
 1034.4001000 124.80815887 0.0395993516 2.2681229115  -999.250000 61.644924164
 1034.5001000 125.00556946 0.0347088948 2.2644376755  -999.250000 60.417610168
 1034.6001000 125.19017792 0.0276380721 2.2569937706  -999.250000 59.372100830
 1034.7001000 125.33591461 0.0212833546 2.2483134270  -999.250000 58.917926788
 1034.8001000 125.47006226 0.0186985806 2.2419884205  -999.250000 58.935810089
 1034.9001000 125.61825562 0.0213593338 2.2413537502  -999.250000 58.903770447
 1035.0001000 125.65063477 0.0270592980 2.2463500500  -999.250000 59.095024109
 1035.1001000 125.56718445 0.0334336236 2.2548007965  -999.250000 59.630073547
 1035.2001000 125.58873749 0.0393251106 2.2631716728  -999.250000 59.878505707
 1035.3001000 125.73084259 0.0410273001 2.2650511265  -999.250000 59.701068878
 1035.4001000 125.83362579 0.0388901420 2.2604844570  -999.250000 59.351264954
 1035.5001000 125.80091095 0.0373745188 2.2551503181  -999.250000 58.905269623
 1035.6001000 125.62763977 0.0348525196 2.2480101585  -999.250000 58.522438049
 1035.7001000 125.36725616 0.0284673888 2.2382159233  -999.250000 58.405139923
 1035.8001000 125.05863953 0.0230813846 2.2343850136  -999.250000 58.658233643
 1035.9001000 124.75930786 0.0236424338 2.2393670082  -999.250000 59.066089630
 1036.0001000 124.46628571 0.0301734619 2.2481851578  -999.250000 59.357307434
 1036.1001000 124.12058258 0.0382219478 2.2561759949  -999.250000 59.446544647
 1036.2001000 123.73759460 0.0409742557 2.2579534054  -999.250000 59.129276276
 1036.3001000 123.42421722 0.0374755040 2.2520699501  -999.250000 58.311054230
 1036.4001000 123.27996826 0.0339155607 2.2429151535  -999.250000 57.367061615
 1036.5001000 123.27909851 0.0336043090 2.2355313301  -999.250000 56.628204346
 1036.6001000 123.33895874 0.0346809253 2.2323033810  -999.250000 56.209159851
 1036.7001000 123.41347504 0.0367279500 2.2341351509  -999.250000 56.320545197
 1036.8001000 123.44328308 0.0378318988 2.2368204594  -999.250000 57.064006805
 1036.9001000 123.36141968 0.0383554772 2.2372195721  -999.250000 58.249813080
 1037.0001000 123.18564606 0.0431751758 2.2391822338  -999.250000 59.343395233
 1037.1001000 123.09780884 0.0496245474 2.2450399399  -999.250000 60.002971649
 1037.2001000 123.26536560 0.0507928357 2.2517204285  -999.250000 60.191761017
 1037.3001000 123.61438751 0.0494813100 2.2564122677  -999.250000 59.981311798
 1037.4001000 124.04080200 0.0461273566 2.2555329800  -999.250000 59.707878113
 1037.5001000 124.47791290 0.0376484804 2.2478168011  -999.250000 59.492721558
