# LAS format log file from PETREL
# Project units are specified as depth units
#==================================================================
~Version information
VERS.   2.0:
WRAP.   NO:
#==================================================================
~Well
STRT .m      48.200100000 :
STOP .m      3124.0001000 :
STEP .m     0.10000000 :
NULL .        -999.250000 :
COMP.           : COMPANY
WELL.  F02-01   : WELL
FLD.            : FIELD
LOC.            : LOCATION
SRVC.           : SERVICE COMPANY
DATE.  2023-08-04 09:51:40   : Log Export Date {yyyy-MM-dd HH:mm:ss}
PROV.           : PROVINCE
UWI.   8727   : UNIQUE WELL ID
API.            : API NUMBER
#==================================================================
~Curve
DEPT .m                   : DEPTH
DT .us/ft                 : DT
DRHO .g/cm3               : DRHO
RHOB .g/cm3               : RHOB
NPHI .m3/m3               : NPHI
GR .gAPI                  : GR
~Parameter
#==================================================================
~Ascii
# ...
 1782.2001000 90.210494995 0.0164030008 2.3214070797 0.3201310039 11.212070465
 1782.3001000 89.648376465 0.0176119991 2.3239519596 0.3152230084 11.348434448
 1782.4001000 89.234100342 0.0206140000 2.3304710388 0.3127849996 11.722466469
 1782.5001000 89.109420776 0.0243439991 2.3387780190 0.3150880039 12.011421204
 1782.6001000 89.306213379 0.0302440003 2.3475778103 0.3206489980 11.994092941
 1782.7001000 89.726943970 0.0387139991 2.3565049171 0.3274790049 12.009138107
 1782.8001000 90.137557983 0.0430170000 2.3616950512 0.3327949941 12.264776230
 1782.9001000 90.323791504 0.0372649990 2.3585581779 0.3336319923 12.645936966
 1783.0001000 90.208053589 0.0277579986 2.3490250111 0.3276990056 12.939607620
 1783.1001000 89.895309448 0.0213939995 2.3404729366 0.3154900074 13.109926224
 1783.2001000 89.523117065 0.0177980009 2.3380892277 0.3008280098 13.351690292
 1783.3001000 89.205558777 0.0133140003 2.3390150070 0.2912420034 13.825910568
 1783.4001000 88.939178467 0.0092529999 2.3380668163 0.2868599892 14.214483261
 1783.5001000 88.662460327 0.0101809995 2.3347089291 0.2821910083 13.978092194
 1783.6001000 88.387161255 0.0129249999 2.3326959610 0.2778809965 13.198436737
 1783.7001000 88.170883179 0.0147519996 2.3353409767 0.2772080004 12.311255455
 1783.8001000 88.084350586 0.0182809997 2.3417940140 0.2813499868 11.620531082
 1783.9001000 88.151290894 0.0237199999 2.3484838009 0.2888799906 11.166530609
 1784.0001000 88.391891479 0.0283659995 2.3515059948 0.2971430123 11.009637833
 1784.1001000 88.791870117 0.0301620010 2.3502991199 0.3045600057 11.260082245
 1784.2001000 89.186546326 0.0317710005 2.3495209217 0.3115719855 11.525241852
 1784.3001000 89.356292725 0.0351199992 2.3520228863 0.3162519932 11.436435699
 1784.4001000 89.120117188 0.0363060012 2.3554937840 0.3136120141 11.130189896
 1784.5001000 88.426956177 0.0323270001 2.3602571487 0.3046410084 10.827251434
 1784.6001000 87.561813354 0.0258440003 2.3658897877 0.2932940125 10.622833252
 1784.7001000 86.974899292 0.0221040007 2.3699541092 0.2814610004 10.576784134
 1784.8001000 86.832145691 0.0205429997 2.3745720387 0.2739250064 10.971836090
 1784.9001000 87.024124146 0.0198780000 2.3800990582 0.2740480006 11.711305618
 1785.0001000 87.472984314 0.0229170006 2.3802809715 0.2791279852 12.112609863
 1785.1001000 88.076309204 0.0264810007 2.3735611439 0.2850460112 12.038324356
 1785.2001000 88.597335815 0.0266790017 2.3652780056 0.2887420058 11.902585983
 1785.3001000 88.706268311 0.0256910007 2.3594470024 0.2885420024 11.816987991
 1785.4001000 88.403320313 0.0227119997 2.3536851406 0.2854459882 11.565786362
 1785.5001000 88.069824219 0.0162049998 2.3461549282 0.2814820111 11.116849899
 1785.6001000 88.032440186 0.0099919997 2.3420920372 0.2780080140 10.904115677
 1785.7001000 88.172775269 0.0071240002 2.3424460888 0.2768230140 11.018524170
 1785.8001000 88.234512329 0.0066529997 2.3426740170 0.2789919972 11.216327667
 1785.9001000 88.317764282 0.0072659999 2.3413619995 0.2840389907 11.521789551
 1786.0001000 88.540618896 0.0102860006 2.3419151306 0.2912099957 12.112494469
 1786.1001000 88.851943970 0.0165340006 2.3457400799 0.2990800142 12.867523193
 1786.2001000 89.166870117 0.0226679984 2.3475930691 0.3052760065 13.290430069
 1786.3001000 89.638320923 0.0257350001 2.3436589241 0.3101220131 13.222192764
 1786.4001000 90.400482178 0.0252819993 2.3356239796 0.3169209957 12.711183548
 1786.5001000 91.213607788 0.0228789989 2.3271660805 0.3270179927 11.781162262
 1786.6001000 91.735641479 0.0221940000 2.3183028698 0.3352650106 11.010899544
 1786.7001000 91.821334839 0.0234990008 2.3105170727 0.3347119987 10.943328857
 1786.8001000 91.598991394 0.0230149999 2.3090071678 0.3249509931 11.338724136
 1786.9001000 91.202285767 0.0229640007 2.3107910156 0.3107779920 11.807519913
 1787.0001000 90.807998657 0.0241139997 2.3092029095 0.2989589870 12.142150879
 1787.1001000 90.669219971 0.0201249998 2.3035540581 0.2937760055 12.284212112
 1787.2001000 90.899017334 0.0123089999 2.2973477840 0.2926569879 12.581850052
 1787.3001000 91.434944153 0.0068350001 2.2935419083 0.2920359969 13.104305267
 1787.4001000 92.172393799 0.0046210000 2.2923059464 0.2924860120 13.378522873
 1787.5001000 92.887847900 0.0041870000 2.2924780846 0.2953799963 13.252092361
 1787.6001000 93.356307983 0.0048969998 2.2937240601 0.2999089956 12.884492874
 1787.7001000 93.518157959 0.0071030003 2.2970099449 0.3045490086 12.284364700
 1787.8001000 93.369674683 0.0104370005 2.3027820587 0.3108780086 11.324672699
 1787.9001000 93.004211426 0.0145769995 2.3102128506 0.3180269897 10.328826904
 1788.0001000 92.555755615 0.0204339996 2.3185667992 0.3205130100 10.008186340
 1788.1001000 92.126617432 0.0250680000 2.3244960308 0.3159109950 10.103296280
 1788.2001000 91.834915161 0.0255680010 2.3247480392 0.3066929877 10.161176682
 1788.3001000 91.899887085 0.0219759997 2.3171870708 0.2960439920 10.516967773
 1788.4001000 92.418899536 0.0167650003 2.3047609329 0.2889089882 10.842168808
 1788.5001000 93.260116577 0.0123319998 2.2924370766 0.2888219953 10.720806122
 1788.6001000 94.260879517 0.0103809992 2.2839741707 0.2990280092 10.477582932
 1788.7001000 95.268951416 0.0109730000 2.2758510113 0.3111940026 10.695762634
 1788.8001000 96.213439941 0.0125719998 2.2643449306 0.3162710071 11.372758865
 1788.9001000 97.072341919 0.0126070008 2.2517061234 0.3121300042 11.747453690
 1789.0001000 97.632583618 0.0116969999 2.2440719604 0.3055070043 11.780414581
 1789.1001000 97.756286621 0.0117079988 2.2446219921 0.3028799891 11.841075897
 1789.2001000 97.602691650 0.0127200000 2.2529399395 0.3052220047 11.691415787
 1789.3001000 97.186553955 0.0148870004 2.2661900520 0.3093810081 11.584398270
 1789.4001000 96.421722412 0.0184300002 2.2812461853 0.3122699857 11.955331802
 1789.5001000 95.332489014 0.0215729997 2.2929019928 0.3103199899 12.299552917
 1789.6001000 94.464065552 0.0219439995 2.2968468666 0.3065589964 12.387226105
 1789.7001000 94.332031250 0.0186739992 2.2924370766 0.3063170016 12.487882614
 1789.8001000 94.759597778 0.0138430018 2.2861979008 0.3102799952 12.857070923
 1789.9001000 95.198074341 0.0107299993 2.2828810215 0.3149960041 13.322032928
 1790.0001000 95.295135498 0.0111469999 2.2823541164 0.3174029887 13.568398476
 1790.1001000 94.922790527 0.0123620005 2.2804198265 0.3172099888 13.472335815
 1790.2001000 94.229690552 0.0117410002 2.2759571075 0.3157869875 13.017349243
 1790.3001000 93.507209778 0.0094120000 2.2719891071 0.3144609928 12.231557846
 1790.4001000 92.824523926 0.0095690005 2.2744240761 0.3156419992 11.468596458
 1790.5001000 92.363372803 0.0145950001 2.2844231129 0.3200390041 11.081100464
 1790.6001000 92.467330933 0.0224019997 2.2968211174 0.3256930113 11.122625351
 1790.7001000 93.168685913 0.0290760007 2.3031849861 0.3313370049 11.304693222
 1790.8001000 94.004882813 0.0339620002 2.3027000427 0.3378559947 11.181850433
 1790.9001000 94.361640930 0.0413530022 2.3052990437 0.3478749990 10.451711655
 1791.0001000 94.209350586 0.0448870026 2.3066539764 0.3562540114 9.7880592346
 1791.1001000 93.890510559 0.0383320004 2.2999939919 0.3558509946 9.8584365845
 1791.2001000 93.452087402 0.0295589995 2.2942781448 0.3475179970 10.052314758
 1791.3001000 93.032363892 0.0260739997 2.2960348129 0.3345380127 9.9587879181
 1791.4001000 92.900878906 0.0282619987 2.3000991344 0.3226970136 9.7418823242
 1791.5001000 93.140327454 0.0293010008 2.2923450470 0.3174679875 9.7751274109
 1791.6001000 93.850334167 0.0253579989 2.2727069855 0.3199270070 10.002223969
 1791.7001000 95.052192688 0.0188269988 2.2560720444 0.3263239861 10.008317947
 1791.8001000 96.473892212 0.0145020001 2.2483420372 0.3331199884 9.7408294678
 1791.9001000 97.586425781 0.0146400006 2.2498431206 0.3398599923 9.4252529144
 1792.0001000 97.982299805 0.0164009985 2.2562329769 0.3481540084 9.3416709900
 1792.1001000 97.742584229 0.0160520002 2.2607409954 0.3564839959 9.5535812378
 1792.2001000 97.054443359 0.0131440004 2.2613492012 0.3591470122 9.9807357788
 1792.3001000 96.059127808 0.0118590016 2.2644379139 0.3516499996 10.487489700
