# LAS format log file from PETREL
# Project units are specified as depth units
#==================================================================
~Version information
VERS.   2.0:
WRAP.   NO:
#==================================================================
~Well
STRT .m      48.200100000 :
STOP .m      3124.0001000 :
STEP .m     0.10000000 :
NULL .        -999.250000 :
COMP.           : COMPANY
WELL.  F02-01   : WELL
FLD.            : FIELD
LOC.            : LOCATION
SRVC.           : SERVICE COMPANY
DATE.  2023-08-04 09:51:40   : Log Export Date {yyyy-MM-dd HH:mm:ss}
PROV.           : PROVINCE
UWI.   8727   : UNIQUE WELL ID
API.            : API NUMBER
#==================================================================
~Curve
DEPT .m                   : DEPTH
DT .us/ft                 : DT
DRHO .g/cm3               : DRHO
RHOB .g/cm3               : RHOB
NPHI .m3/m3               : NPHI
GR .gAPI                  : GR
~Parameter
#==================================================================
~Ascii
# ...
 262.40010000  -999.250000  -999.250000  -999.250000  -999.250000 31.719306946
 262.50010000  -999.250000  -999.250000  -999.250000  -999.250000 31.638458252
 262.60010000  -999.250000  -999.250000  -999.250000  -999.250000 31.102054596
 262.70010000  -999.250000  -999.250000  -999.250000  -999.250000 30.574680328
 262.80010000  -999.250000 0.0854270011 1.9930949211  -999.250000 30.606620789
 262.90010000  -999.250000 0.0771270022 1.9710890055  -999.250000 31.313426971
 263.00010000  -999.250000 0.0652129948 1.9673789740  -999.250000 32.614257813
 263.10010000  -999.250000 0.0651600063 1.9749699831  -999.250000 34.361320496
 263.20010000 116.32937622 0.0740789995 1.9887919426  -999.250000 35.634658813
 263.30010000 117.43734741 0.0807949975 2.0037729740  -999.250000 35.586593628
 263.40010000 120.26327515 0.0823320001 2.0124521255  -999.250000 34.581726074
 263.50010000 126.59986877 0.0771480054 2.0124640465  -999.250000 32.936981201
 263.60010000 133.71200562 0.0668710023 2.0069129467  -999.250000 31.084526062
 263.70010000 140.46279907 0.0586090013 1.9992569685  -999.250000 29.649276733
 263.80010000 149.39897156 0.0569909997 1.9951169491  -999.250000 29.084323883
 263.90010000 161.18313599 0.0605730005 1.9978410006  -999.250000 29.202739716
 264.00010000 169.13504028 0.0624329969 1.9992679358  -999.250000 28.996028900
 264.10010000 171.27578735 0.0610379986 1.9955199957  -999.250000 28.164142609
 264.20010000 172.54742432 0.0613479987 1.9911769629  -999.250000 27.354984283
 264.30010000 174.54388428 0.0660380051 1.9901089668  -999.250000 27.016727448
 264.40010000 176.31317139 0.0740130022 1.9935410023  -999.250000 27.501632690
 264.50010000 177.14932251 0.0809450001 1.9986169338  -999.250000 28.745140076
 264.60010000 176.86404419 0.0834110007 2.0000519753  -999.250000 29.871402740
 264.70010000 174.42608643 0.0828659981 1.9967859983  -999.250000 30.407752991
 264.80010000 169.19869995 0.0849229991 1.9937670231  -999.250000 30.840213776
 264.90010000 164.49838257 0.0880439952 1.9893780947  -999.250000 30.898189545
 265.00010000 163.18353271 0.0881719962 1.9776419401  -999.250000 30.192436218
 265.10010000 163.01931763 0.0869499967 1.9572480917  -999.250000 29.401515961
 265.20010000 162.61651611 0.0861120000 1.9319250584  -999.250000 28.982082367
 265.30010000 162.68975830 0.0851269960 1.9021409750  -999.250000 28.804439545
 265.40010000 163.36389160 0.0828069970 1.8646490574  -999.250000 28.770496368
 265.50010000 164.52479553 0.0780820027 1.8256310225  -999.250000 28.954589844
 265.60010000 166.04144287 0.0706240013 1.7939879894  -999.250000 29.532772064
 265.70010000 167.41101074 0.0615539998 1.7659150362  -999.250000 30.420455933
 265.80010000 167.73669434 0.0527260005 1.7320209742  -999.250000 31.127597809
 265.90010000 166.50263977 0.0446920022 1.6863809824  -999.250000 31.206668854
 266.00010000 164.50801086 0.0366929993 1.6304799318  -999.250000 30.852008820
 266.10010000 162.90771484 0.0291670002 1.5699939728  -999.250000 30.523078918
 266.20010000 161.94152832 0.0236760005 1.5064170361  -999.250000 30.315898895
 266.30010000 161.18707275 0.0202549994 1.4469919205  -999.250000 29.997188568
 266.40010000 159.92553711 0.0188679993 1.4050019979  -999.250000 29.360374451
 266.50010000 157.72351074 0.0210779998 1.3914040327  -999.250000 28.576423645
 266.60010000 154.41143799 0.0266089998 1.3944079876  -999.250000 27.983806610
 266.70010000 149.83743286 0.0319439992 1.3964139223  -999.250000 27.816818237
 266.80010000 143.25405884 0.0328960009 1.3957320452  -999.250000 28.010002136
 266.90010000 134.21487427 0.0294829998 1.3927400112  -999.250000 28.226703644
 267.00010000 125.65289307 0.0251870006 1.3888039589  -999.250000 28.295040131
 267.10010000 123.51489258 0.0221090000 1.3853570223  -999.250000 28.478816986
 267.20010000 128.33666992 0.0202759989 1.3836090565  -999.250000 29.047634125
 267.30010000 136.74746704 0.0191860013 1.3834229708  -999.250000 29.790409088
 267.40010000 146.51239014 0.0194819998 1.3835300207  -999.250000 30.085540771
 267.50010000 156.32254028 0.0202549994 1.3831230402  -999.250000 29.785022736
 267.60010000 165.82675171 0.0198950004 1.3823440075  -999.250000 29.364406586
 267.70010000 174.33189392 0.0186790004 1.3816689253  -999.250000 29.394882202
 267.80010000 181.47506714 0.0189979989 1.3826059103  -999.250000 30.142322540
 267.90010000 186.56130981 0.0222020000 1.3868640661  -999.250000 31.161796570
 268.00010000 189.43695068 0.0266190004 1.3938819170  -999.250000 31.651279449
 268.10010000 190.80186462 0.0310824718 1.3994334936  -999.250000 31.323181152
 268.20010000 191.03604126 0.0345518515 1.3998711109  -999.250000 30.430097580
 268.30010000 189.93879700 0.0354037993 1.3970286846  -999.250000 29.218999863
 268.40010000 187.81999207 0.0352049284 1.3947689533  -999.250000 27.962312698
 268.50010000 186.07331848 0.0371387191 1.3957465887  -999.250000 27.014221191
 268.60010000 185.78642273 0.0418595225 1.4014133215  -999.250000 26.641458511
 268.70010000 185.35937500 0.0473772511 1.4126846790  -999.250000 26.780736923
 268.80010000 183.25921631 0.0506265201 1.4243805408  -999.250000 27.274229050
 268.90010000 180.84716797 0.0491428524 1.4258707762  -999.250000 28.000196457
 269.00010000 179.19215393 0.0419924967 1.4176124334  -999.250000 28.687919617
 269.10010000 178.04476929 0.0334981233 1.4100903273  -999.250000 29.221670151
 269.20010000 177.24345398 0.0316283777 1.4104946852  -999.250000 29.776601791
 269.30010000 176.82597351 0.0370082259 1.4191501141  -999.250000 30.110200882
 269.40010000 176.55357361 0.0442334861 1.4313181639  -999.250000 29.828351974
 269.50010000 175.95541382 0.0497146286 1.4414789677  -999.250000 29.020795822
 269.60010000 175.03292847 0.0513390303 1.4464297295  -999.250000 28.339775085
 269.70010000 174.14685059 0.0503708608 1.4481734037  -999.250000 28.270750046
 269.80010000 173.47642517 0.0512339845 1.4525477886  -999.250000 28.659299850
 269.90010000 172.84382629 0.0532201827 1.4633697271  -999.250000 29.493722916
 270.00010000 171.98577881 0.0544036925 1.4791079760  -999.250000 30.587114334
 270.10010000 170.85588074 0.0570973828 1.4951004982  -999.250000 31.260049820
 270.20010000 170.16947937 0.0624815561 1.5075589418  -999.250000 31.219327927
 270.30010000 170.25382996 0.0690363720 1.5165150166  -999.250000 30.626119614
 270.40010000 170.40359497 0.0754034296 1.5255787373  -999.250000 29.617433548
 270.50010000 170.19354248 0.0808255076 1.5412797928  -999.250000 29.268684387
 270.60010000 169.89137268 0.0853343084 1.5650793314  -999.250000 30.011966705
 270.70010000 169.96101379 0.0896396264 1.5923204422  -999.250000 30.644840240
 270.80010000 170.19935608 0.0932638720 1.6137220860  -999.250000 30.541414261
 270.90010000 170.21849060 0.0951308981 1.6246471405  -999.250000 30.008790970
 271.00010000 170.04327393 0.0940216780 1.6267446280  -999.250000 29.190221786
 271.10010000 169.71200562 0.0897003859 1.6194814444  -999.250000 28.058193207
 271.20010000 169.16998291 0.0830831006 1.6028696299  -999.250000 26.762113571
 271.30010000 168.27043152 0.0741821975 1.5774382353  -999.250000 25.639745712
 271.40010000 167.34219360 0.0653802007 1.5547153950  -999.250000 24.698701859
 271.50010000 166.77331543 0.0595862269 1.5431407690  -999.250000 23.769298553
 271.60010000 166.71615601 0.0608179644 1.5359379053  -999.250000 23.059991837
 271.70010000 166.85926819 0.0647795275 1.5298880339  -999.250000 22.982303619
 271.80010000 166.82481384 0.0653040931 1.5278214216  -999.250000 23.630773544
 271.90010000 166.25819397 0.0643998012 1.5322086811  -999.250000 24.762781143
 272.00010000 165.20083618 0.0651981905 1.5439347029  -999.250000 26.041927338
 272.10010000 163.92163086 0.0673817471 1.5617219210  -999.250000 27.299650192
 272.20010000 162.66233826 0.0651223138 1.5716612339  -999.250000 28.358196259
 272.30010000 161.76022339 0.0594382510 1.5699156523  -999.250000 29.040359497
 272.40010000 161.49610901 0.0566955693 1.5645769835  -999.250000 29.262176514
 272.50010000 161.76222229 0.0592661537 1.5595279932  -999.250000 29.311849594
