# LAS format log file from PETREL
# Project units are specified as depth units
#==================================================================
~Version information
VERS.   2.0:
WRAP.   NO:
#==================================================================
~Well
STRT .m      48.200100000 :
STOP .m      3124.0001000 :
STEP .m     0.10000000 :
NULL .        -999.250000 :
COMP.           : COMPANY
WELL.  F02-01   : WELL
FLD.            : FIELD
LOC.            : LOCATION
SRVC.           : SERVICE COMPANY
DATE.  2023-08-04 09:51:40   : Log Export Date {yyyy-MM-dd HH:mm:ss}
PROV.           : PROVINCE
UWI.   8727   : UNIQUE WELL ID
API.            : API NUMBER
#==================================================================
~Curve
DEPT .m                   : DEPTH
DT .us/ft                 : DT
DRHO .g/cm3               : DRHO
RHOB .g/cm3               : RHOB
NPHI .m3/m3               : NPHI
GR .gAPI                  : GR
~Parameter
#==================================================================
~Ascii
# ...
 833.60010000 135.29486084 0.0467719994 2.2407150269  -999.250000 52.888435364
 833.70010000 135.54968262 0.0451199971 2.2389008999  -999.250000 53.084953308
 833.80010000 135.94845581 0.0464329980 2.2393651009  -999.250000 53.176124573
 833.90010000 136.39318848 0.0463190004 2.2386209965  -999.250000 52.639663696
 834.00010000 136.54025269 0.0420680009 2.2364029884  -999.250000 52.545867920
 834.10010000 136.43270874 0.0363259986 2.2339940071  -999.250000 52.956733704
 834.20010000 136.34603882 0.0319060013 2.2311670780  -999.250000 53.060920715
 834.30010000 136.30462646 0.0261760000 2.2259659767  -999.250000 53.078529358
 834.40010000 136.24468994 0.0211539995 2.2205920219  -999.250000 53.448249817
 834.50010000 136.16473389 0.0235549994 2.2203559875  -999.250000 54.234848022
 834.60010000 136.07284546 0.0315029994 2.2251150608  -999.250000 55.257423401
 834.70010000 135.96978760 0.0393499993 2.2322518826  -999.250000 56.242599487
 834.80010000 135.83782959 0.0429490022 2.2387337685  -999.250000 56.929824829
 834.90010000 135.65774536 0.0396570005 2.2390959263  -999.250000 57.081192017
 835.00010000 135.42929077 0.0318909995 2.2332339287  -999.250000 56.555297852
 835.10010000 135.18762207 0.0251620002 2.2258830070  -999.250000 55.539604187
 835.20010000 134.96478271 0.0202689990 2.2159171104  -999.250000 54.796157837
 835.30010000 134.81201172 0.0153979994 2.2040281296  -999.250000 54.630439758
 835.40010000 134.81231689 0.0119090006 2.1989369392  -999.250000 54.545074463
 835.50010000 134.97586060 0.0115080001 2.2012829781  -999.250000 54.498611450
 835.60010000 135.23693848 0.0148100005 2.2055220604  -999.250000 54.787300110
 835.70010000 135.50833130 0.0205179993 2.2089910507  -999.250000 55.320655823
 835.80010000 135.76889038 0.0267319996 2.2116329670  -999.250000 55.861137390
 835.90010000 136.05612183 0.0330579989 2.2175071239  -999.250000 56.150329590
 836.00010000 136.39004517 0.0399889983 2.2295558453  -999.250000 56.078536987
 836.10010000 136.73425293 0.0442619994 2.2401599884  -999.250000 55.814361572
 836.20010000 136.95901489 0.0399420001 2.2385978699  -999.250000 55.578811646
 836.30010000 136.95504761 0.0267700013 2.2268500328  -999.250000 55.300743103
 836.40010000 136.77627563 0.0129849995 2.2120559216  -999.250000 54.770545959
 836.50010000 136.55950928 0.0076970002 2.2003080845  -999.250000 53.915084839
 836.60010000 136.33569336 0.0106350007 2.1959590912  -999.250000 52.931594849
 836.70010000 136.09530640 0.0177289993 2.1998829842  -999.250000 52.086883545
 836.80010000 135.81805420 0.0272160005 2.2098259926  -999.250000 51.562995911
 836.90010000 135.51132202 0.0375909992 2.2223701477  -999.250000 51.437225342
 837.00010000 135.22171021 0.0443860032 2.2323260307  -999.250000 51.186058044
 837.10010000 134.94500732 0.0431829989 2.2345299721  -999.250000 50.343887329
 837.20010000 134.63314819 0.0352190025 2.2272469997  -999.250000 49.567893982
 837.30010000 134.37213135 0.0256099999 2.2173421383  -999.250000 49.691215515
 837.40010000 134.29220581 0.0200149994 2.2139980793  -999.250000 50.536254883
 837.50010000 134.35009766 0.0221790001 2.2180190086  -999.250000 51.198478699
 837.60010000 134.51165771 0.0277779996 2.2229590416  -999.250000 51.400459290
 837.70010000 134.80770874 0.0297839995 2.2241539955  -999.250000 51.682952881
 837.80010000 135.18017578 0.0284950007 2.2239489555  -999.250000 52.322395325
 837.90010000 135.46841431 0.0267789997 2.2238969803  -999.250000 53.244560242
 838.00010000 135.57565308 0.0259029996 2.2219688892  -999.250000 54.106666565
 838.10010000 135.59326172 0.0265820008 2.2181289196  -999.250000 54.534233093
 838.20010000 135.55279541 0.0270819999 2.2141959667  -999.250000 54.662551880
 838.30010000 135.44012451 0.0260310005 2.2122428417  -999.250000 54.930229187
 838.40010000 135.37579346 0.0255599990 2.2133669853  -999.250000 55.460266113
 838.50010000 135.50570679 0.0279470012 2.2175779343  -999.250000 55.854232788
 838.60010000 135.81616211 0.0313780010 2.2221210003  -999.250000 55.855720520
 838.70010000 136.15203857 0.0310820006 2.2219998837  -999.250000 55.824142456
 838.80010000 136.43240356 0.0264209993 2.2160589695  -999.250000 55.980644226
 838.90010000 136.64779663 0.0217400007 2.2091808319  -999.250000 56.246009827
 839.00010000 136.75210571 0.0211539995 2.2077989578  -999.250000 56.651313782
 839.10010000 136.79455566 0.0252759997 2.2130510807  -999.250000 56.945854187
 839.20010000 136.89749146 0.0303610004 2.2193229198  -999.250000 56.940353394
 839.30010000 137.12722778 0.0296069998 2.2176339626  -999.250000 57.025810242
 839.40010000 137.42031860 0.0256120004 2.2117571831  -999.250000 57.749847412
 839.50010000 137.68115234 0.0260240007 2.2118210793  -999.250000 59.010513306
 839.60010000 137.85424805 0.0350219980 2.2230620384  -999.250000 59.709564209
 839.70010000 137.94506836 0.0458049998 2.2383430004  -999.250000 59.380187988
 839.80010000 137.99072266 0.0502109975 2.2479829788  -999.250000 58.571708679
 839.90010000 137.99145508 0.0450429991 2.2439250946  -999.250000 58.275245667
 840.00010000 137.94427490 0.0340110026 2.2310039997  -999.250000 58.205871582
 840.10010000 137.85842896 0.0221779998 2.2186799049  -999.250000 57.621406555
 840.20010000 137.69979858 0.0128339995 2.2096297741  -999.250000 57.079444885
 840.30010000 137.46276855 0.0080459993 2.2049541473  -999.250000 57.096069336
 840.40010000 137.18505859 0.0087759998 2.2063238621  -999.250000 57.507591248
 840.50010000 136.90170288 0.0182779990 2.2168450356  -999.250000 57.588607788
 840.60010000 136.60971069 0.0304699987 2.2296509743  -999.250000 56.980079651
 840.70010000 136.29602051 0.0358149968 2.2348539829  -999.250000 55.781219482
 840.80010000 136.01126099 0.0411319993 2.2413949966  -999.250000 54.489372253
 840.90010000 135.77850342 0.0479199998 2.2504432201  -999.250000 53.687934875
 841.00010000 135.58139038 0.0486800000 2.2520740032  -999.250000 53.736259460
 841.10010000 135.38519287 0.0486209989 2.2492539883  -999.250000 53.954689026
 841.20010000 135.19616699 0.0506870002 2.2468550205  -999.250000 53.905258179
 841.30010000 135.04928589 0.0490999967 2.2431979179  -999.250000 53.860084534
 841.40010000 134.94006348 0.0441419967 2.2375528812  -999.250000 54.075492859
 841.50010000 134.83239746 0.0414690003 2.2342400551  -999.250000 54.476737976
 841.60010000 134.69287109 0.0461659990 2.2399189472  -999.250000 54.814407349
 841.70010000 134.52136230 0.0495840013 2.2455379963  -999.250000 54.685455322
 841.80010000 134.33215332 0.0466969982 2.2444069386  -999.250000 54.218727112
 841.90010000 134.12307739 0.0463309996 2.2446298599  -999.250000 54.176574707
 842.00010000 133.92443848 0.0485229976 2.2448048592  -999.250000 54.459579468
 842.10010000 133.79522705 0.0457809977 2.2390999794  -999.250000 54.587234497
 842.20010000 133.80041504 0.0336179994 2.2297871113  -999.250000 54.732215881
 842.30010000 133.95855713 0.0208120011 2.2229609489  -999.250000 54.987457275
 842.40010000 134.16223145 0.0186669994 2.2222909927  -999.250000 55.116249084
 842.50010000 134.21392822 0.0238869991 2.2260689735  -999.250000 54.757209778
 842.60010000 134.12619019 0.0301869996 2.2299950123  -999.250000 53.930839539
 842.70010000 134.06738281 0.0339180008 2.2302870750  -999.250000 53.181549072
 842.80010000 133.94662476 0.0333539993 2.2267560959  -999.250000 53.148284912
 842.90010000 133.67904663 0.0316659994 2.2209851742  -999.250000 53.910224915
 843.00010000 133.38867188 0.0347540006 2.2154469490  -999.250000 54.831924438
 843.10010000 133.40145874 0.0411419980 2.2127528191  -999.250000 55.559089661
 843.20010000 133.71685791 0.0443040021 2.2087290287  -999.250000 56.163436890
 843.30010000 133.85214233 0.0407120027 2.1961951256  -999.250000 56.806907654
 843.40010000 133.74523926 0.0374500006 2.1849389076  -999.250000 56.752281189
 843.50010000 133.62023926 0.0415089987 2.1864209175  -999.250000 55.810821533
 843.60010000 133.69000244 0.0479709990 2.1943700314  -999.250000 55.261772156
 843.70010000 134.09469604 0.0486800000 2.2003290653  -999.250000 54.872734070
