# LAS format log file from PETREL
# Project units are specified as depth units
#==================================================================
~Version information
VERS.   2.0:
WRAP.   NO:
#==================================================================
~Well
STRT .m      48.200100000 :
STOP .m      3124.0001000 :
STEP .m     0.10000000 :
NULL .        -999.250000 :
COMP.           : COMPANY
WELL.  F02-01   : WELL
FLD.            : FIELD
LOC.            : LOCATION
SRVC.           : SERVICE COMPANY
DATE.  2023-08-04 09:51:40   : Log Export Date {yyyy-MM-dd HH:mm:ss}
PROV.           : PROVINCE
UWI.   8727   : UNIQUE WELL ID
API.            : API NUMBER
#==================================================================
~Curve
DEPT .m                   : DEPTH
DT .us/ft                 : DT
DRHO .g/cm3               : DRHO
RHOB .g/cm3               : RHOB
NPHI .m3/m3               : NPHI
GR .gAPI                  : GR
~Parameter
#==================================================================
~Ascii
# ...
 2353.4001000 108.60729980 0.0403550006 2.3868479729  -999.250000 89.550003052
 2353.5001000 109.32183838 0.0359160006 2.3956019878  -999.250000 89.354309082
 2353.6001000 109.93440247 0.0391689986 2.4120590687  -999.250000 89.737503052
 2353.7001000 110.23927307 0.0477939993 2.4259040356  -999.250000 90.452743530
 2353.8001000 110.41485596 0.0524230003 2.4279708862  -999.250000 90.756225586
 2353.9001000 110.60064697 0.0540820025 2.4214208126  -999.250000 90.108413696
 2354.0001000 110.81851196 0.0583549999 2.4131932259  -999.250000 88.751556396
 2354.1001000 111.03765869 0.0634199977 2.4039020538  -999.250000 87.469604492
 2354.2001000 111.30964661 0.0605939999 2.3918910027  -999.250000 86.665496826
 2354.3001000 111.63694763 0.0528089963 2.3814871311  -999.250000 86.002456665
 2354.4001000 111.89530945 0.0476759970 2.3766629696  -999.250000 85.221771240
 2354.5001000 111.88554382 0.0402649976 2.3718111515  -999.250000 85.040451050
 2354.6001000 111.36613464 0.0318289995 2.3651690483  -999.250000 86.004760742
 2354.7001000 110.10399628 0.0286350008 2.3636507988  -999.250000 87.752639771
 2354.8001000 108.21517944 0.0259389989 2.3702538013  -999.250000 89.360076904
 2354.9001000 106.28627777 0.0225970000 2.3800830841  -999.250000 90.199722290
 2355.0001000 104.71662903 0.0237029996 2.3869180679  -999.250000 90.283935547
 2355.1001000 103.31984711 0.0286410004 2.3907380104  -999.250000 89.833404541
 2355.2001000 102.34570313 0.0348180011 2.3947319984  -999.250000 88.972045898
 2355.3001000 102.28163147 0.0423769988 2.4016869068  -999.250000 87.714279175
 2355.4001000 102.82214355 0.0522029996 2.4126360416  -999.250000 86.366516113
 2355.5001000 103.82963562 0.0582359992 2.4214050770  -999.250000 85.895996094
 2355.6001000 105.31372070 0.0527690016 2.4188821316  -999.250000 86.873672485
 2355.7001000 106.84634399 0.0382960029 2.4040639400  -999.250000 88.451889038
 2355.8001000 108.19921875 0.0268290006 2.3897709846  -999.250000 89.632873535
 2355.9001000 109.41567993 0.0296950005 2.3883490562  -999.250000 90.156448364
 2356.0001000 110.46023560 0.0480870008 2.3966889381  -999.250000 90.284454346
 2356.1001000 111.31608582 0.0695390031 2.4005777836  -999.250000 90.250503540
 2356.2001000 112.07394409 0.0812299997 2.3913850784  -999.250000 90.129302979
 2356.3001000 112.79400635 0.0817399994 2.3731870651  -999.250000 89.934417725
 2356.4001000 113.47404480 0.0759359971 2.3562059402  -999.250000 89.584152222
 2356.5001000 113.99348450 0.0665879995 2.3452880383  -999.250000 89.031372070
 2356.6001000 113.98190308 0.0506809987 2.3374619484  -999.250000 88.365951538
 2356.7001000 113.04202271 0.0374779999 2.3339500427  -999.250000 88.081069946
 2356.8001000 111.24435425 0.0369000025 2.3379380703  -999.250000 88.500289917
 2356.9001000 109.05667877 0.0441999994 2.3492939472  -999.250000 89.413528442
 2357.0001000 106.62628174 0.0447610021 2.3608150482  -999.250000 89.687530518
 2357.1001000 103.84492493 0.0331269987 2.3672890663  -999.250000 88.673385620
 2357.2001000 100.49013519 0.0222900007 2.3744220734  -999.250000 87.285140991
 2357.3001000 96.599716187 0.0220689997 2.3877909184  -999.250000 86.207214355
 2357.4001000 92.557907104 0.0302579999 2.4063811302  -999.250000 85.270416260
 2357.5001000 88.894012451 0.0365449972 2.4250180721  -999.250000 83.797195435
 2357.6001000 85.762931824 0.0316359997 2.4379818439  -999.250000 81.619277954
 2357.7001000 83.128059387 0.0153310001 2.4437270164  -999.250000 79.125701904
 2357.8001000 81.242553711 0.0017660002 2.4497280121  -999.250000 76.748992920
 2357.9001000 80.541763306 -0.001727000 2.4643511772  -999.250000 75.174865723
 2358.0001000 81.078979492 0.0010550000 2.4882509708  -999.250000 74.814163208
 2358.1001000 82.917289734 0.0074580000 2.5009088516  -999.250000 75.961074829
 2358.2001000 86.135635376 0.0112990001 2.4952561855  -999.250000 78.241470337
 2358.3001000 90.578811646 0.0062259999 2.4817547798  -999.250000 80.907989502
 2358.4001000 95.808685303 0.0016300000 2.4628860950  -999.250000 83.406967163
 2358.5001000 101.45918274 0.0042429999 2.4375510216  -999.250000 85.579177856
 2358.6001000 107.56535339 0.0116140004 2.4062409401  -999.250000 87.549545288
 2358.7001000 112.33290100 0.0268540010 2.3784389496  -999.250000 89.472442627
 2358.8001000 114.99961853 0.0429110005 2.3586399555  -999.250000 91.247421265
 2358.9001000 116.52527618 0.0449460000 2.3428678513  -999.250000 92.626678467
 2359.0001000 117.12135315 0.0410210006 2.3459570408  -999.250000 94.063262939
 2359.1001000 116.82929993 0.0426160023 2.3676509857  -999.250000 95.535659790
 2359.2001000 115.95489502 0.0476479977 2.3856189251  -999.250000 96.207061768
 2359.3001000 114.72196960 0.0476129986 2.3891119957  -999.250000 96.603790283
 2359.4001000 113.22030640 0.0405529998 2.3830389977  -999.250000 97.301055908
 2359.5001000 111.30621338 0.0327820033 2.3749580383  -999.250000 97.680313110
 2359.6001000 109.76116943 0.0290420000 2.3701078892  -999.250000 96.827163696
 2359.7001000 109.23951721 0.0307599995 2.3709008694  -999.250000 94.720565796
 2359.8001000 109.30734253 0.0396899991 2.3784990311  -999.250000 92.164276123
 2359.9001000 109.44586945 0.0461440012 2.3865530491  -999.250000 89.968078613
 2360.0001000 109.56372070 0.0408520028 2.3873069286  -999.250000 88.405090332
 2360.1001000 110.06361389 0.0302430000 2.3798511028  -999.250000 87.442199707
 2360.2001000 110.72178650 0.0239799991 2.3720061779  -999.250000 86.783874512
 2360.3001000 110.91613770 0.0247750003 2.3715171814  -999.250000 86.101303101
 2360.4001000 110.69883728 0.0288399998 2.3739659786  -999.250000 85.865539551
 2360.5001000 110.64900208 0.0340970010 2.3761370182  -999.250000 86.430572510
 2360.6001000 111.24542236 0.0414609984 2.3807871342  -999.250000 87.415405273
 2360.7001000 112.10350037 0.0503120013 2.3880329132  -999.250000 88.425949097
 2360.8001000 112.83073425 0.0592009984 2.3961570263  -999.250000 88.810134888
 2360.9001000 113.53884888 0.0666100010 2.4035978317  -999.250000 88.069351196
 2361.0001000 114.36131287 0.0684369951 2.4085390568  -999.250000 87.433349609
 2361.1001000 115.27681732 0.0650940016 2.4088301659  -999.250000 88.008346558
 2361.2001000 116.06321716 0.0644489974 2.4032261372  -999.250000 89.048309326
 2361.3001000 116.49015808 0.0637330040 2.3901669979  -999.250000 89.682983398
 2361.4001000 116.40125275 0.0576450005 2.3732328415  -999.250000 89.732009888
 2361.5001000 115.89308167 0.0520079993 2.3641088009  -999.250000 89.747787476
 2361.6001000 115.16746521 0.0529339984 2.3664340973  -999.250000 89.573913574
 2361.7001000 114.39459229 0.0617869981 2.3755860329  -999.250000 88.671737671
 2361.8001000 113.66331482 0.0715700015 2.3833229542  -999.250000 87.594299316
 2361.9001000 113.13204956 0.0723759979 2.3807730675  -999.250000 87.257232666
 2362.0001000 112.93286133 0.0614500009 2.3646149635  -999.250000 88.046463013
 2362.1001000 112.78407288 0.0549030006 2.3489918709  -999.250000 88.940856934
 2362.2001000 112.61463928 0.0583300032 2.3428368568  -999.250000 89.294464111
 2362.3001000 112.71717834 0.0593490005 2.3415730000  -999.250000 89.430053711
 2362.4001000 113.21745300 0.0514839999 2.3400430679  -999.250000 89.571411133
 2362.5001000 114.14424133 0.0384570025 2.3398799896  -999.250000 89.731857300
 2362.6001000 115.43527222 0.0295639988 2.3461019993  -999.250000 89.864425659
 2362.7001000 116.86183167 0.0287960004 2.3534388542  -999.250000 89.949203491
 2362.8001000 118.29643250 0.0329560004 2.3524432182  -999.250000 90.003280640
 2362.9001000 119.71432495 0.0362580009 2.3404021263  -999.250000 90.057281494
 2363.0001000 121.09219360 0.0374879986 2.3246731758  -999.250000 90.126419067
 2363.1001000 122.18676758 0.0385410003 2.3115901947  -999.250000 90.207504272
 2363.2001000 122.56193542 0.0399729982 2.3006620407  -999.250000 90.294433594
 2363.3001000 122.30409241 0.0453389995 2.2934570313  -999.250000 90.337326050
 2363.4001000 121.74580383 0.0559929982 2.2915470600  -999.250000 90.131683350
 2363.5001000 120.97933960 0.0643659979 2.2894740105  -999.250000 89.549728394
