# LAS format log file from PETREL
# Project units are specified as depth units
#==================================================================
~Version information
VERS.   2.0:
WRAP.   NO:
#==================================================================
~Well
STRT .m      48.200100000 :
STOP .m      3124.0001000 :
STEP .m     0.10000000 :
NULL .        -999.250000 :
COMP.           : COMPANY
WELL.  F02-01   : WELL
FLD.            : FIELD
LOC.            : LOCATION
SRVC.           : SERVICE COMPANY
DATE.  2023-08-04 09:51:40   : Log Export Date {yyyy-MM-dd HH:mm:ss}
PROV.           : PROVINCE
UWI.   8727   : UNIQUE WELL ID
API.            : API NUMBER
#==================================================================
~Curve
DEPT .m                   : DEPTH
DT .us/ft                 : DT
DRHO .g/cm3               : DRHO
RHOB .g/cm3               : RHOB
NPHI .m3/m3               : NPHI
GR .gAPI                  : GR
~Parameter
#==================================================================
~Ascii
# ...
 2169.8001000 118.96623230 0.0330430008 2.3681211472  -999.250000 91.014816284
 2169.9001000 119.46913147 0.0267679989 2.3857328892  -999.250000 89.716247559
 2170.0001000 120.42582703 0.0194750000 2.3998339176  -999.250000 89.233001709
 2170.1001000 121.56236267 0.0170580000 2.4064650536  -999.250000 89.535781860
 2170.2001000 122.87896729 0.0147010004 2.4059870243  -999.250000 90.317749023
 2170.3001000 124.64428711 0.0095549999 2.4011340141  -999.250000 90.910369873
 2170.4001000 126.89174652 0.0061100000 2.3941230774  -999.250000 90.774047852
 2170.5001000 128.44528198 0.0138119999 2.3858869076  -999.250000 90.740600586
 2170.6001000 128.72378540 0.0287889987 2.3700110912  -999.250000 91.596679688
 2170.7001000 128.55221558 0.0345019996 2.3389251232  -999.250000 93.097091675
 2170.8001000 128.48364258 0.0328829996 2.3138029575  -999.250000 94.749755859
 2170.9001000 128.64059448 0.0325700007 2.3110899925  -999.250000 95.961090088
 2171.0001000 128.91653442 0.0336179994 2.3132050037  -999.250000 96.451248169
 2171.1001000 129.31723022 0.0316679999 2.3110458851  -999.250000 96.658081055
 2171.2001000 129.85632324 0.0248029996 2.3056969643  -999.250000 97.290695190
 2171.3001000 130.43264771 0.0180820003 2.3005740643  -999.250000 98.522750854
 2171.4001000 130.86767578 0.0144040007 2.2955548763  -999.250000 100.09133911
 2171.5001000 131.01910400 0.0137480004 2.2892909050  -999.250000 101.61079407
 2171.6001000 130.98583984 0.0144809997 2.2837181091  -999.250000 102.91061401
 2171.7001000 130.85296631 0.0154709993 2.2798700333  -999.250000 103.90167236
 2171.8001000 130.66244507 0.0160049964 2.2780249119  -999.250000 104.57592773
 2171.9001000 130.46777344 0.0160900000 2.2799189091  -999.250000 105.14283752
 2172.0001000 130.28408813 0.0185580011 2.2866101265  -999.250000 105.69662476
 2172.1001000 130.09344482 0.0264489986 2.2966659069  -999.250000 106.10325623
 2172.2001000 129.85873413 0.0354529992 2.3073279858  -999.250000 106.20323181
 2172.3001000 129.52426147 0.0402439982 2.3141398430  -999.250000 106.06198120
 2172.4001000 129.06875610 0.0393860005 2.3129928112  -999.250000 105.81333923
 2172.5001000 128.54595947 0.0370850004 2.3095328808  -999.250000 104.99398804
 2172.6001000 128.03643799 0.0366320014 2.3091850281  -999.250000 103.50041199
 2172.7001000 127.63645935 0.0367690027 2.3090429306  -999.250000 102.17073059
 2172.8001000 127.38388062 0.0355270021 2.3044140339  -999.250000 101.02285767
 2172.9001000 127.30177307 0.0317270011 2.2961440086  -999.250000 100.11447144
 2173.0001000 127.35433960 0.0251270011 2.2918069363  -999.250000 100.31878662
 2173.1001000 127.43385315 0.0166880004 2.2940349579  -999.250000 101.22523499
 2173.2001000 127.44850159 0.0096590007 2.2988181114  -999.250000 101.14625549
 2173.3001000 127.39343262 0.0076979999 2.3016898632  -999.250000 99.206939697
 2173.4001000 127.24626160 0.0101180002 2.3013160229  -999.250000 96.602874756
 2173.5001000 126.97105408 0.0126879998 2.2987370491  -999.250000 95.353973389
 2173.6001000 126.60350800 0.0130960001 2.2943701744  -999.250000 95.580245972
 2173.7001000 126.13529968 0.0113950009 2.2909309864  -999.250000 96.474288940
 2173.8001000 125.49172974 0.0094969999 2.2917580605  -999.250000 97.565490723
 2173.9001000 124.58313751 0.0096950000 2.2951159477  -999.250000 98.626144409
 2174.0001000 123.18763733 0.0118710017 2.2969222069  -999.250000 99.276382446
 2174.1001000 121.21345520 0.0132679995 2.2960848808  -999.250000 99.089691162
 2174.2001000 119.27729797 0.0123840002 2.2945001125  -999.250000 98.102523804
 2174.3001000 117.79629517 0.0107180001 2.2935318947  -999.250000 96.449371338
 2174.4001000 116.40759277 0.0113199996 2.2917270660  -999.250000 94.120956421
 2174.5001000 115.02272034 0.0149739999 2.2893610001  -999.250000 91.613769531
 2174.6001000 113.89425659 0.0187660009 2.2891650200  -999.250000 89.448638916
 2174.7001000 113.19079590 0.0183659997 2.2935819626  -999.250000 87.865661621
 2174.8001000 112.72543335 0.0124420002 2.3016707897  -999.250000 87.319198608
 2174.9001000 112.03421021 0.0058189998 2.3125681877  -999.250000 87.788681030
 2175.0001000 110.80198669 0.0043730000 2.3284239769  -999.250000 88.691741943
 2175.1001000 109.04328918 0.0073759998 2.3483941555  -999.250000 89.606979370
 2175.2001000 107.14208984 0.0100500006 2.3654527664  -999.250000 90.574325562
 2175.3001000 105.63014221 0.0109719997 2.3724169731  -999.250000 91.461883545
 2175.4001000 104.99258423 0.0102440007 2.3727149963  -999.250000 91.592758179
 2175.5001000 105.19269562 0.0085209999 2.3747320175  -999.250000 90.926162720
 2175.6001000 105.79621887 0.0061300001 2.3801531792  -999.250000 90.325622559
 2175.7001000 106.50737000 0.0038520000 2.3870558739  -999.250000 89.816864014
 2175.8001000 107.27064514 0.0029970000 2.3940749168  -999.250000 88.891647339
 2175.9001000 107.94027710 0.0046820003 2.4017109871  -999.250000 87.822601318
 2176.0001000 108.55229187 0.0087219998 2.4093821049  -999.250000 87.247390747
 2176.1001000 109.44062805 0.0143649997 2.4130420685  -999.250000 86.840026855
 2176.2001000 110.89042664 0.0195620004 2.4085638523  -999.250000 85.683517456
 2176.3001000 112.83125305 0.0206010006 2.3974330425  -999.250000 84.285293579
 2176.4001000 114.86814880 0.0182850007 2.3849661350  -999.250000 83.712783813
 2176.5001000 116.55372620 0.0187950004 2.3757560253  -999.250000 84.137161255
 2176.6001000 117.37329102 0.0251829997 2.3724389076  -999.250000 85.641799927
 2176.7001000 117.26521301 0.0325989984 2.3720171452  -999.250000 87.773071289
 2176.8001000 116.84934998 0.0341899991 2.3676002026  -999.250000 89.506805420
 2176.9001000 116.55500793 0.0287420005 2.3568329811  -999.250000 90.360076904
 2177.0001000 116.44665527 0.0201249998 2.3439860344  -999.250000 90.792373657
 2177.1001000 116.49179077 0.0121999998 2.3341841698  -999.250000 91.533874512
 2177.2001000 116.77490234 0.0072360002 2.3289179802  -999.250000 92.569107056
 2177.3001000 117.29168701 0.0049230000 2.3283710480  -999.250000 93.297698975
 2177.4001000 117.83941650 0.0036750000 2.3331329823  -999.250000 93.283172607
 2177.5001000 118.16624451 0.0043980000 2.3410449028  -999.250000 93.097244263
 2177.6001000 118.23202515 0.0078090001 2.3489120007  -999.250000 93.358139038
 2177.7001000 118.16004944 0.0127139995 2.3551239967  -999.250000 94.021911621
 2177.8001000 117.99630737 0.0170339998 2.3595240116  -999.250000 94.746185303
 2177.9001000 117.68812561 0.0200490002 2.3632481098  -999.250000 95.153198242
 2178.0001000 117.16735840 0.0225240011 2.3676710129  -999.250000 94.960372925
 2178.1001000 116.44055176 0.0257390011 2.3700120449  -999.250000 94.540206909
 2178.2001000 115.60592651 0.0287790000 2.3667438030  -999.250000 94.307861328
 2178.3001000 114.73005676 0.0287670009 2.3562128544  -999.250000 94.247009277
 2178.4001000 113.84368134 0.0234629996 2.3473029137  -999.250000 93.484207153
 2178.5001000 113.01655579 0.0151319997 2.3458540440  -999.250000 91.965164185
 2178.6001000 112.37185669 0.0092980005 2.3481588364  -999.250000 90.884414673
 2178.7001000 112.01007080 0.0071840002 2.3489789963  -999.250000 90.598449707
 2178.8001000 111.86558533 0.0065990002 2.3476779461  -999.250000 90.746582031
 2178.9001000 111.77598572 0.0058010002 2.3475191593  -999.250000 91.227142334
 2179.0001000 111.59709167 0.0042350003 2.3474819660  -999.250000 91.573654175
 2179.1001000 111.26190948 0.0023110001 2.3453631401  -999.250000 91.395217896
 2179.2001000 110.69454956 0.0011450000 2.3414540291  -999.250000 90.703155518
 2179.3001000 109.84458923 0.0020109999 2.3395669460  -999.250000 89.637313843
 2179.4001000 108.83558655 0.0051989998 2.3424527645  -999.250000 88.412048340
 2179.5001000 108.00137329 0.0107089998 2.3509089947  -999.250000 87.359588623
 2179.6001000 107.53152466 0.0182419997 2.3621890545  -999.250000 87.044830322
 2179.7001000 107.37648773 0.0265020002 2.3735659122  -999.250000 87.693618774
 2179.8001000 107.47137451 0.0331249982 2.3902499676  -999.250000 89.048065186
 2179.9001000 107.86729431 0.0391440019 2.4061520100  -999.250000 90.199554443
