# LAS format log file from PETREL
# Project units are specified as depth units
#==================================================================
~Version information
VERS.   2.0:
WRAP.   NO:
#==================================================================
~Well
STRT .m      48.200100000 :
STOP .m      3124.0001000 :
STEP .m     0.10000000 :
NULL .        -999.250000 :
COMP.           : COMPANY
WELL.  F02-01   : WELL
FLD.            : FIELD
LOC.            : LOCATION
SRVC.           : SERVICE COMPANY
DATE.  2023-08-04 09:51:40   : Log Export Date {yyyy-MM-dd HH:mm:ss}
PROV.           : PROVINCE
UWI.   8727   : UNIQUE WELL ID
API.            : API NUMBER
#==================================================================
~Curve
DEPT .m                   : DEPTH
DT .us/ft                 : DT
DRHO .g/cm3               : DRHO
RHOB .g/cm3               : RHOB
NPHI .m3/m3               : NPHI
GR .gAPI                  : GR
~Parameter
#==================================================================
~Ascii
# ...
 2924.6001000 113.24242401 0.0643327981 2.4615731239  -999.250000 108.96070099
 2924.7001000 112.92799377 0.0582511686 2.4554672241  -999.250000 108.76471710
 2924.8001000 112.71444702 0.0531881228 2.4553570747  -999.250000 108.63014984
 2924.9001000 112.61174774 0.0492009707 2.4574618340  -999.250000 108.58858490
 2925.0001000 112.65713501 0.0414255634 2.4546406269  -999.250000 108.67840576
 2925.1001000 112.87850952 0.0272234287 2.4462518692  -999.250000 108.82698822
 2925.2001000 113.25032806 0.0136561319 2.4373328686  -999.250000 108.60292816
 2925.3001000 113.68132782 0.0062388098 2.4322342873  -999.250000 108.26332855
 2925.4001000 113.98500061 0.0039934698 2.4318509102  -999.250000 108.37796021
 2925.5001000 113.88560486 0.0056985742 2.4360206127  -999.250000 108.50787354
 2925.6001000 113.48894501 0.0101540778 2.4453125000  -999.250000 108.32295990
 2925.7001000 113.17831421 0.0152368313 2.4583997726  -999.250000 108.22844696
 2925.8001000 113.09737396 0.0194386002 2.4704267979  -999.250000 108.80902863
 2925.9001000 113.08489227 0.0237364043 2.4794459343  -999.250000 109.17990875
 2926.0001000 113.04315948 0.0289864969 2.4870786667  -999.250000 108.16087341
 2926.1001000 113.47665405 0.0304411054 2.4916887283  -999.250000 106.62934875
 2926.2001000 114.23576355 0.0250268560 2.4906191826  -999.250000 106.43231964
 2926.3001000 114.62885284 0.0165280085 2.4849910736  -999.250000 108.26562500
 2926.4001000 114.56750488 0.0242035855 2.4846048355  -999.250000 111.12493896
 2926.5001000 114.28068542 0.0439424738 2.4876301289  -999.250000 113.21049500
 2926.6001000 113.85350800 0.0550188832 2.4837048054  -999.250000 113.55033875
 2926.7001000 112.88697815 0.0542086698 2.4726960659  -999.250000 112.96298218
 2926.8001000 111.48787689 0.0530842505 2.4636349678  -999.250000 112.43157196
 2926.9001000 110.16731262 0.0601957440 2.4631819725  -999.250000 112.12757874
 2927.0001000 109.59839630 0.0596351512 2.4548277855  -999.250000 111.72147369
 2927.1001000 109.84868622 0.0446250774 2.4365665913  -999.250000 110.82660675
 2927.2001000 110.56464386 0.0246080551 2.4243884087  -999.250000 109.21205139
 2927.3001000 111.60219574 0.0086369254 2.4244539738  -999.250000 107.84200287
 2927.4001000 112.84188080 0.0003086260 2.4329130650  -999.250000 107.34723663
 2927.5001000 114.08275604 0.0013219359 2.4465396404  -999.250000 107.52256775
 2927.6001000 114.51616669 0.0209766161 2.4664492607  -999.250000 109.14564514
 2927.7001000 114.11410522 0.0510877334 2.4837553501  -999.250000 112.03850555
 2927.8001000 113.71788788 0.0664054230 2.4787321091  -999.250000 114.76217651
 2927.9001000 113.65821075 0.0645118654 2.4572241306  -999.250000 116.07288361
 2928.0001000 113.74107361 0.0584810786 2.4389286041  -999.250000 116.33832550
 2928.1001000 113.80603790 0.0549310893 2.4365067482  -999.250000 116.98413849
 2928.2001000 113.72821808 0.0549170151 2.4424791336  -999.250000 117.34761810
 2928.3001000 113.51005554 0.0572922416 2.4450638294  -999.250000 116.67945862
 2928.4001000 113.31386566 0.0608708337 2.4427773952  -999.250000 116.14301300
 2928.5001000 113.27011871 0.0593031533 2.4346821308  -999.250000 116.08318329
 2928.6001000 113.35992432 0.0478180088 2.4216909409  -999.250000 115.86632538
 2928.7001000 113.44236755 0.0287032612 2.4129374027  -999.250000 115.27246094
 2928.8001000 113.37931061 0.0115063861 2.4105777740  -999.250000 114.71256256
 2928.9001000 113.12112427 0.0045019677 2.4095749855  -999.250000 114.69653320
 2929.0001000 112.65487671 0.0066386899 2.4091997147  -999.250000 115.50009918
 2929.1001000 111.94795227 0.0161210056 2.4140076637  -999.250000 116.99080658
 2929.2001000 111.07914734 0.0309852492 2.4265418053  -999.250000 118.68727875
 2929.3001000 110.50269318 0.0388892181 2.4369013309  -999.250000 120.24021149
 2929.4001000 110.55066681 0.0354020186 2.4376554489  -999.250000 121.14225769
 2929.5001000 110.98398590 0.0330377258 2.4345562458  -999.250000 121.01927948
 2929.6001000 111.66322327 0.0350489616 2.4363543987  -999.250000 119.88105011
 2929.7001000 112.54667664 0.0367126726 2.4436132908  -999.250000 117.91939545
 2929.8001000 113.53993225 0.0330333821 2.4450790882  -999.250000 115.56982422
 2929.9001000 114.24880981 0.0297785066 2.4423594475  -999.250000 114.10881805
 2930.0001000 114.38562012 0.0328019261 2.4409670830  -999.250000 114.21885681
 2930.1001000 114.29415131 0.0357121788 2.4373981953  -999.250000 114.46527863
 2930.2001000 114.16780853 0.0335802846 2.4327120781  -999.250000 114.77124023
 2930.3001000 114.02198029 0.0281558614 2.4309775829  -999.250000 115.94989777
 2930.4001000 113.81919098 0.0278326292 2.4302084446  -999.250000 117.61297607
 2930.5001000 113.40158844 0.0372840576 2.4327287674  -999.250000 118.81484222
 2930.6001000 112.58306885 0.0541891605 2.4430074692  -999.250000 118.61877441
 2930.7001000 111.46754456 0.0710073635 2.4564540386  -999.250000 117.30836487
 2930.8001000 110.49978638 0.0804830715 2.4700539112  -999.250000 115.21987915
 2930.9001000 110.24091339 0.0801117793 2.4849343300  -999.250000 112.56990814
 2931.0001000 110.54271698 0.0779882520 2.5020978451  -999.250000 109.77709961
 2931.1001000 111.34552765 0.0774121508 2.5237956047  -999.250000 107.25096130
 2931.2001000 112.78274536 0.0735866725 2.5489206314  -999.250000 105.49245453
 2931.3001000 114.36990356 0.0681688413 2.5679867268  -999.250000 104.57155609
 2931.4001000 115.31574249 0.0627218932 2.5712463856  -999.250000 104.26010895
 2931.5001000 115.35499573 0.0540064424 2.5605504513  -999.250000 104.20249176
 2931.6001000 114.85476685 0.0467794463 2.5403695107  -999.250000 104.77068329
 2931.7001000 114.22678375 0.0472640023 2.5147712231  -999.250000 106.38719177
 2931.8001000 113.46813202 0.0518717691 2.4890763760  -999.250000 108.53276825
 2931.9001000 112.57649231 0.0567542315 2.4691920280  -999.250000 110.65499878
 2932.0001000 111.83788300 0.0629685670 2.4608914852  -999.250000 112.26049042
 2932.1001000 111.60230255 0.0721346587 2.4647152424  -999.250000 112.82096863
 2932.2001000 111.70997620 0.0784204379 2.4714725018  -999.250000 112.57263184
 2932.3001000 111.64644623 0.0738451928 2.4713034630  -999.250000 112.26902771
 2932.4001000 111.37482452 0.0608450323 2.4657771587  -999.250000 112.13175964
 2932.5001000 111.25846863 0.0495905019 2.4619956017  -999.250000 112.18528748
 2932.6001000 111.48823547 0.0450151227 2.4620888233  -999.250000 112.35221863
 2932.7001000 111.68875885 0.0429411381 2.4631588459  -999.250000 112.22641754
 2932.8001000 111.49836731 0.0433342010 2.4664351940  -999.250000 111.40193176
 2932.9001000 111.13438416 0.0492222048 2.4744470119  -999.250000 109.85892487
 2933.0001000 111.05979156 0.0487878919 2.4771513939  -999.250000 108.08744812
 2933.1001000 111.50839233 0.0381343476 2.4715611935  -999.250000 106.71215820
 2933.2001000 112.21471405 0.0340271890 2.4716348648  -999.250000 106.30496216
 2933.3001000 112.75569153 0.0471047796 2.4842367172  -999.250000 107.27966309
 2933.4001000 113.16371918 0.0645600706 2.4948580265  -999.250000 109.19496918
 2933.5001000 113.92015076 0.0653624609 2.4852831364  -999.250000 110.91867065
 2933.6001000 115.02661133 0.0535626486 2.4658808708  -999.250000 111.51409149
 2933.7001000 115.86371613 0.0480719581 2.4569509029  -999.250000 110.96659851
 2933.8001000 115.85358429 0.0547016934 2.4593532085  -999.250000 110.15756226
 2933.9001000 115.08159637 0.0684025660 2.4665348530  -999.250000 110.36732483
 2934.0001000 114.15375519 0.0759080127 2.4678032398  -999.250000 111.42454529
 2934.1001000 113.52483368 0.0692064613 2.4576284885  -999.250000 111.71112823
 2934.2001000 113.31229401 0.0537968501 2.4423017502  -999.250000 110.61157990
 2934.3001000 113.37483978 0.0388798304 2.4296083450  -999.250000 109.14482880
 2934.4001000 113.58377838 0.0299029294 2.4215848446  -999.250000 108.61228180
 2934.5001000 113.82566071 0.0327891782 2.4210867882  -999.250000 108.99571991
 2934.6001000 114.08555603 0.0432720035 2.4277567863  -999.250000 108.96344757
 2934.7001000 114.30390167 0.0476203300 2.4346261024  -999.250000 107.81798553
