# LAS format log file from PETREL
# Project units are specified as depth units
#==================================================================
~Version information
VERS.   2.0:
WRAP.   NO:
#==================================================================
~Well
STRT .m      48.200100000 :
STOP .m      3124.0001000 :
STEP .m     0.10000000 :
NULL .        -999.250000 :
COMP.           : COMPANY
WELL.  F02-01   : WELL
FLD.            : FIELD
LOC.            : LOCATION
SRVC.           : SERVICE COMPANY
DATE.  2023-08-04 09:51:40   : Log Export Date {yyyy-MM-dd HH:mm:ss}
PROV.           : PROVINCE
UWI.   8727   : UNIQUE WELL ID
API.            : API NUMBER
#==================================================================
~Curve
DEPT .m                   : DEPTH
DT .us/ft                 : DT
DRHO .g/cm3               : DRHO
RHOB .g/cm3               : RHOB
NPHI .m3/m3               : NPHI
GR .gAPI                  : GR
~Parameter
#==================================================================
~Ascii
# ...
 1404.8001000 150.22244263 0.0266060010 2.1246900558  -999.250000 70.796508789
 1404.9001000 150.10339355 0.0214370005 2.1114881039  -999.250000 70.652648926
 1405.0001000 149.94873047 0.0220870003 2.1060540676  -999.250000 70.300720215
 1405.1001000 149.78710938 0.0294160005 2.1099441051  -999.250000 70.429534912
 1405.2001000 149.62641907 0.0419269986 2.1214609146  -999.250000 71.378997803
 1405.3001000 149.45797729 0.0560550019 2.1359679699  -999.250000 73.237686157
 1405.4001000 149.26004028 0.0663270056 2.1463749409  -999.250000 75.685226440
 1405.5001000 149.03109741 0.0648889989 2.1441400051  -999.250000 77.591201782
 1405.6001000 148.78329468 0.0517490022 2.1331200600  -999.250000 78.339538574
 1405.7001000 148.54370117 0.0364339985 2.1259350777  -999.250000 78.433822632
 1405.8001000 148.35418701 0.0301919989 2.1275439262  -999.250000 78.666854858
 1405.9001000 148.23580933 0.0370160006 2.1361970901  -999.250000 79.434829712
 1406.0001000 148.18041992 0.0499830022 2.1479370594  -999.250000 80.553939819
 1406.1001000 148.15020752 0.0572290011 2.1557080746  -999.250000 81.732315063
 1406.2001000 148.12274170 0.0583919995 2.1587948799  -999.250000 82.235671997
 1406.3001000 148.12469482 0.0611930005 2.1609199047  -999.250000 81.305328369
 1406.4001000 148.19223022 0.0629469976 2.1603751183  -999.250000 79.401351929
 1406.5001000 148.32998657 0.0598829985 2.1549341679  -999.250000 77.845855713
 1406.6001000 148.49951172 0.0551819988 2.1472370625  -999.250000 77.655624390
 1406.7001000 148.66589355 0.0512560010 2.1404500008  -999.250000 78.642333984
 1406.8001000 148.82235718 0.0471780002 2.1334910393  -999.250000 79.795776367
 1406.9001000 148.97222900 0.0416960008 2.1243600845  -999.250000 80.563858032
 1407.0001000 149.12277222 0.0370960012 2.1163511276  -999.250000 81.414596558
 1407.1001000 149.30001831 0.0397699997 2.1156771183  -999.250000 82.516769409
 1407.2001000 149.52981567 0.0496160015 2.1222770214  -999.250000 83.248901367
 1407.3001000 149.79406738 0.0535470024 2.1271688938  -999.250000 83.145553589
 1407.4001000 150.07127380 0.0497509986 2.1283421516  -999.250000 81.793640137
 1407.5001000 150.35302734 0.0483810008 2.1310100555  -999.250000 79.413131714
 1407.6001000 150.59527588 0.0485410020 2.1334121227  -999.250000 77.402328491
 1407.7001000 150.76290894 0.0460480005 2.1327271461  -999.250000 76.336883545
 1407.8001000 150.87712097 0.0434220023 2.1321079731  -999.250000 75.608779907
 1407.9001000 150.97476196 0.0462069996 2.1378829479  -999.250000 75.187454224
 1408.0001000 151.08639526 0.0520329997 2.1466460228  -999.250000 74.988571167
 1408.1001000 151.22811890 0.0534920022 2.1489319801  -999.250000 74.566040039
 1408.2001000 151.41040039 0.0489969999 2.1428849697  -999.250000 73.905654907
 1408.3001000 151.64318848 0.0446990021 2.1366350651  -999.250000 73.010345459
 1408.4001000 151.88940430 0.0463320017 2.1375229359  -999.250000 71.864883423
 1408.5001000 151.92517090 0.0515470020 2.1412060261  -999.250000 71.295379639
 1408.6001000 151.69436646 0.0556440018 2.1429131031  -999.250000 71.424087524
 1408.7001000 151.35342407 0.0569230020 2.1432070732  -999.250000 71.490509033
 1408.8001000 151.05606079 0.0553480014 2.1409909725  -999.250000 70.697738647
 1408.9001000 150.87432861 0.0557260029 2.1393001080  -999.250000 69.230514526
 1409.0001000 150.82467651 0.0634900033 2.1435921192  -999.250000 67.800720215
 1409.1001000 150.92687988 0.0671899989 2.1483299732  -999.250000 67.789428711
 1409.2001000 151.15844727 0.0612869971 2.1484999657  -999.250000 69.321823120
 1409.3001000 151.46170044 0.0526969992 2.1456000805  -999.250000 71.347381592
 1409.4001000 151.68041992 0.0506399982 2.1456449032  -999.250000 73.030456543
 1409.5001000 151.76577759 0.0542389974 2.1485869884  -999.250000 73.943084717
 1409.6001000 151.79341125 0.0562000014 2.1490910053  -999.250000 73.854751587
 1409.7001000 151.81222534 0.0514580011 2.1431860924  -999.250000 73.493621826
 1409.8001000 151.83230591 0.0432570018 2.1348149776  -999.250000 73.520187378
 1409.9001000 151.85806274 0.0386910029 2.1318099499  -999.250000 73.995956421
 1410.0001000 151.88873291 0.0439970009 2.1408259869  -999.250000 74.535415649
 1410.1001000 151.91732788 0.0565579981 2.1560440063  -999.250000 74.651153564
 1410.2001000 151.93579102 0.0684520006 2.1634728909  -999.250000 73.920623779
 1410.3001000 151.94509888 0.0690230057 2.1582438946  -999.250000 72.381423950
 1410.4001000 151.96224976 0.0591310002 2.1463990211  -999.250000 70.694671631
 1410.5001000 152.01751709 0.0518452898 2.1349985600  -999.250000 69.702072144
 1410.6001000 152.10366821 0.0539868474 2.1274676323  -999.250000 69.832511902
 1410.7001000 152.19430542 0.0604435429 2.1238086224  -999.250000 70.809219360
 1410.8001000 152.27838135 0.0591493025 2.1241357327  -999.250000 72.091629028
 1410.9001000 152.36628723 0.0529611930 2.1232719421  -999.250000 72.587394714
 1411.0001000 152.47151184 0.0520568974 2.1185796261  -999.250000 71.925941467
 1411.1001000 152.60275269 0.0583966523 2.1205029488  -999.250000 71.343063354
 1411.2001000 152.71006775 0.0640493482 2.1267008781  -999.250000 71.826919556
 1411.3001000 152.74459839 0.0618671924 2.1257910728  -999.250000 73.147193909
 1411.4001000 152.72024536 0.0535643063 2.1203446388  -999.250000 74.668388367
 1411.5001000 152.67118835 0.0437448211 2.1160743237  -999.250000 75.976783752
 1411.6001000 152.61235046 0.0350496955 2.1132209301  -999.250000 77.089477539
 1411.7001000 152.50303650 0.0307443012 2.1105926037  -999.250000 78.003158569
 1411.8001000 152.30937195 0.0322594829 2.1096439362  -999.250000 78.786949158
 1411.9001000 152.04875183 0.0372430123 2.1135683060  -999.250000 79.632591248
 1412.0001000 151.75614929 0.0460881516 2.1258773804  -999.250000 80.217201233
 1412.1001000 151.45806885 0.0556993894 2.1410937309  -999.250000 80.097213745
 1412.2001000 151.16427612 0.0579747334 2.1451859474  -999.250000 79.282310486
 1412.3001000 150.89738464 0.0557122678 2.1420669556  -999.250000 78.082328796
 1412.4001000 150.69145203 0.0541245863 2.1404886246  -999.250000 76.921707153
 1412.5001000 150.51609802 0.0503088199 2.1369717121  -999.250000 75.962753296
 1412.6001000 150.34545898 0.0432990156 2.1289861202  -999.250000 75.717941284
 1412.7001000 150.16555786 0.0366536453 2.1194837093  -999.250000 76.279205322
 1412.8001000 149.98411560 0.0354372114 2.1151111126  -999.250000 76.264587402
 1412.9001000 149.79476929 0.0404349938 2.1178560257  -999.250000 75.448921204
 1413.0001000 149.61283875 0.0492881425 2.1261076927  -999.250000 74.713424683
 1413.1001000 149.51210022 0.0592999868 2.1374845505  -999.250000 74.390365601
 1413.2001000 149.52745056 0.0663459525 2.1473531723  -999.250000 74.314376831
 1413.3001000 149.60617065 0.0660533011 2.1492710114  -999.250000 74.247764587
 1413.4001000 149.64656067 0.0609610975 2.1430840492  -999.250000 74.162437439
 1413.5001000 149.59397888 0.0544884726 2.1326084137  -999.250000 73.816535950
 1413.6001000 149.47024536 0.0484140739 2.1243374348  -999.250000 72.864509583
 1413.7001000 149.32086182 0.0437966138 2.1217637062  -999.250000 71.860778809
 1413.8001000 149.20013428 0.0415002964 2.1241927147  -999.250000 71.412483215
 1413.9001000 149.17004395 0.0421103872 2.1280663013  -999.250000 71.509605408
 1414.0001000 149.21986389 0.0451449640 2.1322298050  -999.250000 72.029861450
 1414.1001000 149.33250427 0.0474117361 2.1341111660  -999.250000 72.688766479
 1414.2001000 149.53587341 0.0435758382 2.1271238327  -999.250000 72.756538391
 1414.3001000 149.84222412 0.0353652127 2.1140460968  -999.250000 72.006088257
 1414.4001000 150.22190857 0.0292950682 2.1014854908  -999.250000 70.947044373
 1414.5001000 150.59353638 0.0289473440 2.0900554657  -999.250000 70.237983704
 1414.6001000 150.93804932 0.0329280123 2.0810570717  -999.250000 69.510459900
 1414.7001000 151.27917480 0.0370888375 2.0782458782  -999.250000 68.306564331
 1414.8001000 151.62506104 0.0398332551 2.0819501877  -999.250000 67.680786133
 1414.9001000 152.01296997 0.0455113165 2.0930848122  -999.250000 68.147361755
