# LAS format log file from PETREL
# Project units are specified as depth units
#==================================================================
~Version information
VERS.   2.0:
WRAP.   NO:
#==================================================================
~Well
STRT .m      48.200100000 :
STOP .m      3124.0001000 :
STEP .m     0.10000000 :
NULL .        -999.250000 :
COMP.           : COMPANY
WELL.  F02-01   : WELL
FLD.            : FIELD
LOC.            : LOCATION
SRVC.           : SERVICE COMPANY
DATE.  2023-08-04 09:51:40   : Log Export Date {yyyy-MM-dd HH:mm:ss}
PROV.           : PROVINCE
UWI.   8727   : UNIQUE WELL ID
API.            : API NUMBER
#==================================================================
~Curve
DEPT .m                   : DEPTH
DT .us/ft                 : DT
DRHO .g/cm3               : DRHO
RHOB .g/cm3               : RHOB
NPHI .m3/m3               : NPHI
GR .gAPI                  : GR
~Parameter
#==================================================================
~Ascii
# ...
 1211.0001000 145.32073975 0.0737912357 2.0940625668  -999.250000 75.516258240
 1211.1001000 145.69323730 0.0814643353 2.0848641396  -999.250000 73.686370850
 1211.2001000 146.47651672 0.0706188679 2.0728321075  -999.250000 73.626800537
 1211.3001000 146.90420532 0.0582233965 2.0694642067  -999.250000 75.011169434
 1211.4001000 146.65704346 0.0530181974 2.0804920197  -999.250000 76.537307739
 1211.5001000 146.20669556 0.0464675501 2.0963551998  -999.250000 76.902404785
 1211.6001000 145.77975464 0.0440614000 2.1060612202  -999.250000 76.132408142
 1211.7001000 145.29981995 0.0486114435 2.1070830822  -999.250000 74.900421143
 1211.8001000 144.61677551 0.0494841337 2.1073298454  -999.250000 73.927436829
 1211.9001000 143.73281860 0.0453441478 2.1027874947  -999.250000 72.702659607
 1212.0001000 142.77272034 0.0427785628 2.0930306911  -999.250000 71.057174683
 1212.1001000 141.93803406 0.0472635105 2.0915033817  -999.250000 70.182304382
 1212.2001000 141.41720581 0.0534128472 2.0930793285  -999.250000 70.183547974
 1212.3001000 141.38113403 0.0554999150 2.0870041847  -999.250000 70.412780762
 1212.4001000 141.81228638 0.0595499463 2.0791318417  -999.250000 70.643920898
 1212.5001000 142.17645264 0.0642842650 2.0685563087  -999.250000 70.856185913
 1212.6001000 141.95167542 0.0622920021 2.0527148247  -999.250000 71.040451050
 1212.7001000 141.73388672 0.0531601384 2.0407130718  -999.250000 71.246711731
 1212.8001000 141.91268921 0.0407653973 2.0355172157  -999.250000 71.665641785
 1212.9001000 142.41999817 0.0327250361 2.0336480141  -999.250000 72.447303772
 1213.0001000 143.20635986 0.0354502648 2.0368747711  -999.250000 73.291908264
 1213.1001000 144.04719543 0.0474649742 2.0476453304  -999.250000 73.605628967
 1213.2001000 144.56317139 0.0581493154 2.0622425079  -999.250000 73.272338867
 1213.3001000 144.65863037 0.0585755818 2.0706806183  -999.250000 73.336517334
 1213.4001000 144.67161560 0.0484011844 2.0668020248  -999.250000 74.217163086
 1213.5001000 145.17027283 0.0368555486 2.0544145107  -999.250000 74.909309387
 1213.6001000 146.22727966 0.0328410119 2.0405297279  -999.250000 74.856803894
 1213.7001000 147.49946594 0.0401886404 2.0331254005  -999.250000 74.441741943
 1213.8001000 148.66734314 0.0544557273 2.0382907391  -999.250000 74.553993225
 1213.9001000 149.68928528 0.0640843734 2.0527324677  -999.250000 75.640510559
 1214.0001000 150.60729980 0.0638842061 2.0671145916  -999.250000 77.406112671
 1214.1001000 151.35060120 0.0606692173 2.0740370750  -999.250000 79.174301147
 1214.2001000 151.97395325 0.0545121618 2.0737440586  -999.250000 80.488754272
 1214.3001000 152.59877014 0.0437357798 2.0742003918  -999.250000 81.304725647
 1214.4001000 153.13377380 0.0376920402 2.0824050903  -999.250000 81.579666138
 1214.5001000 153.35368347 0.0358778089 2.0963382721  -999.250000 81.598220825
 1214.6001000 153.15792847 0.0307591222 2.1090812683  -999.250000 81.642456055
 1214.7001000 152.76754761 0.0274642929 2.1188662052  -999.250000 81.567642212
 1214.8001000 152.64556885 0.0281263348 2.1240158081  -999.250000 81.370864868
 1214.9001000 153.11357117 0.0281329937 2.1213257313  -999.250000 81.116767883
 1215.0001000 154.05250549 0.0299651641 2.1122131348  -999.250000 80.499397278
 1215.1001000 155.04115295 0.0362996608 2.1039223671  -999.250000 79.795822144
 1215.2001000 155.79347229 0.0434168801 2.1000719070  -999.250000 79.746780396
 1215.3001000 156.20707703 0.0464389846 2.0951650143  -999.250000 80.122856140
 1215.4001000 156.34239197 0.0494869538 2.0891928673  -999.250000 80.106185913
 1215.5001000 156.17985535 0.0588086732 2.0909733772  -999.250000 79.560516357
 1215.6001000 155.75170898 0.0658949167 2.0978651047  -999.250000 79.218757629
 1215.7001000 155.18376160 0.0667471513 2.1050100327  -999.250000 79.483528137
 1215.8001000 154.61749268 0.0707909539 2.1139929295  -999.250000 79.866622925
 1215.9001000 154.07763672 0.0768739134 2.1212289333  -999.250000 80.182395935
 1216.0001000 153.51473999 0.0790298432 2.1207456589  -999.250000 80.072090149
 1216.1001000 152.95547485 0.0785724595 2.1126570702  -999.250000 78.965065002
 1216.2001000 152.36155701 0.0795000717 2.1063065529  -999.250000 77.397773743
 1216.3001000 151.68623352 0.0799805224 2.1069734097  -999.250000 76.572052002
 1216.4001000 150.96899414 0.0748281553 2.1107680798  -999.250000 76.863479614
 1216.5001000 150.25561523 0.0689648613 2.1183893681  -999.250000 77.337738037
 1216.6001000 149.43785095 0.0668910742 2.1296458244  -999.250000 77.536972046
 1216.7001000 148.31222534 0.0641817153 2.1382863522  -999.250000 78.271820068
 1216.8001000 146.92347717 0.0592229590 2.1419930458  -999.250000 79.639167786
 1216.9001000 145.62409973 0.0531600639 2.1415805817  -999.250000 80.936767578
 1217.0001000 144.77127075 0.0472529083 2.1387567520  -999.250000 81.634437561
 1217.1001000 144.56919861 0.0453708768 2.1372835636  -999.250000 81.705558777
 1217.2001000 144.89122009 0.0470043644 2.1372628212  -999.250000 81.577140808
 1217.3001000 145.32070923 0.0469090976 2.1347954273  -999.250000 81.514373779
 1217.4001000 145.62280273 0.0466972105 2.1296632290  -999.250000 80.930351257
 1217.5001000 145.70576477 0.0496040881 2.1243731976  -999.250000 79.663513184
 1217.6001000 145.47151184 0.0537398607 2.1199235916  -999.250000 78.624221802
 1217.7001000 144.95422363 0.0573084317 2.1147150993  -999.250000 78.323143005
 1217.8001000 144.49093628 0.0586666428 2.1051275730  -999.250000 78.282447815
 1217.9001000 144.48782349 0.0571485199 2.0907034874  -999.250000 77.797714233
 1218.0001000 144.94979858 0.0585795678 2.0806980133  -999.250000 76.887351990
 1218.1001000 145.72343445 0.0633162633 2.0790088177  -999.250000 76.167953491
 1218.2001000 146.73899841 0.0633699447 2.0790629387  -999.250000 76.187980652
 1218.3001000 147.72962952 0.0574978776 2.0812468529  -999.250000 77.275154114
 1218.4001000 148.34947205 0.0524979979 2.0908205509  -999.250000 78.905273438
 1218.5001000 148.41871643 0.0538066849 2.1084532738  -999.250000 79.997016907
 1218.6001000 147.79252625 0.0563304760 2.1270403862  -999.250000 79.529441833
 1218.7001000 146.61180115 0.0574808493 2.1426274776  -999.250000 77.811912537
 1218.8001000 145.28584290 0.0624710061 2.1581854820  -999.250000 76.190765381
 1218.9001000 144.19186401 0.0716118589 2.1741809845  -999.250000 75.788475037
 1219.0001000 143.53788757 0.0760615543 2.1843585968  -999.250000 76.653823853
 1219.1001000 143.36686707 0.0663906857 2.1817135811  -999.250000 78.121597290
 1219.2001000 143.49008179 0.0560733192 2.1784503460  -999.250000 79.170265198
 1219.3001000 143.67514038 0.0534915738 2.1820034981  -999.250000 79.273735046
 1219.4001000 143.82534790 0.0483351611 2.1837282181  -999.250000 78.513534546
 1219.5001000 143.61434937 0.0430472866 2.1805024147  -999.250000 77.558662415
 1219.6001000 142.93994141 0.0442907475 2.1781604290  -999.250000 76.829742432
 1219.7001000 142.00816345 0.0508224592 2.1834087372  -999.250000 76.172164917
 1219.8001000 141.20837402 0.0592985190 2.1932082176  -999.250000 74.940490723
 1219.9001000 140.71405029 0.0677995011 2.2021660805  -999.250000 73.362174988
 1220.0001000 140.42872620 0.0757520497 2.2101707458  -999.250000 72.787132263
 1220.1001000 140.28234863 0.0725591928 2.2107186317  -999.250000 73.723182678
 1220.2001000 140.27676392 0.0567008704 2.2019276619  -999.250000 75.317451477
 1220.3001000 140.49084473 0.0465491489 2.1940917969  -999.250000 76.004379272
 1220.4001000 140.84397888 0.0485609770 2.1912207603  -999.250000 75.397018433
 1220.5001000 141.16032410 0.0553352199 2.1898505688  -999.250000 74.245292664
 1220.6001000 141.23179626 0.0609503873 2.1877250671  -999.250000 73.535606384
 1220.7001000 141.20129395 0.0626133382 2.1802682877  -999.250000 73.553634644
 1220.8001000 141.30784607 0.0594331846 2.1653409004  -999.250000 74.051094055
 1220.9001000 141.55361938 0.0477626771 2.1477077007  -999.250000 75.173530579
 1221.0001000 141.84422302 0.0358658992 2.1407039165  -999.250000 76.255661011
 1221.1001000 142.13362122 0.0334434174 2.1501774788  -999.250000 76.588424683
