# LAS format log file from PETREL
# Project units are specified as depth units
#==================================================================
~Version information
VERS.   2.0:
WRAP.   NO:
#==================================================================
~Well
STRT .m      48.200100000 :
STOP .m      3124.0001000 :
STEP .m     0.10000000 :
NULL .        -999.250000 :
COMP.           : COMPANY
WELL.  F02-01   : WELL
FLD.            : FIELD
LOC.            : LOCATION
SRVC.           : SERVICE COMPANY
DATE.  2023-08-04 09:51:40   : Log Export Date {yyyy-MM-dd HH:mm:ss}
PROV.           : PROVINCE
UWI.   8727   : UNIQUE WELL ID
API.            : API NUMBER
#==================================================================
~Curve
DEPT .m                   : DEPTH
DT .us/ft                 : DT
DRHO .g/cm3               : DRHO
RHOB .g/cm3               : RHOB
NPHI .m3/m3               : NPHI
GR .gAPI                  : GR
~Parameter
#==================================================================
~Ascii
# ...
 1598.6001000 163.82495117 0.0205290001 1.9704289436  -999.250000 54.946601868
 1598.7001000 163.81604004 0.0157040004 1.9809570313  -999.250000 57.264511108
 1598.8001000 163.77734375 0.0149399992 1.9939479828  -999.250000 59.500328064
 1598.9001000 163.73455811 0.0186189990 2.0147390366  -999.250000 61.260467529
 1599.0001000 163.72888184 0.0248850007 2.0329790115  -999.250000 62.607513428
 1599.1001000 163.75537109 0.0306700002 2.0448298454  -999.250000 63.776245117
 1599.2001000 163.78446960 0.0340310000 2.0556931496  -999.250000 64.871978760
 1599.3001000 163.80978394 0.0334290005 2.0661170483  -999.250000 65.488067627
 1599.4001000 163.82748413 0.0303130001 2.0730979443  -999.250000 65.406524658
 1599.5001000 163.82893372 0.0271930005 2.0749270916  -999.250000 64.737579346
 1599.6001000 163.81484985 0.0234789997 2.0719900131  -999.250000 63.301406860
 1599.7001000 163.79417419 0.0183710009 2.0660471916  -999.250000 61.672706604
 1599.8001000 163.77526855 0.0124479998 2.0589051247  -999.250000 60.867500305
 1599.9001000 163.77749634 0.0104910005 2.0477070808  -999.250000 60.169845581
 1600.0001000 163.79751587 0.0122910002 2.0321478844  -999.250000 58.631393433
 1600.1001000 163.81103516 0.0124359997 2.0159840584  -999.250000 56.160972595
 1600.2001000 163.81257629 0.0115640005 2.0010991096  -999.250000 53.710815430
 1600.3001000 163.80752563 0.0112629998 1.9918439388  -999.250000 52.115440369
 1600.4001000 163.79708862 0.0099160001 1.9953039885  -999.250000 51.488235474
 1600.5001000 163.77883911 0.0086639998 2.0033650398  -999.250000 51.778343201
 1600.6001000 163.75769043 0.0084300004 2.0020589828  -999.250000 52.656028748
 1600.7001000 163.74514771 0.0069479998 1.9852299690  -999.250000 53.760986328
 1600.8001000 163.74345398 0.0057010003 1.9591898918  -999.250000 53.860382080
 1600.9001000 163.74670410 0.0064429999 1.9352380037  -999.250000 52.601806641
 1601.0001000 163.75225830 0.0062719998 1.9162759781  -999.250000 51.621826172
 1601.1001000 163.76332092 0.0036350000 1.9074549675  -999.250000 51.877426147
 1601.2001000 163.77951050 0.0003690000 1.9111629725  -999.250000 52.952072144
 1601.3001000 163.78906250 -0.000240000 1.9222500324  -999.250000 54.251037598
 1601.4001000 163.78692627 0.0032050000 1.9397010803  -999.250000 55.677581787
 1601.5001000 163.78054810 0.0084410002 1.9620779753  -999.250000 57.117759705
 1601.6001000 163.77569580 0.0113519998 1.9723349810  -999.250000 57.092346191
 1601.7001000 163.76278687 0.0119899996 1.9611169100  -999.250000 55.608528137
 1601.8001000 163.73115540 0.0141870007 1.9422169924  -999.250000 54.812118530
 1601.9001000 163.70585632 0.0147639997 1.9321750402  -999.250000 55.469985962
 1602.0001000 163.70962524 0.0115530007 1.9391109943  -999.250000 57.151054382
 1602.1001000 163.72967529 0.0091850003 1.9563360214  -999.250000 58.882789612
 1602.2001000 163.75692749 0.0100249993 1.9797939062  -999.250000 60.241264343
 1602.3001000 163.78057861 0.0144989993 2.0026559830  -999.250000 60.892257690
 1602.4001000 163.78753662 0.0213329997 2.0137591362  -999.250000 60.552139282
 1602.5001000 163.79650879 0.0246849991 2.0130209923  -999.250000 59.436706543
 1602.6001000 163.81750488 0.0200909991 2.0038080215  -999.250000 58.059631348
 1602.7001000 163.81048584 0.0123300003 1.9839220047  -999.250000 56.835456848
 1602.8001000 163.76632690 0.0065430002 1.9577779770  -999.250000 55.984550476
 1602.9001000 163.72003174 0.0041319998 1.9316149950  -999.250000 55.622192383
 1603.0001000 163.70932007 0.0024089999 1.9007229805  -999.250000 55.692871094
 1603.1001000 163.73251343 -0.001654000 1.8576020002  -999.250000 55.740295410
 1603.2001000 163.75085449 -0.008663001 1.8062950373  -999.250000 54.984687805
 1603.3001000 163.70858765 -0.014562001 1.7745519876  -999.250000 53.169067383
 1603.4001000 163.51898193 -0.015704000 1.7705489397  -999.250000 50.744018555
 1603.5001000 163.22622681 -0.012147998 1.7766770124  -999.250000 48.514038086
 1603.6001000 163.21981812 -0.009009000 1.7772079706  -999.250000 46.961502075
 1603.7001000 163.47244263 -0.009564000 1.7657330036  -999.250000 46.076499939
 1603.8001000 163.27249146 -0.012054000 1.7448719740  -999.250000 45.784919739
 1603.9001000 161.96130371 -0.013692000 1.7314410210  -999.250000 45.938224792
 1604.0001000 158.77545166 -0.013375000 1.7367330790  -999.250000 46.103515625
 1604.1001000 153.19070435 -0.011850000 1.7557450533  -999.250000 45.695617676
 1604.2001000 146.19543457 -0.010043000 1.7834370136  -999.250000 45.119537354
 1604.3001000 140.22470093 -0.008147000 1.8150730133  -999.250000 44.836601257
 1604.4001000 138.09429932 -0.006878000 1.8349599838  -999.250000 44.303260803
 1604.5001000 139.60113525 -0.008437000 1.8317309618  -999.250000 43.194221497
 1604.6001000 143.74014282 -0.014254000 1.8084750175  -999.250000 42.150512695
 1604.7001000 150.34805298 -0.021572001 1.7823170424  -999.250000 42.281570435
 1604.8001000 156.01367188 -0.026281999 1.7656970024  -999.250000 43.707855225
 1604.9001000 157.58187866 -0.026772000 1.7573930025  -999.250000 45.803573608
 1605.0001000 157.26840210 -0.024355000 1.7540019751  -999.250000 48.012275696
 1605.1001000 157.74798584 -0.020943001 1.7512209415  -999.250000 49.178871155
 1605.2001000 159.05520630 -0.017207000 1.7476379871  -999.250000 48.640403748
 1605.3001000 161.10958862 -0.013609000 1.7461099625  -999.250000 47.843368530
 1605.4001000 162.89721680 -0.009859000 1.7558571100  -999.250000 47.704963684
 1605.5001000 163.19375610 -0.005701000 1.7827769518  -999.250000 47.878326416
 1605.6001000 162.56149292 -0.001965000 1.8159990311  -999.250000 48.820610046
 1605.7001000 162.35723877 0.0001630000 1.8403050900  -999.250000 50.446769714
 1605.8001000 162.95544434 0.0001340000 1.8540380001  -999.250000 51.826408386
 1605.9001000 163.63610840 -0.001270000 1.8696219921  -999.250000 52.959182739
 1606.0001000 163.79855347 -0.001998000 1.8963310719  -999.250000 54.620582581
 1606.1001000 163.78643799 -0.000110000 1.9355510473  -999.250000 57.301643372
 1606.2001000 163.77354431 0.0047880001 1.9896969795  -999.250000 60.443878174
 1606.3001000 163.76734924 0.0118100001 2.0421819687  -999.250000 63.454177856
 1606.4001000 163.77171326 0.0205750000 2.0710279942  -999.250000 66.371414185
 1606.5001000 163.78283691 0.0302510001 2.0834410191  -999.250000 68.531967163
 1606.6001000 163.79684448 0.0373479985 2.0911459923  -999.250000 69.349517822
 1606.7001000 163.81085205 0.0394069999 2.0918068886  -999.250000 69.343688965
 1606.8001000 163.81582642 0.0407669991 2.0898458958  -999.250000 69.511444092
 1606.9001000 163.80902100 0.0451459996 2.0886311531  -999.250000 69.824935913
 1607.0001000 163.79922485 0.0499809980 2.0863749981  -999.250000 69.514419556
 1607.1001000 163.79574585 0.0521910004 2.0835499763  -999.250000 68.867019653
 1607.2001000 163.79946899 0.0514959991 2.0802891254  -999.250000 68.152481079
 1607.3001000 163.80499268 0.0493359976 2.0754690170  -999.250000 66.959518433
 1607.4001000 163.80938721 0.0458219983 2.0703711510  -999.250000 65.203964233
 1607.5001000 163.81286621 0.0409649983 2.0673949718  -999.250000 62.987228394
 1607.6001000 163.81420898 0.0359579995 2.0662748814  -999.250000 60.443389893
 1607.7001000 163.80886841 0.0313489996 2.0625138283  -999.250000 57.798423767
 1607.8001000 163.79656982 0.0269579999 2.0518610477  -999.250000 55.753524780
 1607.9001000 163.78329468 0.0226310007 2.0336599350  -999.250000 54.812652588
 1608.0001000 163.77267456 0.0183859989 2.0068740845  -999.250000 54.383926392
 1608.1001000 163.76434326 0.0142810000 1.9735291004  -999.250000 54.241500854
 1608.2001000 163.75677490 0.0100699998 1.9399319887  -999.250000 54.670448303
 1608.3001000 163.74932861 0.0048249997 1.9100970030  -999.250000 55.117240906
 1608.4001000 163.74295044 -0.001574000 1.8797879219  -999.250000 54.748802185
 1608.5001000 163.74026489 -0.008491000 1.8415648937  -999.250000 53.534790039
 1608.6001000 163.75195313 -0.015879000 1.7938590050  -999.250000 52.666328430
 1608.7001000 163.78778076 -0.023148000 1.7481999397  -999.250000 52.432434082
