# LAS format log file from PETREL
# Project units are specified as depth units
#==================================================================
~Version information
VERS.   2.0:
WRAP.   NO:
#==================================================================
~Well
STRT .m      48.200100000 :
STOP .m      3124.0001000 :
STEP .m     0.10000000 :
NULL .        -999.250000 :
COMP.           : COMPANY
WELL.  F02-01   : WELL
FLD.            : FIELD
LOC.            : LOCATION
SRVC.           : SERVICE COMPANY
DATE.  2023-08-04 09:51:40   : Log Export Date {yyyy-MM-dd HH:mm:ss}
PROV.           : PROVINCE
UWI.   8727   : UNIQUE WELL ID
API.            : API NUMBER
#==================================================================
~Curve
DEPT .m                   : DEPTH
DT .us/ft                 : DT
DRHO .g/cm3               : DRHO
RHOB .g/cm3               : RHOB
NPHI .m3/m3               : NPHI
GR .gAPI                  : GR
~Parameter
#==================================================================
~Ascii
# ...
 3118.4001000 96.651557922 0.0510448366 2.5478003025 0.3276290894 116.26772308
 3118.5001000 95.562667847 0.0478868112 2.5298676491 0.3307353854 116.57870483
 3118.6001000 94.634864807 0.0486960262 2.5205395222 0.3341259658 117.46544647
 3118.7001000 93.837486267 0.0517198890 2.5181455612 0.3340807259 118.94075012
 3118.8001000 93.124923706 0.0546024069 2.5216326714 0.3277992308 120.43312073
 3118.9001000 92.887496948 0.0489971228 2.5284042358 0.3190330863 120.09907532
 3119.0001000 93.499771118 0.0351191238 2.5404942036 0.3141369820 118.60536957
 3119.1001000 94.810890198 0.0252592638 2.5604445934 0.3161369860 118.38736725
 3119.2001000 96.188331604 0.0355338119 2.5829219818 0.3211172819 119.00774384
 3119.3001000 97.369148254 0.0573292300 2.5950834751 0.3234156370 119.00141907
 3119.4001000 98.476989746 0.0625480562 2.5864126682 0.3200561702 117.85346985
 3119.5001000 99.257011414 0.0546081997 2.5648577213 0.3122045398 116.43201447
 3119.6001000 98.711502075 0.0508198515 2.5465719700 0.3027469814 115.64978790
 3119.7001000  -999.250000 0.0576670989 2.5393629074 0.2947351933 115.52227783
 3119.8001000  -999.250000 0.0597509220 2.5252358913 0.2909195721 115.76831055
 3119.9001000  -999.250000 0.0476767942 2.4920694828 0.2914929688 115.78258514
 3120.0001000  -999.250000 0.0394804180 2.4614748955 0.2914606631 114.83198547
 3120.1001000  -999.250000 0.0409067571 2.4464964867 0.2891440988 113.38069153
 3120.2001000  -999.250000 0.0476640984 2.4549853802 0.2862672210 112.47887421
 3120.3001000  -999.250000 0.0567664132 2.4895164967 0.2855007648 112.51895142
 3120.4001000  -999.250000 0.0671806335 2.5340383053 0.2872482836 112.88193512
 3120.5001000  -999.250000 0.0788195729 2.5703434944 0.2905273139 112.72040558
 3120.6001000  -999.250000 0.0913929045 2.6056635380 0.2948374450 112.18262482
 3120.7001000  -999.250000 0.1002796441 2.6362335682 0.3002816737 111.88922882
 3120.8001000  -999.250000 0.0959116518 2.6416573524 0.3069505394 112.01974487
 3120.9001000  -999.250000 0.0765636638 2.6241295338 0.3144780695 111.74136353
 3121.0001000  -999.250000 0.0552430600 2.5885343552 0.3215421140 111.49781799
 3121.1001000  -999.250000 0.0513120107 2.5436306000 0.3266565800 112.85995483
 3121.2001000  -999.250000 0.0573197529 2.5152766705 0.3312451243 115.08742523
 3121.3001000  -999.250000 0.0590673909 2.5109150410 0.3353488147 117.06108093
 3121.4001000  -999.250000 0.0564619265 2.5109286308 0.3361601532 118.57000732
 3121.5001000  -999.250000 0.0553929284 2.5086498260 0.3342989683 118.97910309
 3121.6001000  -999.250000 0.0573201329 2.5075988770 0.3312516510 117.71754456
 3121.7001000  -999.250000 0.0574541911 2.5063281059 0.3269010484 115.39537048
 3121.8001000  -999.250000 0.0586461611 2.5074515343 0.3219441175 113.65464783
 3121.9001000  -999.250000 0.0648077205 2.5157539845 0.3180819452 113.57678223
 3122.0001000  -999.250000 0.0705247670 2.5316712856 0.3160125315 114.31128693
 3122.1001000  -999.250000 0.0722882077 2.5531485081 0.3145558536 114.77787781
 3122.2001000  -999.250000 0.0714970604 2.5767383575 0.3124075830 114.85496521
 3122.3001000  -999.250000 0.0735685974 2.6000812054 0.3099899888 115.11149597
 3122.4001000  -999.250000 0.0881728828 2.6202991009 0.3079938591 115.58129883
 3122.5001000  -999.250000 0.1120352894 2.6253967285 0.3068581223 115.77829742
 3122.6001000  -999.250000 0.1223065555 2.6000716686 0.3069652319 115.75626373
 3122.7001000  -999.250000 0.1118620038 2.5558423996 0.3081839979 115.51720428
 3122.8001000  -999.250000 0.1008759812 2.5221412182 0.3101959527 114.70132446
 3122.9001000  -999.250000 0.1008671969 2.5091760159 0.3131407201 113.17429352
 3123.0001000  -999.250000 0.1070588231 2.5119371414 0.3168768883 111.53620148
 3123.1001000  -999.250000 0.1078813821 2.5210454464 0.3197751343 110.59819794
 3123.2001000  -999.250000 0.1042657346 2.5293524265 0.3189210594 110.33274078
 3123.3001000  -999.250000 0.1030051336 2.5349495411 0.3139651418 109.80774689
 3123.4001000  -999.250000 0.1041317806 2.5385437012 0.3080820739 108.68865967
 3123.5001000  -999.250000 0.1019037068 2.5364193916 0.3041575253 108.09505463
 3123.6001000  -999.250000 0.0936135203 2.5206789970 0.3026873469 108.22095490
 3123.7001000  -999.250000 0.0861393511 2.4916548729 0.3030581772 107.81259918
 3123.8001000  -999.250000 0.0864937231 2.4666438103 0.3052311242 105.97191620
 3123.9001000  -999.250000  -999.250000  -999.250000  -999.250000 99.502120972
 3124.0001000  -999.250000  -999.250000  -999.250000  -999.250000  -999.250000
