# LAS format log file from PETREL
# Project units are specified as depth units
#==================================================================
~Version information
VERS.   2.0:
WRAP.   NO:
#==================================================================
~Well
STRT .m      9.9060000000 :
STOP .m      2153.9060000 :
STEP .m     0.10000000 :
NULL .        -999.250000 :
COMP.           : COMPANY
WELL.  F03-02   : WELL
FLD.            : FIELD
LOC.            : LOCATION
SRVC.           : SERVICE COMPANY
DATE.  2023-08-04 09:51:44   : Log Export Date {yyyy-MM-dd HH:mm:ss}
PROV.           : PROVINCE
UWI.   7033   : UNIQUE WELL ID
API.            : API NUMBER
#==================================================================
~Curve
DEPT .m                   : DEPTH
DT .us/ft                 : DT
CAL .in                   : CAL
DRHO .g/cm3               : DRHO
RHOB .g/cm3               : RHOB
NPHI .m3/m3               : NPHI
ILD .ohm.m                : ILD
LLD .ohm.m                : LLD
LLS .ohm.m                : LLS
MLL .ohm.m                : MLL
SN .ohm.m                 : SN
SP .mV                    : SP
GR .gAPI                  : GR
~Parameter
#==================================================================
~Ascii
# ...
 2064.3060000 68.147529602 8.8199195862 -0.028652260 2.0524225235 0.0472709201 -9999.000000 2284.8129883 617.66204834 -9999.000000 -9999.000000  -999.250000 11.598675728
 2064.4060000 68.520591736 8.8194561005 -0.030026685 2.0487558842 0.0490438119 -9999.000000 2285.7219238 611.10681152 -9999.000000 -9999.000000  -999.250000 11.543448448
 2064.5060000 68.764434814 8.8189229965 -0.031423714 2.0422830582 0.0511246696 -9999.000000 2286.2192383 608.00067139 -9999.000000 -9999.000000  -999.250000 11.532219887
 2064.6060000 68.752777100 8.8190231323 -0.032805346 2.0349447727 0.0528043658 -9999.000000 2285.6254883 605.69708252 -9999.000000 -9999.000000  -999.250000 11.592464447
 2064.7060000 68.596359253 8.8198709488 -0.034180984 2.0318193436 0.0535807610 -9999.000000 2283.7543945 604.26910400 -9999.000000 -9999.000000  -999.250000 11.705693245
 2064.8060000 68.362152100 8.8215293884 -0.035212968 2.0330212116 0.0533908345 -9999.000000 2283.6960449 607.32067871 -9999.000000 -9999.000000  -999.250000 11.888258934
 2064.9060000 68.126533508 8.8223533630 -0.035012573 2.0377094746 0.0521143489 -9999.000000 2281.2006836 612.94982910 -9999.000000 -9999.000000  -999.250000 12.206569672
 2065.0060000 68.370750427 8.8219118118 -0.034392670 2.0363245010 0.0501494147 -9999.000000 2275.0656738 621.80712891 -9999.000000 -9999.000000  -999.250000 12.579321861
 2065.1060000 68.543807983 8.8187122345 -0.033499066 2.0357284546 0.0494819917 -9999.000000 2277.5725098 634.81549072 -9999.000000 -9999.000000  -999.250000 12.986557961
 2065.2060000 68.301223755 8.8163013458 -0.032432292 2.0404624939 0.0526457541 -9999.000000 2279.9311523 645.89514160 -9999.000000 -9999.000000  -999.250000 13.363930702
 2065.3060000 68.373512268 8.8158540726 -0.031407535 2.0443587303 0.0540391058 -9999.000000 2280.1647949 652.73602295 -9999.000000 -9999.000000  -999.250000 13.692840576
 2065.4060000 68.741134644 8.8155212402 -0.030497408 2.0468704700 0.0531524867 -9999.000000 2280.4509277 655.66009521 -9999.000000 -9999.000000  -999.250000 13.897029877
 2065.5060000 68.477424622 8.8151817322 -0.030076165 2.0474328995 0.0497237407 -9999.000000 2281.8044434 654.20019531 -9999.000000 -9999.000000  -999.250000 13.647348404
 2065.6060000 68.104850769 8.8147792816 -0.030143008 2.0461344719 0.0459658802 -9999.000000 2285.4160156 644.95037842 -9999.000000 -9999.000000  -999.250000 13.320944786
 2065.7060000 68.488540649 8.8144302368 -0.030721094 2.0351247787 0.0460979491 -9999.000000 2289.5041504 633.39703369 -9999.000000 -9999.000000  -999.250000 13.054233551
 2065.8060000 68.555717468 8.8149232864 -0.031871188 2.0264532566 0.0480499789 -9999.000000 2293.6516113 618.16406250 -9999.000000 -9999.000000  -999.250000 12.998401642
 2065.9060000 68.123344421 8.8176326752 -0.033161346 2.0228490829 0.0526652373 -9999.000000 2297.6286621 594.67272949 -9999.000000 -9999.000000  -999.250000 13.078665733
 2066.0060000 68.372009277 8.8195314407 -0.034553971 2.0265588760 0.0517742857 -9999.000000 2295.6540527 590.26336670 -9999.000000 -9999.000000  -999.250000 13.326720238
 2066.1060000 68.695602417 8.8202409744 -0.035930123 2.0296523571 0.0507888645 -9999.000000 2291.8999023 593.47833252 -9999.000000 -9999.000000  -999.250000 13.529664993
 2066.2060000 68.687705994 8.8177947998 -0.036821652 2.0267667770 0.0529825501 -9999.000000 2288.9223633 600.81134033 -9999.000000 -9999.000000  -999.250000 13.679712296
 2066.3060000 68.429069519 8.8131198883 -0.036964424 2.0291144848 0.0522703752 -9999.000000 2288.1691895 610.21875000 -9999.000000 -9999.000000  -999.250000 13.723319054
 2066.4060000 68.247589111 8.8081817627 -0.035747800 2.0354354382 0.0507214107 -9999.000000 2288.3666992 620.23968506 -9999.000000 -9999.000000  -999.250000 13.515919685
 2066.5060000 68.482040405 8.8064050674 -0.033664100 2.0448696613 0.0505332947 -9999.000000 2288.5949707 629.02716064 -9999.000000 -9999.000000  -999.250000 13.089749336
 2066.6060000 68.363677979 8.8044328690 -0.030526860 2.0446896553 0.0521017350 -9999.000000 2288.9633789 636.22546387 -9999.000000 -9999.000000  -999.250000 12.294816971
 2066.7060000 68.237449646 8.8032445908 -0.027171474 2.0385553837 0.0545430891 -9999.000000 2289.3774414 643.41729736 -9999.000000 -9999.000000  -999.250000 11.228116989
 2066.8060000 68.622955322 8.8079395294 -0.024753166 2.0308563709 0.0562989190 -9999.000000 2289.6047363 656.11871338 -9999.000000 -9999.000000  -999.250000 10.201611519
 2066.9060000 68.786758423 8.8126525879 -0.024043618 2.0277171135 0.0541640371 -9999.000000 2289.8400879 666.50061035 -9999.000000 -9999.000000  -999.250000 9.7376613617
 2067.0060000 68.760612488 8.8169498444 -0.024347831 2.0287582874 0.0502335019 -9999.000000 2289.8186035 674.23992920 -9999.000000 -9999.000000  -999.250000 9.4922924042
 2067.1060000 68.657516479 8.8165836334 -0.025176112 2.0327179432 0.0484793447 -9999.000000 2286.9370117 669.46966553 -9999.000000 -9999.000000  -999.250000 9.4095020294
 2067.2060000 68.515464783 8.8134441376 -0.026408106 2.0314068794 0.0495281518 -9999.000000 2287.6582031 666.24255371 -9999.000000 -9999.000000  -999.250000 9.5794572830
 2067.3060000 68.354042053 8.8080825806 -0.027674416 2.0272445679 0.0510415882 -9999.000000 2291.1284180 664.26922607 -9999.000000 -9999.000000  -999.250000 9.9358482361
 2067.4060000 68.201866150 8.8013505936 -0.028955918 2.0271368027 0.0486591943 -9999.000000 2292.8093262 663.46374512 -9999.000000 -9999.000000  -999.250000 10.426437378
 2067.5060000 68.093307495 8.7939672470 -0.030095091 2.0280921459 0.0486426353 -9999.000000 2294.2890625 661.72436523 -9999.000000 -9999.000000  -999.250000 10.920080185
 2067.6060000 68.035232544 8.7859668732 -0.030625885 2.0303211212 0.0510393456 -9999.000000 2295.5781250 659.10198975 -9999.000000 -9999.000000  -999.250000 11.381196022
 2067.7060000 68.005187988 8.7868194580 -0.030586779 2.0363097191 0.0507708900 -9999.000000 2294.4458008 655.33599854 -9999.000000 -9999.000000  -999.250000 11.812788963
 2067.8060000 67.986839294 8.7894773483 -0.029919701 2.0419943333 0.0498904139 -9999.000000 2292.0200195 651.65216064 -9999.000000 -9999.000000  -999.250000 12.179309845
 2067.9060000 67.976974487 8.7941036224 -0.029011207 2.0416760445 0.0515537001 -9999.000000 2288.1428223 648.07391357 -9999.000000 -9999.000000  -999.250000 12.455352783
 2068.0060000 67.994155884 8.7940330505 -0.027950121 2.0418775082 0.0523690991 -9999.000000 2291.4462891 645.02532959 -9999.000000 -9999.000000  -999.250000 12.420495033
 2068.1060000 68.060600281 8.7950468063 -0.026669685 2.0430486202 0.0517851524 -9999.000000 2293.0095215 640.35137939 -9999.000000 -9999.000000  -999.250000 11.620917320
 2068.2060000 68.179283142 8.7979412079 -0.025049787 2.0389096737 0.0531932563 -9999.000000 2291.5815430 633.38946533 -9999.000000 -9999.000000  -999.250000 10.578126907
 2068.3060000 68.327896118 8.8002376556 -0.023119794 2.0334308147 0.0556865744 -9999.000000 2287.2978516 633.48828125 -9999.000000 -9999.000000  -999.250000 9.5742235184
 2068.4060000 68.470314026 8.8019943237 -0.020953394 2.0375494957 0.0563563257 -9999.000000 2284.4680176 643.79534912 -9999.000000 -9999.000000  -999.250000 8.7408618927
 2068.5060000 68.593727112 8.8029613495 -0.018709870 2.0516042709 0.0562566295 -9999.000000 2284.6333008 669.89935303 -9999.000000 -9999.000000  -999.250000 8.0628461838
 2068.6060000 68.689735413 8.8024988174 -0.016655102 2.0672354698 0.0555417947 -9999.000000 2291.0559082 673.29223633 -9999.000000 -9999.000000  -999.250000 7.5603127480
 2068.7060000 68.711021423 8.8021678925 -0.015367740 2.0676226616 0.0538474880 -9999.000000 2295.8395996 672.62518311 -9999.000000 -9999.000000  -999.250000 7.2260813713
 2068.8060000 68.514091492 8.8026304245 -0.015244916 2.0640802383 0.0534738265 -9999.000000 2294.9775391 671.85076904 -9999.000000 -9999.000000  -999.250000 7.1595625877
 2068.9060000 68.263992310 8.8043460846 -0.016343789 2.0624008179 0.0551329292 -9999.000000 2292.3598633 670.77154541 -9999.000000 -9999.000000  -999.250000 7.4403843880
 2069.0060000 68.418533325 8.8057165146 -0.018236296 2.0580568314 0.0562279597 -9999.000000 2288.9035645 669.15148926 -9999.000000 -9999.000000  -999.250000 7.8888607025
