# LAS format log file from PETREL
# Project units are specified as depth units
#==================================================================
~Version information
VERS.   2.0:
WRAP.   NO:
#==================================================================
~Well
STRT .m      9.9060000000 :
STOP .m      2153.9060000 :
STEP .m     0.10000000 :
NULL .        -999.250000 :
COMP.           : COMPANY
WELL.  F03-02   : WELL
FLD.            : FIELD
LOC.            : LOCATION
SRVC.           : SERVICE COMPANY
DATE.  2023-08-04 09:51:44   : Log Export Date {yyyy-MM-dd HH:mm:ss}
PROV.           : PROVINCE
UWI.   7033   : UNIQUE WELL ID
API.            : API NUMBER
#==================================================================
~Curve
DEPT .m                   : DEPTH
DT .us/ft                 : DT
CAL .in                   : CAL
DRHO .g/cm3               : DRHO
RHOB .g/cm3               : RHOB
NPHI .m3/m3               : NPHI
ILD .ohm.m                : ILD
LLD .ohm.m                : LLD
LLS .ohm.m                : LLS
MLL .ohm.m                : MLL
SN .ohm.m                 : SN
SP .mV                    : SP
GR .gAPI                  : GR
~Parameter
#==================================================================
~Ascii
# ...
 1833.9060000 71.195930481 8.9779701233 -0.027687090 2.3745603561 0.1803226322 -9999.000000 0.9036234021 0.7520682812 0.5451129675 -9999.000000  -999.250000 3.4721016884
 1834.0060000 72.011871338 8.9546852112 -0.030035032 2.3795609474 0.1776734591 -9999.000000 0.8765514493 0.7425661087 0.5434811711 -9999.000000  -999.250000 3.5014164448
 1834.1060000 71.765632629 9.0241270065 -0.031992380 2.3953573704 0.1752769351 -9999.000000 0.8075343370 0.7173128128 0.5210527182 -9999.000000  -999.250000 3.5209865570
 1834.2060000 71.217491150 8.9113759995 -0.033400666 2.3992924690 0.1803735793 -9999.000000 0.7486607432 0.6764411926 0.5266543031 -9999.000000  -999.250000 3.5251564980
 1834.3060000 70.780303955 8.8054418564 -0.032690320 2.3966732025 0.1898651719 -9999.000000 0.7003169656 0.6347678900 0.5380328298 -9999.000000  -999.250000 3.5074501038
 1834.4060000 71.178474426 8.9488382339 -0.031000650 2.3921511173 0.2018866390 -9999.000000 0.6772250533 0.6094967127 0.5355364084 -9999.000000  -999.250000 3.4427142143
 1834.5060000 71.721359253 8.9411468506 -0.028226187 2.3982112408 0.2103182226 -9999.000000 0.6669523716 0.6091434956 0.5733192563 -9999.000000  -999.250000 3.2967729568
 1834.6060000 72.171302795 8.8893918991 -0.024929816 2.4060065746 0.2167348415 -9999.000000 0.6664069295 0.6199591160 0.6129770875 -9999.000000  -999.250000 3.3427970409
 1834.7060000 72.108558655 8.9454669952 -0.021610416 2.3980317116 0.2233215570 -9999.000000 0.6857457161 0.6319072247 0.5760302544 -9999.000000  -999.250000 3.5523428917
 1834.8060000 72.577651978 8.9449758530 -0.018303115 2.3934388161 0.2251934558 -9999.000000 0.7174181938 0.6441187263 0.5197045207 -9999.000000  -999.250000 3.9863350391
 1834.9060000 72.952331543 8.9204082489 -0.015319648 2.3934073448 0.2227577120 -9999.000000 0.7506824136 0.6562529802 0.4621224999 -9999.000000  -999.250000 4.4826922417
 1835.0060000 71.506324768 8.9437160492 -0.012616834 2.3990423679 0.2152051181 -9999.000000 0.7471860647 0.6668018699 0.4712577462 -9999.000000  -999.250000 4.9518527985
 1835.1060000 70.499870300 8.9101419449 -0.010695569 2.4010770321 0.2011376321 -9999.000000 0.7138703465 0.6578897834 0.4812372327 -9999.000000  -999.250000 5.1711392403
 1835.2060000 70.291809082 8.8521947861 -0.010803895 2.4008274078 0.1870751083 -9999.000000 0.6645914912 0.6363145113 0.4848353267 -9999.000000  -999.250000 5.1526436806
 1835.3060000 71.301467896 8.9632825851 -0.012675239 2.4033122063 0.1919097006 -9999.000000 0.6646388173 0.6192409396 0.4027598500 -9999.000000  -999.250000 4.9543457031
 1835.4060000 72.645889282 8.9656696320 -0.016891615 2.3938114643 0.1931536347 -9999.000000 0.6669667363 0.6135189533 0.4473293424 -9999.000000  -999.250000 4.6461172104
 1835.5060000 73.842796326 8.8832550049 -0.022534061 2.3780062199 0.1909093857 -9999.000000 0.6713315845 0.6173936129 0.5906015038 -9999.000000  -999.250000 4.4129447937
 1835.6060000 73.805091858 8.9289474487 -0.027073815 2.3826224804 0.1970375627 -9999.000000 0.6826602817 0.6356488466 0.5809656382 -9999.000000  -999.250000 4.2509393692
 1835.7060000 73.082107544 8.8977279663 -0.027640531 2.3954627514 0.2000146210 -9999.000000 0.7226209044 0.6680745482 0.6552789807 -9999.000000  -999.250000 4.1079111099
 1835.8060000 71.803268433 8.7902107239 -0.026257878 2.4108529091 0.1995634735 -9999.000000 0.7909853458 0.7145578265 0.8128725290 -9999.000000  -999.250000 3.9295442104
 1835.9060000 70.321647644 8.7773895264 -0.023877291 2.4191188812 0.2040868551 -9999.000000 0.8616316915 0.7702184916 0.8128368258 -9999.000000  -999.250000 3.7200651169
 1836.0060000 69.439468384 8.8343410492 -0.021062804 2.4217219353 0.2057217211 -9999.000000 0.9076268673 0.8151608109 0.7933992743 -9999.000000  -999.250000 3.5262277126
 1836.1060000 69.310478210 8.9721078873 -0.018642580 2.4224824905 0.2007980049 -9999.000000 0.9241551161 0.8470813632 0.7548494339 -9999.000000  -999.250000 3.3719589710
 1836.2060000 69.488166809 8.9696702957 -0.016587369 2.4281976223 0.1915085614 -9999.000000 0.9192570448 0.8468084335 0.5928865671 -9999.000000  -999.250000 3.2739405632
 1836.3060000 70.219375610 8.9423856735 -0.014610570 2.4260869026 0.1841478944 -9999.000000 0.8809852004 0.8272806406 0.4927672446 -9999.000000  -999.250000 3.2350778580
 1836.4060000 71.336578369 8.8937129974 -0.012632882 2.4139997959 0.1826666445 -9999.000000 0.7961730361 0.7830186486 0.4963023961 -9999.000000  -999.250000 3.2360355854
 1836.5060000 71.631149292 8.9113435745 -0.010905566 2.4092319012 0.1878360361 -9999.000000 0.7410501242 0.7301910520 0.5005185604 -9999.000000  -999.250000 3.2773857117
 1836.6060000 71.385383606 8.9474048615 -0.010009959 2.4099445343 0.1939941347 -9999.000000 0.7043248415 0.6944537759 0.5017536283 -9999.000000  -999.250000 3.3550627232
 1836.7060000 71.123695374 9.0006875992 -0.010158406 2.4136407375 0.1969484091 -9999.000000 0.6934246421 0.6912581325 0.4975048006 -9999.000000  -999.250000 3.4564070702
 1836.8060000 71.319671631 8.9677381516 -0.011379153 2.4200303555 0.1947443336 -9999.000000 0.7119540572 0.7070447803 0.6181934476 -9999.000000  -999.250000 3.5763204098
 1836.9060000 71.424804688 8.9631500244 -0.013536801 2.4223330021 0.1874466985 -9999.000000 0.7371054292 0.7297742367 0.7321624756 -9999.000000  -999.250000 3.7048907280
 1837.0060000 71.095382690 9.0593385696 -0.015936915 2.4188401699 0.1780645549 -9999.000000 0.7641454339 0.7596684694 0.7766220570 -9999.000000  -999.250000 3.8212413788
 1837.1060000 70.844772339 9.0447101593 -0.018340223 2.4205217361 0.1741229445 -9999.000000 0.7671277523 0.7746779919 0.6965981126 -9999.000000  -999.250000 3.9122076035
 1837.2060000 70.583824158 8.9950971603 -0.020761693 2.4267008305 0.1711979806 -9999.000000 0.7639751434 0.7846847177 0.6183081269 -9999.000000  -999.250000 3.9843845367
 1837.3060000 69.914932251 8.9314889908 -0.023084221 2.4316155910 0.1672641188 -9999.000000 0.7618766427 0.7919611335 0.6392897964 -9999.000000  -999.250000 4.0435647964
 1837.4060000 68.876098633 8.8216257095 -0.024646251 2.4322032928 0.1691394001 -9999.000000 0.7892937064 0.8212023973 0.7715661526 -9999.000000  -999.250000 4.0912199020
 1837.5060000 68.131034851 8.7226419449 -0.024647333 2.4325468540 0.1720829606 -9999.000000 0.8417061567 0.8706653118 0.9835467339 -9999.000000  -999.250000 4.1310548782
 1837.6060000 67.710411072 8.7221403122 -0.023696883 2.4382808208 0.1747372299 -9999.000000 0.9472022653 0.9655138850 1.3428927660 -9999.000000  -999.250000 4.1627597809
 1837.7060000 66.788154602 8.8152685165 -0.022294862 2.4459207058 0.1801875830 -9999.000000 1.0941882133 1.1124081612 4.6229362488 -9999.000000  -999.250000 4.1859326363
 1837.8060000 65.345397949 8.9172859192 -0.020658012 2.4409809113 0.1818801910 -9999.000000 1.2772475481 1.2918126583 7.7737169266 -9999.000000  -999.250000 4.2057461739
 1837.9060000 64.338233948 8.8538208008 -0.018977260 2.4213912487 0.1767358929 -9999.000000 1.5472633839 1.5167450905 3.7344620228 -9999.000000  -999.250000 4.2284083366
 1838.0060000 64.211128235 8.8288164139 -0.017379902 2.4003620148 0.1696666330 -9999.000000 1.8517528772 1.8047894239 2.3087129593 -9999.000000  -999.250000 4.2624711990
 1838.1060000 64.653556824 8.8437328339 -0.016375327 2.3916640282 0.1666896045 -9999.000000 2.1645269394 2.1233227253 2.2605898380 -9999.000000  -999.250000 4.3145833015
 1838.2060000 65.874504089 8.9947948456 -0.017195974 2.3955125809 0.1685128063 -9999.000000 2.3976919651 2.4084801674 1.6740643978 -9999.000000  -999.250000 4.3879060745
 1838.3060000 68.164833069 9.0526914597 -0.020230699 2.4092857838 0.1745546162 -9999.000000 2.4472005367 2.4952931404 1.2620002031 -9999.000000  -999.250000 4.4863843918
 1838.4060000 70.408111572 9.0454568863 -0.024126127 2.4215128422 0.1815411150 -9999.000000 2.3549032211 2.4290344715 1.0310038328 -9999.000000  -999.250000 4.6081724167
 1838.5060000 71.844032288 9.0192222595 -0.027797978 2.4245178699 0.1868196130 -9999.000000 2.0496394634 2.1337594986 1.6089309454 -9999.000000  -999.250000 4.7506976128
 1838.6060000 72.846488953 8.9851617813 -0.030895231 2.4229640961 0.1895120442 -9999.000000 1.8409888744 1.9418997765 1.6106644869 -9999.000000  -999.250000 4.9079318047
