# LAS format log file from PETREL
# Project units are specified as depth units
#==================================================================
~Version information
VERS.   2.0:
WRAP.   NO:
#==================================================================
~Well
STRT .m      9.9060000000 :
STOP .m      2153.9060000 :
STEP .m     0.10000000 :
NULL .        -999.250000 :
COMP.           : COMPANY
WELL.  F03-02   : WELL
FLD.            : FIELD
LOC.            : LOCATION
SRVC.           : SERVICE COMPANY
DATE.  2023-08-04 09:51:44   : Log Export Date {yyyy-MM-dd HH:mm:ss}
PROV.           : PROVINCE
UWI.   7033   : UNIQUE WELL ID
API.            : API NUMBER
#==================================================================
~Curve
DEPT .m                   : DEPTH
DT .us/ft                 : DT
CAL .in                   : CAL
DRHO .g/cm3               : DRHO
RHOB .g/cm3               : RHOB
NPHI .m3/m3               : NPHI
ILD .ohm.m                : ILD
LLD .ohm.m                : LLD
LLS .ohm.m                : LLS
MLL .ohm.m                : MLL
SN .ohm.m                 : SN
SP .mV                    : SP
GR .gAPI                  : GR
~Parameter
#==================================================================
~Ascii
# ...
 1910.7060000 125.58304596 8.4820032120 -0.021033745 2.3671121597 0.3776730895 -9999.000000 0.7125449181 0.6850544214 0.3225826919 -9999.000000  -999.250000 90.835876465
 1910.8060000 125.77880096 8.4821834564 -0.022208193 2.3653964996 0.3757296503 -9999.000000 0.7007679939 0.6803617477 0.3155258000 -9999.000000  -999.250000 90.515403748
 1910.9060000 125.79413605 8.4823741913 -0.023357432 2.3531267643 0.3735405505 -9999.000000 0.6726111770 0.6633892655 0.3124431074 -9999.000000  -999.250000 90.569992065
 1911.0060000 125.49813843 8.4833965302 -0.023893785 2.3305327892 0.3773371875 -9999.000000 0.6511747241 0.6407384276 0.3055766225 -9999.000000  -999.250000 91.089752197
 1911.1060000 125.42085266 8.4849338531 -0.023366624 2.3051452637 0.3867077231 -9999.000000 0.6332002878 0.6159893274 0.2963761687 -9999.000000  -999.250000 91.950851440
 1911.2060000 125.78228760 8.4869174957 -0.022123225 2.2887132168 0.3930760324 -9999.000000 0.6139067411 0.5981439352 0.2852254510 -9999.000000  -999.250000 92.935317993
 1911.3060000 126.37417603 8.4890737534 -0.020493265 2.2840354443 0.3968318105 -9999.000000 0.5954564214 0.5785828233 0.2816161215 -9999.000000  -999.250000 93.818389893
 1911.4060000 126.87701416 8.4913625717 -0.018709464 2.2872819901 0.4026190341 -9999.000000 0.5789349675 0.5597832799 0.2835245728 -9999.000000  -999.250000 94.537193298
 1911.5060000 127.22567749 8.4938411713 -0.016879696 2.2938067913 0.4050374925 -9999.000000 0.5789999366 0.5642077923 0.2911374271 -9999.000000  -999.250000 95.116401672
 1911.6060000 127.62952423 8.4954805374 -0.015074393 2.3023827076 0.3947173655 -9999.000000 0.5877562761 0.5815434456 0.3144160211 -9999.000000  -999.250000 95.579277039
 1911.7060000 128.30749512 8.4964189529 -0.013334360 2.3116168976 0.3811363876 -9999.000000 0.6044713855 0.6093268394 0.3489884436 -9999.000000  -999.250000 95.970664978
 1911.8060000 129.27244568 8.4966659546 -0.011689777 2.3196535110 0.3757575452 -9999.000000 0.6514858603 0.6360784769 0.3360041976 -9999.000000  -999.250000 95.954162598
 1911.9060000 130.19662476 8.4950380325 -0.010928208 2.3259906769 0.3712548912 -9999.000000 0.6906011105 0.6636348963 0.3380495310 -9999.000000  -999.250000 95.173789978
 1912.0060000 130.78146362 8.4915590286 -0.012278818 2.3276548386 0.3698007464 -9999.000000 0.7219114900 0.6919866204 0.3549452126 -9999.000000  -999.250000 94.057861328
 1912.1060000 130.85572815 8.4770784378 -0.015951335 2.3201780319 0.3776328266 -9999.000000 0.7149446607 0.6921455264 0.3495134413 -9999.000000  -999.250000 93.014999390
 1912.2060000 130.48869324 8.4706344604 -0.021066098 2.3043763638 0.3860586286 -9999.000000 0.7032308578 0.6867037416 0.3344722390 -9999.000000  -999.250000 92.207962036
 1912.3060000 129.78874207 8.4740591049 -0.025693232 2.2898209095 0.3896771073 -9999.000000 0.6868336201 0.6753019094 0.3085385561 -9999.000000  -999.250000 91.677612305
 1912.4060000 128.91944885 8.4810304642 -0.026400961 2.2864978313 0.3876070678 -9999.000000 0.6663688421 0.6381834149 0.3168414533 -9999.000000  -999.250000 91.238998413
 1912.5060000 128.17253113 8.4887409210 -0.021695489 2.2925765514 0.3755723834 -9999.000000 0.6463876367 0.6167706847 0.3195202053 -9999.000000  -999.250000 90.563484192
 1912.6060000 127.54682922 8.4971570969 -0.015158008 2.3044426441 0.3585931659 -9999.000000 0.6275365353 0.6209321022 0.3104224503 -9999.000000  -999.250000 89.507301331
 1912.7060000 126.83505249 8.5028848648 -0.010832352 2.3200378418 0.3500311375 -9999.000000 0.6426668763 0.6306264400 0.3396907747 -9999.000000  -999.250000 88.141845703
 1912.8060000 126.39249420 8.5056591034 -0.011600808 2.3322787285 0.3474498093 -9999.000000 0.6542257071 0.6393615007 0.3566584587 -9999.000000  -999.250000 86.655288696
 1912.9060000 126.56481171 8.5038156509 -0.018309824 2.3345808983 0.3423634470 -9999.000000 0.6514304280 0.6450878978 0.3427207768 -9999.000000  -999.250000 85.209991455
 1913.0060000 126.72787476 8.5049371719 -0.024915248 2.3270606995 0.3395691514 -9999.000000 0.6383913755 0.6176046729 0.3247227967 -9999.000000  -999.250000 83.892890930
 1913.1060000 126.54000854 8.5056743622 -0.025029039 2.3157591820 0.3432596922 -9999.000000 0.6244270205 0.5956224203 0.3183212280 -9999.000000  -999.250000 82.753623962
 1913.2060000 126.48190308 8.5042905807 -0.021917649 2.3115713596 0.3492763340 -9999.000000 0.6128425002 0.6000136733 0.3391207159 -9999.000000  -999.250000 81.906875610
 1913.3060000 126.79522705 8.5042018890 -0.019710936 2.3175852299 0.3564680517 -9999.000000 0.6153155565 0.6108823419 0.3368989527 -9999.000000  -999.250000 81.498062134
 1913.4060000 127.33390808 8.5036077499 -0.019034617 2.3255376816 0.3673008084 -9999.000000 0.6224656701 0.6228473783 0.3324061036 -9999.000000  -999.250000 81.540534973
 1913.5060000 127.88182831 8.5006294250 -0.019990504 2.3241539001 0.3814269602 -9999.000000 0.6320476532 0.6329811811 0.3389520347 -9999.000000  -999.250000 81.962745667
 1913.6060000 128.37673950 8.4999895096 -0.022128703 2.3125154972 0.3917007148 -9999.000000 0.6427460909 0.6376212239 0.3283970952 -9999.000000  -999.250000 82.691658020
 1913.7060000 128.93276978 8.4983997345 -0.024256336 2.3010468483 0.3913567662 -9999.000000 0.6507120132 0.6388071179 0.3190391958 -9999.000000  -999.250000 83.632171631
 1913.8060000 129.65686035 8.4904136658 -0.024884094 2.2959721088 0.3878573775 -9999.000000 0.6474034190 0.6344946027 0.3356807530 -9999.000000  -999.250000 84.866577148
 1913.9060000 130.34561157 8.4831237793 -0.023247896 2.2954556942 0.3867941797 -9999.000000 0.6225025058 0.6183304191 0.3259882629 -9999.000000  -999.250000 86.459403992
 1914.0060000 130.59039307 8.4776744843 -0.019848127 2.2951462269 0.3849188387 -9999.000000 0.5895431638 0.5947359204 0.3093806803 -9999.000000  -999.250000 88.115287781
 1914.1060000 130.48384094 8.4798574448 -0.015835665 2.2994558811 0.3845280409 -9999.000000 0.5645503998 0.5605140328 0.3170195818 -9999.000000  -999.250000 89.601127625
 1914.2060000 130.34793091 8.4827585220 -0.013284232 2.3094081879 0.3903058171 -9999.000000 0.5580391288 0.5488925576 0.3074564934 -9999.000000  -999.250000 90.797538757
 1914.3060000 130.45483398 8.4856805801 -0.014292223 2.3124759197 0.4024296105 -9999.000000 0.5620819330 0.5502930284 0.2943819463 -9999.000000  -999.250000 91.615982056
 1914.4060000 130.76327515 8.4858770370 -0.017153304 2.3087162971 0.4171236157 -9999.000000 0.5685773492 0.5555328727 0.3248773515 -9999.000000  -999.250000 91.903099060
 1914.5060000 131.02888489 8.4860668182 -0.019639056 2.3085470200 0.4284355044 -9999.000000 0.5770424604 0.5632516742 0.3207686841 -9999.000000  -999.250000 91.553504944
 1914.6060000 131.22230530 8.4862470627 -0.020809751 2.3104455471 0.4314988256 -9999.000000 0.5866978168 0.5730490685 0.2954044342 -9999.000000  -999.250000 90.932441711
 1914.7060000 131.32432556 8.4863672256 -0.020546615 2.3107573986 0.4229777753 -9999.000000 0.5943852663 0.5879650116 0.3001148701 -9999.000000  -999.250000 90.181381226
 1914.8060000 131.15930176 8.4865436554 -0.018888153 2.3130548000 0.4120084643 -9999.000000 0.6016862988 0.5942550302 0.2975881696 -9999.000000  -999.250000 89.209693909
 1914.9060000 130.57002258 8.4867877960 -0.016463127 2.3176794052 0.4060597718 -9999.000000 0.6086638570 0.5934182405 0.2897999585 -9999.000000  -999.250000 87.982238770
 1915.0060000 129.54660034 8.4878816605 -0.013760087 2.3203144073 0.4090965390 -9999.000000 0.6154478192 0.5920951962 0.3107986450 -9999.000000  -999.250000 86.381179810
 1915.1060000 128.35591125 8.4890785217 -0.011248576 2.3246388435 0.4137819707 -9999.000000 0.6196038723 0.5910909176 0.3136720359 -9999.000000  -999.250000 84.676002502
 1915.2060000 127.42826843 8.4903755188 -0.009469024 2.3433518410 0.4088160098 -9999.000000 0.6211425662 0.5904041529 0.2984924912 -9999.000000  -999.250000 84.159561157
 1915.3060000 127.06594086 8.4906044006 -0.008590279 2.3881757259 0.3940224946 -9999.000000 0.5964987278 0.5918709636 0.3130439818 -9999.000000  -999.250000 85.161529541
 1915.4060000 126.91729736 8.4898195267 -0.008901448 2.4441564083 0.3768294454 -9999.000000 0.5767858624 0.5807284713 0.3182010949 -9999.000000  -999.250000 86.953689575
