# LAS format log file from PETREL
# Project units are specified as depth units
#==================================================================
~Version information
VERS.   2.0:
WRAP.   NO:
#==================================================================
~Well
STRT .m      9.9060000000 :
STOP .m      2153.9060000 :
STEP .m     0.10000000 :
NULL .        -999.250000 :
COMP.           : COMPANY
WELL.  F03-02   : WELL
FLD.            : FIELD
LOC.            : LOCATION
SRVC.           : SERVICE COMPANY
DATE.  2023-08-04 09:51:44   : Log Export Date {yyyy-MM-dd HH:mm:ss}
PROV.           : PROVINCE
UWI.   7033   : UNIQUE WELL ID
API.            : API NUMBER
#==================================================================
~Curve
DEPT .m                   : DEPTH
DT .us/ft                 : DT
CAL .in                   : CAL
DRHO .g/cm3               : DRHO
RHOB .g/cm3               : RHOB
NPHI .m3/m3               : NPHI
ILD .ohm.m                : ILD
LLD .ohm.m                : LLD
LLS .ohm.m                : LLS
MLL .ohm.m                : MLL
SN .ohm.m                 : SN
SP .mV                    : SP
GR .gAPI                  : GR
~Parameter
#==================================================================
~Ascii
# ...
 1440.3060000 152.32023621 12.362212181  -999.250000  -999.250000  -999.250000 0.3539327681 -9999.000000 -9999.000000 -9999.000000 0.5438402891 47.100570679 61.090621948
 1440.4060000 152.63284302 12.406853676  -999.250000  -999.250000  -999.250000 0.3567700088 -9999.000000 -9999.000000 -9999.000000 0.5382759571 47.194557190 60.574260712
 1440.5060000 152.55410767 12.442424774  -999.250000  -999.250000  -999.250000 0.3595456183 -9999.000000 -9999.000000 -9999.000000 0.5339208841 47.134986877 59.493141174
 1440.6060000 152.12544250 12.345825195  -999.250000  -999.250000  -999.250000 0.3622365594 -9999.000000 -9999.000000 -9999.000000 0.5565481782 46.531215668 58.353073120
 1440.7060000 151.51333618 12.412222862  -999.250000  -999.250000  -999.250000 0.3651455343 -9999.000000 -9999.000000 -9999.000000 0.5543207526 46.431766510 57.590667725
 1440.8060000 151.10681152 12.515685081  -999.250000  -999.250000  -999.250000 0.3682782352 -9999.000000 -9999.000000 -9999.000000 0.5437277555 46.583248138 57.778835297
 1440.9060000 151.43676758 12.483951569  -999.250000  -999.250000  -999.250000 0.3720023334 -9999.000000 -9999.000000 -9999.000000 0.5417152643 46.920673370 59.233348846
 1441.0060000 151.66806030 12.373617172  -999.250000  -999.250000  -999.250000 0.3759079874 -9999.000000 -9999.000000 -9999.000000 0.5368962288 47.071079254 60.852020264
 1441.1060000 151.25357056 12.248543739  -999.250000  -999.250000  -999.250000 0.3797553778 -9999.000000 -9999.000000 -9999.000000 0.5357109904 47.132770538 61.322994232
 1441.2060000 151.36842346 12.290786743  -999.250000  -999.250000  -999.250000 0.3826247752 -9999.000000 -9999.000000 -9999.000000 0.5671551824 47.248893738 61.120658875
 1441.3060000 151.70349121 12.238117218  -999.250000  -999.250000  -999.250000 0.3849188685 -9999.000000 -9999.000000 -9999.000000 0.5701839328 46.911613464 60.758216858
 1441.4060000 151.45272827 12.145830154  -999.250000  -999.250000  -999.250000 0.3866518438 -9999.000000 -9999.000000 -9999.000000 0.5566872954 46.350048065 60.800247192
 1441.5060000 150.87272644 12.269213676  -999.250000  -999.250000  -999.250000 0.3863661289 -9999.000000 -9999.000000 -9999.000000 0.5594172478 46.455612183 61.702529907
 1441.6060000 150.38320923 12.307082176  -999.250000  -999.250000  -999.250000 0.3863885999 -9999.000000 -9999.000000 -9999.000000 0.5456589460 46.427906036 63.092842102
 1441.7060000 150.44096375 12.283411026  -999.250000  -999.250000  -999.250000 0.3866638243 -9999.000000 -9999.000000 -9999.000000 0.5209755898 46.294349670 63.903743744
 1441.8060000 150.75524902 12.385492325  -999.250000  -999.250000  -999.250000 0.3872491419 -9999.000000 -9999.000000 -9999.000000 0.5437334180 46.111824036 63.907649994
 1441.9060000 151.17146301 12.432383537  -999.250000  -999.250000  -999.250000 0.3895530999 -9999.000000 -9999.000000 -9999.000000 0.5477452874 46.174095154 63.206630707
 1442.0060000 151.55142212 12.427299500  -999.250000  -999.250000  -999.250000 0.3934756219 -9999.000000 -9999.000000 -9999.000000 0.5341031551 46.466896057 62.178623199
 1442.1060000 151.78544617 12.404230118  -999.250000  -999.250000  -999.250000 0.3999615014 -9999.000000 -9999.000000 -9999.000000 0.5589935780 46.397224426 61.357391357
 1442.2060000 151.77912903 12.362493515  -999.250000  -999.250000  -999.250000 0.4060509801 -9999.000000 -9999.000000 -9999.000000 0.5609930158 46.101867676 60.795589447
 1442.3060000 151.31486511 12.299529076  -999.250000  -999.250000  -999.250000 0.4116625190 -9999.000000 -9999.000000 -9999.000000 0.5364050865 45.551239014 60.160949707
 1442.4060000 150.71701050 12.411446571  -999.250000  -999.250000  -999.250000 0.4144732058 -9999.000000 -9999.000000 -9999.000000 0.5616729259 45.623031616 59.379364014
 1442.5060000 150.16694641 12.441377640  -999.250000  -999.250000  -999.250000 0.4153808057 -9999.000000 -9999.000000 -9999.000000 0.5671759248 45.799438477 58.423286438
 1442.6060000 150.10662842 12.342689514  -999.250000  -999.250000  -999.250000 0.4138886631 -9999.000000 -9999.000000 -9999.000000 0.5410158038 46.067756653 57.257255554
 1442.7060000 150.43827820 12.428298950  -999.250000  -999.250000  -999.250000 0.4093657136 -9999.000000 -9999.000000 -9999.000000 0.5526154041 46.307559967 55.941902161
 1442.8060000 151.14283752 12.493264198  -999.250000  -999.250000  -999.250000 0.4030773640 -9999.000000 -9999.000000 -9999.000000 0.5527859330 46.445415497 54.572994232
 1442.9060000 151.96856689 12.486878395  -999.250000  -999.250000  -999.250000 0.3944089413 -9999.000000 -9999.000000 -9999.000000 0.5261837244 46.416816711 53.564323425
 1443.0060000 152.63281250 12.433922768  -999.250000  -999.250000  -999.250000 0.3976083994 -9999.000000 -9999.000000 -9999.000000 0.5176986456 46.324661255 53.080722809
 1443.1060000 152.83625793 12.343546867  -999.250000  -999.250000  -999.250000 0.4011142850 -9999.000000 -9999.000000 -9999.000000 0.5275775194 46.199451447 53.356079102
 1443.2060000 151.53277588 12.192502975  -999.250000  -999.250000  -999.250000 0.4007343650 -9999.000000 -9999.000000 -9999.000000 0.5690342188 46.029212952 53.870609283
 1443.3060000 150.85800171 12.245267868  -999.250000  -999.250000  -999.250000 0.3999466300 -9999.000000 -9999.000000 -9999.000000 0.5585304499 45.833477020 54.391441345
 1443.4060000 151.39677429 12.314100266  -999.250000  -999.250000  -999.250000 0.3979500234 -9999.000000 -9999.000000 -9999.000000 0.5371292233 45.637195587 54.790046692
 1443.5060000 150.52380371 12.290583611  -999.250000  -999.250000  -999.250000 0.3930515945 -9999.000000 -9999.000000 -9999.000000 0.5214306712 45.456321716 55.004318237
 1443.6060000 149.61824036 12.258902550  -999.250000  -999.250000  -999.250000 0.3884414136 -9999.000000 -9999.000000 -9999.000000 0.5344669223 45.275283813 55.182189941
 1443.7060000 149.39483643 12.228483200  -999.250000  -999.250000  -999.250000 0.3839606047 -9999.000000 -9999.000000 -9999.000000 0.5495660305 45.104591370 55.438964844
 1443.8060000 150.53787231 12.211629868  -999.250000  -999.250000  -999.250000 0.3795931339 -9999.000000 -9999.000000 -9999.000000 0.5390725732 44.969303131 55.843780518
 1443.9060000 151.44302368 12.234166145  -999.250000  -999.250000  -999.250000 0.3762502372 -9999.000000 -9999.000000 -9999.000000 0.5425359607 44.909206390 56.353473663
 1444.0060000 150.94331360 12.258508682  -999.250000  -999.250000  -999.250000 0.3739714622 -9999.000000 -9999.000000 -9999.000000 0.5513121486 44.923332214 57.057853699
 1444.1060000 150.44633484 12.215252876  -999.250000  -999.250000  -999.250000 0.3745684326 -9999.000000 -9999.000000 -9999.000000 0.5574294329 45.130886078 57.894477844
 1444.2060000 150.27706909 12.187794685  -999.250000  -999.250000  -999.250000 0.3759658337 -9999.000000 -9999.000000 -9999.000000 0.5479151607 45.359844208 58.659099579
 1444.3060000 150.96383667 12.171615601  -999.250000  -999.250000  -999.250000 0.3779825866 -9999.000000 -9999.000000 -9999.000000 0.5337183475 45.606712341 58.974361420
 1444.4060000 151.66387939 12.174986839  -999.250000  -999.250000  -999.250000 0.3813102543 -9999.000000 -9999.000000 -9999.000000 0.5435286164 45.897621155 59.192424774
 1444.5060000 151.99446106 12.193096161  -999.250000  -999.250000  -999.250000 0.3825339675 -9999.000000 -9999.000000 -9999.000000 0.5502688289 46.106952667 59.333202362
 1444.6060000 151.25219727 12.223253250  -999.250000  -999.250000  -999.250000 0.3823793232 -9999.000000 -9999.000000 -9999.000000 0.5538531542 46.260162354 59.363910675
 1444.7060000 150.52491760 12.281102180  -999.250000  -999.250000  -999.250000 0.3820457757 -9999.000000 -9999.000000 -9999.000000 0.5445294380 46.376880646 59.276313782
 1444.8060000 150.09420776 12.292196274  -999.250000  -999.250000  -999.250000 0.3819235861 -9999.000000 -9999.000000 -9999.000000 0.5486783981 46.333572388 58.797111511
 1444.9060000 150.53454590 12.267154694  -999.250000  -999.250000  -999.250000 0.3820779324 -9999.000000 -9999.000000 -9999.000000 0.5622858405 46.157249451 56.833602905
 1445.0060000 150.30015564 12.259033203  -999.250000  -999.250000  -999.250000 0.3853701055 -9999.000000 -9999.000000 -9999.000000 0.5438695550 45.774173737 55.148231506
