# LAS format log file from PETREL
# Project units are specified as depth units
#==================================================================
~Version information
VERS.   2.0:
WRAP.   NO:
#==================================================================
~Well
STRT .m      9.9060000000 :
STOP .m      2153.9060000 :
STEP .m     0.10000000 :
NULL .        -999.250000 :
COMP.           : COMPANY
WELL.  F03-02   : WELL
FLD.            : FIELD
LOC.            : LOCATION
SRVC.           : SERVICE COMPANY
DATE.  2023-08-04 09:51:44   : Log Export Date {yyyy-MM-dd HH:mm:ss}
PROV.           : PROVINCE
UWI.   7033   : UNIQUE WELL ID
API.            : API NUMBER
#==================================================================
~Curve
DEPT .m                   : DEPTH
DT .us/ft                 : DT
CAL .in                   : CAL
DRHO .g/cm3               : DRHO
RHOB .g/cm3               : RHOB
NPHI .m3/m3               : NPHI
ILD .ohm.m                : ILD
LLD .ohm.m                : LLD
LLS .ohm.m                : LLS
MLL .ohm.m                : MLL
SN .ohm.m                 : SN
SP .mV                    : SP
GR .gAPI                  : GR
~Parameter
#==================================================================
~Ascii
# ...
 979.50600000 126.70893097 12.280682564  -999.250000  -999.250000  -999.250000 0.5813930035 -9999.000000 -9999.000000 -9999.000000 0.8066089749 38.037010193 48.360698700
 979.60600000 127.84855652 12.280929565  -999.250000  -999.250000  -999.250000 0.5778132677 -9999.000000 -9999.000000 -9999.000000 0.8066549301 37.905094147 48.396671295
 979.70600000 129.94163513 12.275428772  -999.250000  -999.250000  -999.250000 0.5754788518 -9999.000000 -9999.000000 -9999.000000 0.8232880831 37.542579651 48.501834869
 979.80600000 131.33923340 12.266810417  -999.250000  -999.250000  -999.250000 0.5737068057 -9999.000000 -9999.000000 -9999.000000 0.8287802339 37.273468018 48.710952759
 979.90600000 131.64479065 12.253736496  -999.250000  -999.250000  -999.250000 0.5726050735 -9999.000000 -9999.000000 -9999.000000 0.7945715785 37.395820618 49.120067596
 980.00600000 130.93153381 12.235364914  -999.250000  -999.250000  -999.250000 0.5723680854 -9999.000000 -9999.000000 -9999.000000 0.8016704917 37.643032074 49.731388092
 980.10600000 131.05938721 12.219922066  -999.250000  -999.250000  -999.250000 0.5724145770 -9999.000000 -9999.000000 -9999.000000 0.8135467768 37.947315216 50.761947632
 980.20600000 130.82389832 12.220100403  -999.250000  -999.250000  -999.250000 0.5724605322 -9999.000000 -9999.000000 -9999.000000 0.7960546613 38.305526733 52.157310486
 980.30600000 130.12245178 12.238638878  -999.250000  -999.250000  -999.250000 0.5725036860 -9999.000000 -9999.000000 -9999.000000 0.7969169617 37.968441010 53.635471344
 980.40600000 129.27883911 12.269670486  -999.250000  -999.250000  -999.250000 0.5732194185 -9999.000000 -9999.000000 -9999.000000 0.8084239960 37.483539581 54.663368225
 980.50600000 130.40579224 12.322328568  -999.250000  -999.250000  -999.250000 0.5769428611 -9999.000000 -9999.000000 -9999.000000 0.8333309293 37.631397247 53.886619568
 980.60600000 131.60432434 12.337101936  -999.250000  -999.250000  -999.250000 0.5829725862 -9999.000000 -9999.000000 -9999.000000 0.8275058270 37.830711365 52.439132690
 980.70600000 131.21716309 12.327156067  -999.250000  -999.250000  -999.250000 0.5905666947 -9999.000000 -9999.000000 -9999.000000 0.8090791702 37.959247589 51.688411713
 980.80600000 130.81669617 12.285284996  -999.250000  -999.250000  -999.250000 0.6004899144 -9999.000000 -9999.000000 -9999.000000 0.8129013181 37.456748962 51.591049194
 980.90600000 130.88136292 12.294880867  -999.250000  -999.250000  -999.250000 0.6114356518 -9999.000000 -9999.000000 -9999.000000 0.8194569945 37.394115448 51.962379456
 981.00600000 132.19526672 12.331645966  -999.250000  -999.250000  -999.250000 0.6250235438 -9999.000000 -9999.000000 -9999.000000 0.8289933205 37.603759766 52.789379120
 981.10600000 132.50143433 12.308205605  -999.250000  -999.250000  -999.250000 0.6594776511 -9999.000000 -9999.000000 -9999.000000 0.8514684439 37.719497681 53.503829956
 981.20600000 132.27603149 12.289504051  -999.250000  -999.250000  -999.250000 0.6915335655 -9999.000000 -9999.000000 -9999.000000 0.8757058978 37.822883606 53.842990875
 981.30600000 131.92634583 12.275087357  -999.250000  -999.250000  -999.250000 0.7213502526 -9999.000000 -9999.000000 -9999.000000 0.9002852440 37.928314209 52.867446899
 981.40600000 130.62693787 12.275259018  -999.250000  -999.250000  -999.250000 0.7419893742 -9999.000000 -9999.000000 -9999.000000 0.8986067772 38.330249786 52.352382660
 981.50600000 129.70957947 12.276546478  -999.250000  -999.250000  -999.250000 0.7774790525 -9999.000000 -9999.000000 -9999.000000 0.8855933547 38.802909851 52.493133545
 981.60600000 129.17811584 12.278893471  -999.250000  -999.250000  -999.250000 0.8270102143 -9999.000000 -9999.000000 -9999.000000 0.8618625402 39.342449188 53.440193176
 981.70600000 128.67204285 12.271918297  -999.250000  -999.250000  -999.250000 0.8425216675 -9999.000000 -9999.000000 -9999.000000 0.8760470748 39.614070892 54.698196411
 981.80600000 128.72134399 12.305618286  -999.250000  -999.250000  -999.250000 0.8488078117 -9999.000000 -9999.000000 -9999.000000 0.8966328502 39.878673553 56.009521484
 981.90600000 129.49887085 12.386216164  -999.250000  -999.250000  -999.250000 0.8448353410 -9999.000000 -9999.000000 -9999.000000 0.9241873026 40.138004303 56.668922424
 982.00600000 130.44125366 12.344935417  -999.250000  -999.250000  -999.250000 0.8330859542 -9999.000000 -9999.000000 -9999.000000 0.9246224165 40.621959686 57.187114716
 982.10600000 129.94227600 12.379791260  -999.250000  -999.250000  -999.250000 0.8162117600 -9999.000000 -9999.000000 -9999.000000 0.9170482159 40.872070313 57.634933472
 982.20600000 129.78149414 12.531291008  -999.250000  -999.250000  -999.250000 0.7928810716 -9999.000000 -9999.000000 -9999.000000 0.9006899595 40.776969910 57.922527313
 982.30600000 129.92086792 12.428346634  -999.250000  -999.250000  -999.250000 0.7467211485 -9999.000000 -9999.000000 -9999.000000 0.8881886601 40.274532318 57.984405518
 982.40600000 128.70199585 12.332377434  -999.250000  -999.250000  -999.250000 0.7049198747 -9999.000000 -9999.000000 -9999.000000 0.8766681552 39.809791565 57.504245758
 982.50600000 126.96047974 12.299383163  -999.250000  -999.250000  -999.250000 0.6750974655 -9999.000000 -9999.000000 -9999.000000 0.8660351038 39.490856171 55.946739197
 982.60600000 125.14916992 12.298667908  -999.250000  -999.250000  -999.250000 0.6408467293 -9999.000000 -9999.000000 -9999.000000 0.8549682498 39.087459564 54.234130859
 982.70600000 123.74646759 12.335775375  -999.250000  -999.250000  -999.250000 0.6087848544 -9999.000000 -9999.000000 -9999.000000 0.8438301086 38.643035889 52.892650604
 982.80600000 123.37047577 12.440061569  -999.250000  -999.250000  -999.250000 0.5830420256 -9999.000000 -9999.000000 -9999.000000 0.8327093720 38.144851685 51.822277069
 982.90600000 124.22514343 12.484416962  -999.250000  -999.250000  -999.250000 0.5590038896 -9999.000000 -9999.000000 -9999.000000 0.8207455277 37.589187622 50.932205200
 983.00600000 126.11484528 12.487851143  -999.250000  -999.250000  -999.250000 0.5363454223 -9999.000000 -9999.000000 -9999.000000 0.8079163432 37.092071533 50.236854553
 983.10600000 128.44396973 12.423398018  -999.250000  -999.250000  -999.250000 0.5161867738 -9999.000000 -9999.000000 -9999.000000 0.7933685184 36.787677765 49.719985962
 983.20600000 130.76861572 12.491449356  -999.250000  -999.250000  -999.250000 0.4980866313 -9999.000000 -9999.000000 -9999.000000 0.7798708081 36.674354553 49.291362762
 983.30600000 132.50466919 12.561362267  -999.250000  -999.250000  -999.250000 0.4848011136 -9999.000000 -9999.000000 -9999.000000 0.7675255537 36.697345734 48.885047913
 983.40600000 133.46118164 12.485578537  -999.250000  -999.250000  -999.250000 0.4856423438 -9999.000000 -9999.000000 -9999.000000 0.7579219341 36.967910767 48.505260468
 983.50600000 134.77317810 12.507308006  -999.250000  -999.250000  -999.250000 0.4877740741 -9999.000000 -9999.000000 -9999.000000 0.7507646084 37.360927582 48.154026031
 983.60600000 136.24215698 12.557201385  -999.250000  -999.250000  -999.250000 0.4912620783 -9999.000000 -9999.000000 -9999.000000 0.7448705435 37.656539917 47.821609497
 983.70600000 136.79652405 12.546410561  -999.250000  -999.250000  -999.250000 0.4984579980 -9999.000000 -9999.000000 -9999.000000 0.7400074601 37.266971588 47.498897552
 983.80600000 136.91366577 12.488900185  -999.250000  -999.250000  -999.250000 0.5053995848 -9999.000000 -9999.000000 -9999.000000 0.7372196317 36.649936676 47.199771881
 983.90600000 137.08023071 12.416156769  -999.250000  -999.250000  -999.250000 0.5121790767 -9999.000000 -9999.000000 -9999.000000 0.7368990183 36.015651703 47.128551483
 984.00600000 136.90083313 12.408168793  -999.250000  -999.250000  -999.250000 0.5187765956 -9999.000000 -9999.000000 -9999.000000 0.7457906604 36.081050873 47.653686523
 984.10600000 136.00682068 12.445060730  -999.250000  -999.250000  -999.250000 0.5256211758 -9999.000000 -9999.000000 -9999.000000 0.7554374933 36.181293488 48.905826569
 984.20600000 134.43972778 12.496703148  -999.250000  -999.250000  -999.250000 0.5326781273 -9999.000000 -9999.000000 -9999.000000 0.7652849555 36.312080383 50.819740295
