# LAS format log file from PETREL
# Project units are specified as depth units
#==================================================================
~Version information
VERS.   2.0:
WRAP.   NO:
#==================================================================
~Well
STRT .m      9.9060000000 :
STOP .m      2153.9060000 :
STEP .m     0.10000000 :
NULL .        -999.250000 :
COMP.           : COMPANY
WELL.  F03-02   : WELL
FLD.            : FIELD
LOC.            : LOCATION
SRVC.           : SERVICE COMPANY
DATE.  2023-08-04 09:51:44   : Log Export Date {yyyy-MM-dd HH:mm:ss}
PROV.           : PROVINCE
UWI.   7033   : UNIQUE WELL ID
API.            : API NUMBER
#==================================================================
~Curve
DEPT .m                   : DEPTH
DT .us/ft                 : DT
CAL .in                   : CAL
DRHO .g/cm3               : DRHO
RHOB .g/cm3               : RHOB
NPHI .m3/m3               : NPHI
ILD .ohm.m                : ILD
LLD .ohm.m                : LLD
LLS .ohm.m                : LLS
MLL .ohm.m                : MLL
SN .ohm.m                 : SN
SP .mV                    : SP
GR .gAPI                  : GR
~Parameter
#==================================================================
~Ascii
# ...
 1521.9060000 154.92895508 12.324763298  -999.250000  -999.250000  -999.250000 0.2805560827 -9999.000000 -9999.000000 -9999.000000 0.4186773002 51.038234711 47.630336761
 1522.0060000 154.59619141 12.364080429  -999.250000  -999.250000  -999.250000 0.2762960792 -9999.000000 -9999.000000 -9999.000000 0.4310876727 51.322921753 47.460121155
 1522.1060000 154.49198914 12.223628044  -999.250000  -999.250000  -999.250000 0.2746542692 -9999.000000 -9999.000000 -9999.000000 0.4251187444 51.339073181 47.409618378
 1522.2060000 154.59246826 12.168468475  -999.250000  -999.250000  -999.250000 0.2741480172 -9999.000000 -9999.000000 -9999.000000 0.4178788960 51.212593079 47.528617859
 1522.3060000 154.86334229 12.297172546  -999.250000  -999.250000  -999.250000 0.2750475705 -9999.000000 -9999.000000 -9999.000000 0.4122781157 50.896987915 47.814933777
 1522.4060000 155.19790649 12.350272179  -999.250000  -999.250000  -999.250000 0.2763365507 -9999.000000 -9999.000000 -9999.000000 0.4293155968 50.754154205 48.137397766
 1522.5060000 155.34713745 12.326227188  -999.250000  -999.250000  -999.250000 0.2778067887 -9999.000000 -9999.000000 -9999.000000 0.4399213493 50.681964874 48.341018677
 1522.6060000 155.31587219 12.167102814  -999.250000  -999.250000  -999.250000 0.2795115411 -9999.000000 -9999.000000 -9999.000000 0.4279318452 50.692935944 48.344512939
 1522.7060000 155.21865845 12.149267197  -999.250000  -999.250000  -999.250000 0.2816608548 -9999.000000 -9999.000000 -9999.000000 0.4260601997 50.782466888 48.148246765
 1522.8060000 154.82995605 12.194193840  -999.250000  -999.250000  -999.250000 0.2835164070 -9999.000000 -9999.000000 -9999.000000 0.4273566008 50.943927765 47.811222076
 1522.9060000 154.46537781 12.309590340  -999.250000  -999.250000  -999.250000 0.2842788696 -9999.000000 -9999.000000 -9999.000000 0.4301492572 51.243690491 47.464126587
 1523.0060000 154.66116333 12.274393082  -999.250000  -999.250000  -999.250000 0.2842772603 -9999.000000 -9999.000000 -9999.000000 0.4327889681 51.187198639 47.250617981
 1523.1060000 154.74139404 12.211544991  -999.250000  -999.250000  -999.250000 0.2837463319 -9999.000000 -9999.000000 -9999.000000 0.4342679679 50.987285614 47.257286072
 1523.2060000 154.56642151 12.229139328  -999.250000  -999.250000  -999.250000 0.2822679877 -9999.000000 -9999.000000 -9999.000000 0.4318821430 50.705841064 47.467670441
 1523.3060000 154.97654724 12.172700882  -999.250000  -999.250000  -999.250000 0.2798017263 -9999.000000 -9999.000000 -9999.000000 0.4238311648 50.610885620 47.819667816
 1523.4060000 155.48425293 12.106486320  -999.250000  -999.250000  -999.250000 0.2769328058 -9999.000000 -9999.000000 -9999.000000 0.4159384668 50.669673920 48.231998444
 1523.5060000 155.29685974 12.143747330  -999.250000  -999.250000  -999.250000 0.2741703391 -9999.000000 -9999.000000 -9999.000000 0.4202081561 51.072269440 48.543071747
 1523.6060000 154.74577332 12.151481628  -999.250000  -999.250000  -999.250000 0.2699704170 -9999.000000 -9999.000000 -9999.000000 0.4233297706 51.316432953 48.389320374
 1523.7060000 154.46368408 12.143858910  -999.250000  -999.250000  -999.250000 0.2654791772 -9999.000000 -9999.000000 -9999.000000 0.4235674143 51.399593353 47.599460602
 1523.8060000 154.88929749 12.138948441  -999.250000  -999.250000  -999.250000 0.2642013133 -9999.000000 -9999.000000 -9999.000000 0.4084697664 50.966636658 46.622016907
 1523.9060000 155.44042969 12.143300056  -999.250000  -999.250000  -999.250000 0.2634204030 -9999.000000 -9999.000000 -9999.000000 0.4025623202 50.750194550 45.720699310
 1524.0060000 155.40530396 12.156715393  -999.250000  -999.250000  -999.250000 0.2629388869 -9999.000000 -9999.000000 -9999.000000 0.4034502506 50.693557739 44.779575348
 1524.1060000 155.48246765 12.204228401  -999.250000  -999.250000  -999.250000 0.2621377110 -9999.000000 -9999.000000 -9999.000000 0.4129036665 50.835483551 43.715011597
 1524.2060000 156.07807922 12.163173676  -999.250000  -999.250000  -999.250000 0.2618652284 -9999.000000 -9999.000000 -9999.000000 0.4205410480 51.007289886 43.088993073
 1524.3060000 156.49526978 12.060575485  -999.250000  -999.250000  -999.250000 0.2620252073 -9999.000000 -9999.000000 -9999.000000 0.4264141321 51.188060760 43.551963806
 1524.4060000 156.30494690 12.227053642  -999.250000  -999.250000  -999.250000 0.2624858618 -9999.000000 -9999.000000 -9999.000000 0.4230844975 50.932201385 44.533069611
 1524.5060000 156.12017822 12.289376259  -999.250000  -999.250000  -999.250000 0.2629628181 -9999.000000 -9999.000000 -9999.000000 0.4199093580 50.515918732 45.551559448
 1524.6060000 156.54838562 12.250418663  -999.250000  -999.250000  -999.250000 0.2634556293 -9999.000000 -9999.000000 -9999.000000 0.4168844223 49.943641663 46.480224609
 1524.7060000 156.68942261 12.276239395  -999.250000  -999.250000  -999.250000 0.2642972767 -9999.000000 -9999.000000 -9999.000000 0.4085475206 49.839790344 47.244373322
 1524.8060000 156.31927490 12.225617409  -999.250000  -999.250000  -999.250000 0.2652364373 -9999.000000 -9999.000000 -9999.000000 0.4111193419 49.971855164 47.969627380
 1524.9060000 155.79804993 12.083945274  -999.250000  -999.250000  -999.250000 0.2662830055 -9999.000000 -9999.000000 -9999.000000 0.4266049266 50.371356964 48.807846069
 1525.0060000 155.36715698 12.195343018  -999.250000  -999.250000  -999.250000 0.2676959932 -9999.000000 -9999.000000 -9999.000000 0.4206088185 50.674571991 49.446048737
 1525.1060000 154.95748901 12.219719887  -999.250000  -999.250000  -999.250000 0.2693312764 -9999.000000 -9999.000000 -9999.000000 0.4224196076 50.907718658 49.600826263
 1525.2060000 154.59793091 12.094589233  -999.250000  -999.250000  -999.250000 0.2712492645 -9999.000000 -9999.000000 -9999.000000 0.4375232756 51.049884796 49.157382965
 1525.3060000 154.51634216 12.163610458  -999.250000  -999.250000  -999.250000 0.2726127505 -9999.000000 -9999.000000 -9999.000000 0.4260933101 51.349346161 48.280406952
 1525.4060000 154.91142273 12.206431389  -999.250000  -999.250000  -999.250000 0.2738785446 -9999.000000 -9999.000000 -9999.000000 0.4236210585 51.461265564 47.203372955
 1525.5060000 155.69433594 12.160259247  -999.250000  -999.250000  -999.250000 0.2750970423 -9999.000000 -9999.000000 -9999.000000 0.4427063465 51.210475922 46.429847717
 1525.6060000 156.43711853 12.174767494  -999.250000  -999.250000  -999.250000 0.2767006457 -9999.000000 -9999.000000 -9999.000000 0.4527342618 51.221103668 45.897369385
 1525.7060000 157.02291870 12.237251282  -999.250000  -999.250000  -999.250000 0.2782951295 -9999.000000 -9999.000000 -9999.000000 0.4531489313 51.221302032 45.530563354
 1525.8060000 157.46125793 12.378204346  -999.250000  -999.250000  -999.250000 0.2797118723 -9999.000000 -9999.000000 -9999.000000 0.4365683496 51.091732025 45.297035217
 1525.9060000 157.81684875 12.402610779  -999.250000  -999.250000  -999.250000 0.2811277509 -9999.000000 -9999.000000 -9999.000000 0.4458857179 51.242828369 45.154418945
 1526.0060000 157.98144531 12.389249802  -999.250000  -999.250000  -999.250000 0.2825702131 -9999.000000 -9999.000000 -9999.000000 0.4565997422 51.529800415 45.115089417
 1526.1060000 157.81359863 12.356841087  -999.250000  -999.250000  -999.250000 0.2840859592 -9999.000000 -9999.000000 -9999.000000 0.4524383247 51.985340118 45.189186096
 1526.2060000 157.24496460 12.296550751  -999.250000  -999.250000  -999.250000 0.2857719660 -9999.000000 -9999.000000 -9999.000000 0.4552351534 51.853530884 45.439434052
 1526.3060000 156.59518433 12.225404739  -999.250000  -999.250000  -999.250000 0.2879147828 -9999.000000 -9999.000000 -9999.000000 0.4564652443 51.535533905 45.953083038
 1526.4060000 155.87625122 12.149794579  -999.250000  -999.250000  -999.250000 0.2914613187 -9999.000000 -9999.000000 -9999.000000 0.4437332451 51.273635864 46.581073761
 1526.5060000 154.68518066 12.246121407  -999.250000  -999.250000  -999.250000 0.2960385084 -9999.000000 -9999.000000 -9999.000000 0.4281909764 51.057903290 47.337261200
 1526.6060000 153.66976929 12.378360748  -999.250000  -999.250000  -999.250000 0.3011873066 -9999.000000 -9999.000000 -9999.000000 0.4145673811 50.944507599 48.431156158
