# LAS format log file from PETREL
# Project units are specified as depth units
#==================================================================
~Version information
VERS.   2.0:
WRAP.   NO:
#==================================================================
~Well
STRT .m      9.9060000000 :
STOP .m      2153.9060000 :
STEP .m     0.10000000 :
NULL .        -999.250000 :
COMP.           : COMPANY
WELL.  F03-02   : WELL
FLD.            : FIELD
LOC.            : LOCATION
SRVC.           : SERVICE COMPANY
DATE.  2023-08-04 09:51:44   : Log Export Date {yyyy-MM-dd HH:mm:ss}
PROV.           : PROVINCE
UWI.   7033   : UNIQUE WELL ID
API.            : API NUMBER
#==================================================================
~Curve
DEPT .m                   : DEPTH
DT .us/ft                 : DT
CAL .in                   : CAL
DRHO .g/cm3               : DRHO
RHOB .g/cm3               : RHOB
NPHI .m3/m3               : NPHI
ILD .ohm.m                : ILD
LLD .ohm.m                : LLD
LLS .ohm.m                : LLS
MLL .ohm.m                : MLL
SN .ohm.m                 : SN
SP .mV                    : SP
GR .gAPI                  : GR
~Parameter
#==================================================================
~Ascii
# ...
 1209.9060000 136.76081848 12.432866096  -999.250000  -999.250000  -999.250000 0.8215370774 -9999.000000 -9999.000000 -9999.000000 1.0961430073 45.990943909 89.763839722
 1210.0060000 135.72225952 12.357209206  -999.250000  -999.250000  -999.250000 0.8263436556 -9999.000000 -9999.000000 -9999.000000 1.1084355116 45.499469757 90.375144958
 1210.1060000 135.22984314 12.332914352  -999.250000  -999.250000  -999.250000 0.8267414570 -9999.000000 -9999.000000 -9999.000000 1.1002434492 45.561355591 90.748847961
 1210.2060000 134.50828552 12.356798172  -999.250000  -999.250000  -999.250000 0.8230039477 -9999.000000 -9999.000000 -9999.000000 1.0728372335 46.142280579 90.358970642
 1210.3060000 133.57951355 12.305251122  -999.250000  -999.250000  -999.250000 0.8223682642 -9999.000000 -9999.000000 -9999.000000 1.1043235064 45.761116028 89.184936523
 1210.4060000 133.17448425 12.289672852  -999.250000  -999.250000  -999.250000 0.8234593272 -9999.000000 -9999.000000 -9999.000000 1.1120064259 45.406852722 87.499588013
 1210.5060000 133.22253418 12.315505028  -999.250000  -999.250000  -999.250000 0.8264769912 -9999.000000 -9999.000000 -9999.000000 1.0922013521 45.091835022 86.347572327
 1210.6060000 133.61889648 12.334522247  -999.250000  -999.250000  -999.250000 0.8314014077 -9999.000000 -9999.000000 -9999.000000 1.1176748276 45.078006744 85.424263000
 1210.7060000 134.03721619 12.341109276  -999.250000  -999.250000  -999.250000 0.8364627361 -9999.000000 -9999.000000 -9999.000000 1.1288930178 45.258121490 84.669219971
 1210.8060000 134.64633179 12.331007957  -999.250000  -999.250000  -999.250000 0.8415598869 -9999.000000 -9999.000000 -9999.000000 1.1166901588 45.682861328 84.011009216
 1210.9060000 135.41307068 12.318213463  -999.250000  -999.250000  -999.250000 0.8447533250 -9999.000000 -9999.000000 -9999.000000 1.1222168207 45.960418701 83.431678772
 1211.0060000 135.93408203 12.306300163  -999.250000  -999.250000  -999.250000 0.8471871614 -9999.000000 -9999.000000 -9999.000000 1.1318370104 45.952934265 83.081184387
 1211.1060000 136.59004211 12.296401024  -999.250000  -999.250000  -999.250000 0.8487117887 -9999.000000 -9999.000000 -9999.000000 1.1448935270 45.493095398 83.584526062
 1211.2060000 137.33424377 12.344095230  -999.250000  -999.250000  -999.250000 0.8526045084 -9999.000000 -9999.000000 -9999.000000 1.1517926455 45.776634216 84.117439270
 1211.3060000 137.19854736 12.382543564  -999.250000  -999.250000  -999.250000 0.8568191528 -9999.000000 -9999.000000 -9999.000000 1.1513558626 46.018943787 84.296806335
 1211.4060000 136.68385315 12.380146027  -999.250000  -999.250000  -999.250000 0.8608256578 -9999.000000 -9999.000000 -9999.000000 1.1378384829 45.897720337 83.997390747
 1211.5060000 135.93792725 12.357132912  -999.250000  -999.250000  -999.250000 0.8700186014 -9999.000000 -9999.000000 -9999.000000 1.1531759501 45.562698364 83.548210144
 1211.6060000 135.58863831 12.361207962  -999.250000  -999.250000  -999.250000 0.8785765767 -9999.000000 -9999.000000 -9999.000000 1.1629563570 45.390758514 83.263038635
 1211.7060000 134.99237061 12.449857712  -999.250000  -999.250000  -999.250000 0.8820676804 -9999.000000 -9999.000000 -9999.000000 1.1392368078 45.786804199 84.826370239
 1211.8060000 133.72906494 12.456491470  -999.250000  -999.250000  -999.250000 0.8839843869 -9999.000000 -9999.000000 -9999.000000 1.1350653172 46.004444122 86.991699219
 1211.9060000 132.21076965 12.441331863  -999.250000  -999.250000  -999.250000 0.8843134642 -9999.000000 -9999.000000 -9999.000000 1.1405733824 46.120594025 89.184806824
 1212.0060000 131.31468201 12.443363190  -999.250000  -999.250000  -999.250000 0.8810361028 -9999.000000 -9999.000000 -9999.000000 1.1570816040 46.092098236 91.418037415
 1212.1060000 132.02069092 12.457492828  -999.250000  -999.250000  -999.250000 0.8754035830 -9999.000000 -9999.000000 -9999.000000 1.1426583529 45.724788666 93.531509399
 1212.2060000 132.27722168 12.477004051  -999.250000  -999.250000  -999.250000 0.8681376576 -9999.000000 -9999.000000 -9999.000000 1.1266696453 45.319828033 95.138572693
 1212.3060000 132.79107666 12.497867584  -999.250000  -999.250000  -999.250000 0.8579413891 -9999.000000 -9999.000000 -9999.000000 1.1627950668 45.392337799 95.335678101
 1212.4060000 134.35371399 12.498404503  -999.250000  -999.250000  -999.250000 0.8514590859 -9999.000000 -9999.000000 -9999.000000 1.1568986177 45.521118164 94.891883850
 1212.5060000 134.65000916 12.486960411  -999.250000  -999.250000  -999.250000 0.8473765254 -9999.000000 -9999.000000 -9999.000000 1.1366654634 45.676586151 94.620132446
 1212.6060000 134.28712463 12.466618538  -999.250000  -999.250000  -999.250000 0.8462979198 -9999.000000 -9999.000000 -9999.000000 1.1659846306 45.814453125 95.146041870
 1212.7060000 133.77108765 12.409472466  -999.250000  -999.250000  -999.250000 0.8472048044 -9999.000000 -9999.000000 -9999.000000 1.1698164940 46.034271240 96.268333435
 1212.8060000 133.86694336 12.343447685  -999.250000  -999.250000  -999.250000 0.8497762680 -9999.000000 -9999.000000 -9999.000000 1.1594414711 46.279193878 97.891288757
 1212.9060000 134.17274475 12.440455437  -999.250000  -999.250000  -999.250000 0.8564816117 -9999.000000 -9999.000000 -9999.000000 1.1740905046 46.219310760 99.204399109
 1213.0060000 133.98406982 12.471719742  -999.250000  -999.250000  -999.250000 0.8653647304 -9999.000000 -9999.000000 -9999.000000 1.1610379219 45.935024261 100.35910034
 1213.1060000 133.78576660 12.453811646  -999.250000  -999.250000  -999.250000 0.8759746552 -9999.000000 -9999.000000 -9999.000000 1.1275899410 45.487533569 101.57840729
 1213.2060000 133.91032410 12.500481606  -999.250000  -999.250000  -999.250000 0.8869910240 -9999.000000 -9999.000000 -9999.000000 1.1298046112 45.381225586 101.99578094
 1213.3060000 135.16915894 12.472630501  -999.250000  -999.250000  -999.250000 0.8959904909 -9999.000000 -9999.000000 -9999.000000 1.1334456205 45.291950226 101.54915619
 1213.4060000 135.83712769 12.374318123  -999.250000  -999.250000  -999.250000 0.9030829072 -9999.000000 -9999.000000 -9999.000000 1.1384351254 45.218776703 99.986373901
 1213.5060000 135.57247925 12.375190735  -999.250000  -999.250000  -999.250000 0.9088503122 -9999.000000 -9999.000000 -9999.000000 1.1692001820 45.742527008 97.974853516
 1213.6060000 135.48974609 12.410413742  -999.250000  -999.250000  -999.250000 0.9130039215 -9999.000000 -9999.000000 -9999.000000 1.1748371124 45.832492828 96.183090210
 1213.7060000 135.73600769 12.483926773  -999.250000  -999.250000  -999.250000 0.9153118134 -9999.000000 -9999.000000 -9999.000000 1.1510852575 45.412979126 96.668975830
 1213.8060000 136.48739624 12.481638908  -999.250000  -999.250000  -999.250000 0.9135246277 -9999.000000 -9999.000000 -9999.000000 1.1696660519 45.516616821 97.548873901
 1213.9060000 136.87948608 12.450269699  -999.250000  -999.250000  -999.250000 0.9099225998 -9999.000000 -9999.000000 -9999.000000 1.1779537201 45.704521179 98.344848633
 1214.0060000 136.31137085 12.384887695  -999.250000  -999.250000  -999.250000 0.9041423202 -9999.000000 -9999.000000 -9999.000000 1.1681399345 45.964382172 98.992515564
 1214.1060000 135.67063904 12.418285370  -999.250000  -999.250000  -999.250000 0.8987296224 -9999.000000 -9999.000000 -9999.000000 1.1662459373 46.253570557 99.569320679
 1214.2060000 135.14372253 12.438314438  -999.250000  -999.250000  -999.250000 0.8934397101 -9999.000000 -9999.000000 -9999.000000 1.1667256355 46.420661926 100.14564514
 1214.3060000 134.68545532 12.414844513  -999.250000  -999.250000  -999.250000 0.8882841468 -9999.000000 -9999.000000 -9999.000000 1.1696350574 46.371959686 100.92144012
 1214.4060000 134.27136230 12.464344978  -999.250000  -999.250000  -999.250000 0.8798800111 -9999.000000 -9999.000000 -9999.000000 1.1399338245 45.992652893 101.78155518
 1214.5060000 134.12528992 12.490345001  -999.250000  -999.250000  -999.250000 0.8704441190 -9999.000000 -9999.000000 -9999.000000 1.1144157648 45.853065491 102.47661591
 1214.6060000 134.35714722 12.438321114  -999.250000  -999.250000  -999.250000 0.8600863814 -9999.000000 -9999.000000 -9999.000000 1.1103993654 46.348838806 102.55307007
