# LAS format log file from PETREL
# Project units are specified as depth units
#==================================================================
~Version information
VERS.   2.0:
WRAP.   NO:
#==================================================================
~Well
STRT .m      9.9060000000 :
STOP .m      2153.9060000 :
STEP .m     0.10000000 :
NULL .        -999.250000 :
COMP.           : COMPANY
WELL.  F03-02   : WELL
FLD.            : FIELD
LOC.            : LOCATION
SRVC.           : SERVICE COMPANY
DATE.  2023-08-04 09:51:44   : Log Export Date {yyyy-MM-dd HH:mm:ss}
PROV.           : PROVINCE
UWI.   7033   : UNIQUE WELL ID
API.            : API NUMBER
#==================================================================
~Curve
DEPT .m                   : DEPTH
DT .us/ft                 : DT
CAL .in                   : CAL
DRHO .g/cm3               : DRHO
RHOB .g/cm3               : RHOB
NPHI .m3/m3               : NPHI
ILD .ohm.m                : ILD
LLD .ohm.m                : LLD
LLS .ohm.m                : LLS
MLL .ohm.m                : MLL
SN .ohm.m                 : SN
SP .mV                    : SP
GR .gAPI                  : GR
~Parameter
#==================================================================
~Ascii
# ...
 1680.3060000 89.256553650 9.1392812729 -0.021457026 2.2633702755 0.2610929310 -9999.000000 0.3191766143 0.2988249660 0.2767408490 -9999.000000  -999.250000 7.5660276413
 1680.4060000 88.721015930 9.1092910767 -0.017630922 2.2530972958 0.2645874023 -9999.000000 0.3013384342 0.2837558687 0.2621850967 -9999.000000  -999.250000 7.4639716148
 1680.5060000 88.141014099 9.0570993423 -0.013178095 2.2528266907 0.2673397958 -9999.000000 0.2877429128 0.2781130672 0.2597576380 -9999.000000  -999.250000 7.2905783653
 1680.6060000 88.201499939 9.0184221268 -0.008540285 2.2635240555 0.2708669603 -9999.000000 0.2806495726 0.2768687606 0.2613862753 -9999.000000  -999.250000 7.0995798111
 1680.7060000 89.441780090 8.9864425659 -0.004451863 2.2770147324 0.2702580392 -9999.000000 0.2784722745 0.2786994874 0.2689391077 -9999.000000  -999.250000 6.9200897217
 1680.8060000 91.339126587 8.9627017975 -0.002143502 2.2884669304 0.2673884332 -9999.000000 0.2826973200 0.2845006585 0.2845979035 -9999.000000  -999.250000 6.7626829147
 1680.9060000 92.938247681 8.9610891342 -0.002139284 2.2999515533 0.2690768540 -9999.000000 0.2922712266 0.2943558395 0.3068045378 -9999.000000  -999.250000 6.6297941208
 1681.0060000 93.580307007 8.9629812241 -0.003998480 2.3113155365 0.2771682739 -9999.000000 0.3042877018 0.3043546975 0.4469251037 -9999.000000  -999.250000 6.5238127708
 1681.1060000 93.184951782 8.9660425186 -0.006638594 2.3174588680 0.2861249745 -9999.000000 0.3194229603 0.3136816919 0.7951726317 -9999.000000  -999.250000 6.4453983307
 1681.2060000 91.940345764 8.9832324982 -0.009266857 2.3168933392 0.2877607942 -9999.000000 0.3299952745 0.3218765855 1.8438984156 -9999.000000  -999.250000 6.4093270302
 1681.3060000 89.636108398 9.0089282990 -0.011660048 2.3072035313 0.2770316303 -9999.000000 0.3392849565 0.3300417066 2.2941977978 -9999.000000  -999.250000 6.4301385880
 1681.4060000 86.366065979 9.0472517014 -0.013897144 2.2876105309 0.2572935522 -9999.000000 0.3477097750 0.3386254013 1.1316062212 -9999.000000  -999.250000 6.5022883415
 1681.5060000 82.495300293 8.9994230270 -0.015612536 2.2656271458 0.2395914644 -9999.000000 0.3581160903 0.3476988077 0.5650512576 -9999.000000  -999.250000 6.5961823463
 1681.6060000 77.628440857 8.9578542709 -0.015963351 2.2445709705 0.2303313315 -9999.000000 0.3666870892 0.3539020717 0.2666630447 -9999.000000  -999.250000 6.6640520096
 1681.7060000 73.815101624 8.9963455200 -0.014618115 2.2229051590 0.2241496891 -9999.000000 0.3687735796 0.3518686593 0.2695097327 -9999.000000  -999.250000 6.6791553497
 1681.8060000 74.153419495 8.9631261826 -0.011797781 2.2029519081 0.2181144506 -9999.000000 0.3654188812 0.3434978127 0.2791049778 -9999.000000  -999.250000 6.6399965286
 1681.9060000 77.479919434 8.9197816849 -0.008832024 2.1917290688 0.2235731035 -9999.000000 0.3524422050 0.3289667368 0.2817123532 -9999.000000  -999.250000 6.5741982460
 1682.0060000 82.073867798 8.9303417206 -0.007820444 2.1929907799 0.2452894151 -9999.000000 0.3116089702 0.3002004623 0.2505941689 -9999.000000  -999.250000 6.5326519012
 1682.1060000 87.636466980 8.9573650360 -0.009618692 2.2011265755 0.2728065550 -9999.000000 0.2842062116 0.2761477530 0.2414991409 -9999.000000  -999.250000 6.5496439934
 1682.2060000 93.018135071 8.9857444763 -0.013205186 2.2087671757 0.2912244499 -9999.000000 0.2640811205 0.2564262450 0.2441071421 -9999.000000  -999.250000 6.6120634079
 1682.3060000 96.477836609 8.9853067398 -0.017283134 2.2189006805 0.2977518439 -9999.000000 0.2505758703 0.2477040887 0.2564433217 -9999.000000  -999.250000 6.7021017075
 1682.4060000 97.640724182 8.9646253586 -0.021083687 2.2319612503 0.2984311879 -9999.000000 0.2460559607 0.2451258749 0.2648922503 -9999.000000  -999.250000 6.8136506081
 1682.5060000 97.218803406 8.9377994537 -0.023751291 2.2433855534 0.3003878295 -9999.000000 0.2466731966 0.2465437502 0.2703130543 -9999.000000  -999.250000 6.9359025955
 1682.6060000 96.326805115 8.9476327896 -0.024350055 2.2535514832 0.3048177361 -9999.000000 0.2485261261 0.2523185611 0.2693465352 -9999.000000  -999.250000 7.0770845413
 1682.7060000 95.534210205 8.9634542465 -0.022508087 2.2633140087 0.3098900318 -9999.000000 0.2603300810 0.2626976967 0.2795352340 -9999.000000  -999.250000 7.2488899231
 1682.8060000 94.524162292 8.9787435532 -0.019480743 2.2712311745 0.3123922348 -9999.000000 0.2801600397 0.2772782445 0.2956110537 -9999.000000  -999.250000 7.4389581680
 1682.9060000 93.487075806 8.9369964600 -0.016294699 2.2767744064 0.3084512949 -9999.000000 0.3167144060 0.3057002425 0.2915173769 -9999.000000  -999.250000 7.6416454315
 1683.0060000 93.191116333 8.9419574738 -0.013650514 2.2795693874 0.2957120538 -9999.000000 0.3405812085 0.3222743273 0.4517076910 -9999.000000  -999.250000 7.8519010544
 1683.1060000 92.621643066 8.9843482971 -0.012116594 2.2713689804 0.2812903821 -9999.000000 0.3535298407 0.3286918700 0.7325477600 -9999.000000  -999.250000 8.0562572479
 1683.2060000 90.930747986 8.9840536118 -0.011834518 2.2493495941 0.2749537528 -9999.000000 0.3488034606 0.3201262355 0.4340582788 -9999.000000  -999.250000 8.1615114212
 1683.3060000 90.446205139 8.9809188843 -0.012839300 2.2377767563 0.2724052966 -9999.000000 0.3358131349 0.3067626059 0.2768529058 -9999.000000  -999.250000 8.0272865295
 1683.4060000 91.729385376 8.9749584198 -0.014359340 2.2328662872 0.2581720352 -9999.000000 0.3145918548 0.2886201441 0.2603676617 -9999.000000  -999.250000 7.7876825333
 1683.5060000 93.431838989 8.9588899612 -0.015979454 2.2295196056 0.2393662333 -9999.000000 0.2846283317 0.2751814425 0.2578120530 -9999.000000  -999.250000 7.5132350922
 1683.6060000 93.748199463 8.9507436752 -0.017602196 2.2304847240 0.2449457049 -9999.000000 0.2662526369 0.2639556825 0.2688311636 -9999.000000  -999.250000 7.2152209282
 1683.7060000 93.515930176 8.9523611069 -0.019237136 2.2251281738 0.2692659497 -9999.000000 0.2619924545 0.2552538216 0.2957348526 -9999.000000  -999.250000 6.9131336212
 1683.8060000 93.598960876 9.0176448822 -0.020869201 2.2090206146 0.2869560122 -9999.000000 0.2608323097 0.2484920323 0.2734958827 -9999.000000  -999.250000 6.6630711555
 1683.9060000 94.014114380 9.0592241287 -0.022465380 2.1901516914 0.2937006950 -9999.000000 0.2620925903 0.2462573051 0.2555694878 -9999.000000  -999.250000 6.5631904602
 1684.0060000 94.184494019 9.0588302612 -0.023973243 2.1897945404 0.3092449307 -9999.000000 0.2665607631 0.2504555881 0.2494965941 -9999.000000  -999.250000 6.5475726128
 1684.1060000 94.544509888 9.0256862640 -0.024977012 2.2000095844 0.3186880648 -9999.000000 0.2644043863 0.2485353351 0.2664454579 -9999.000000  -999.250000 6.5855078697
 1684.2060000 94.726898193 8.9835748672 -0.024405641 2.2120821476 0.3173211515 -9999.000000 0.2627916336 0.2480229586 0.2730706632 -9999.000000  -999.250000 6.6469674110
 1684.3060000 92.819648743 8.9332399368 -0.021857923 2.2128303051 0.3226761818 -9999.000000 0.2637431324 0.2515033185 0.2556591332 -9999.000000  -999.250000 6.7008872032
 1684.4060000 90.220954895 8.9936609268 -0.018278046 2.2072999477 0.3233728111 -9999.000000 0.2738034129 0.2585904896 0.3016034961 -9999.000000  -999.250000 6.7019963264
 1684.5060000 88.604988098 9.0369462967 -0.016239950 2.1994307041 0.3145138025 -9999.000000 0.2840623856 0.2647429109 0.4225344658 -9999.000000  -999.250000 6.5389409065
 1684.6060000 90.956665039 8.9919023514 -0.015668610 2.1940228939 0.3180184066 -9999.000000 0.2906526625 0.2671762705 0.6825456619 -9999.000000  -999.250000 6.1887087822
 1684.7060000 94.786010742 9.0044040680 -0.016472995 2.1827406883 0.3227157891 -9999.000000 0.2645494044 0.2471908629 0.5022415519 -9999.000000  -999.250000 5.6461882591
 1684.8060000 98.099716187 9.0216903687 -0.018526064 2.1622414589 0.3182401657 -9999.000000 0.2368198484 0.2237108350 0.3399992585 -9999.000000  -999.250000 5.1782855988
 1684.9060000 98.661399841 9.0083160400 -0.020869570 2.1626732349 0.3092780709 -9999.000000 0.2295826226 0.2075804174 0.5663170815 -9999.000000  -999.250000 4.8825726509
 1685.0060000 98.637443542 8.9924926758 -0.022970539 2.1684737206 0.3029060066 -9999.000000 0.2218801677 0.2089243978 0.4497091472 -9999.000000  -999.250000 4.9087934494
