# LAS format log file from PETREL
# Project units are specified as depth units
#==================================================================
~Version information
VERS.   2.0:
WRAP.   NO:
#==================================================================
~Well
STRT .m      9.9060000000 :
STOP .m      2153.9060000 :
STEP .m     0.10000000 :
NULL .        -999.250000 :
COMP.           : COMPANY
WELL.  F03-02   : WELL
FLD.            : FIELD
LOC.            : LOCATION
SRVC.           : SERVICE COMPANY
DATE.  2023-08-04 09:51:44   : Log Export Date {yyyy-MM-dd HH:mm:ss}
PROV.           : PROVINCE
UWI.   7033   : UNIQUE WELL ID
API.            : API NUMBER
#==================================================================
~Curve
DEPT .m                   : DEPTH
DT .us/ft                 : DT
CAL .in                   : CAL
DRHO .g/cm3               : DRHO
RHOB .g/cm3               : RHOB
NPHI .m3/m3               : NPHI
ILD .ohm.m                : ILD
LLD .ohm.m                : LLD
LLS .ohm.m                : LLS
MLL .ohm.m                : MLL
SN .ohm.m                 : SN
SP .mV                    : SP
GR .gAPI                  : GR
~Parameter
#==================================================================
~Ascii
# ...
 1757.1060000 86.159408569 9.2656517029 -0.027714556 2.3083102703 0.2482423633 -9999.000000 0.4105857015 0.3517515361 0.3502472341 -9999.000000  -999.250000 7.4501504898
 1757.2060000 86.272529602 9.3482074738 -0.028803118 2.3128685951 0.2488174438 -9999.000000 0.4081483185 0.3485302329 0.3621819019 -9999.000000  -999.250000 7.4316439629
 1757.3060000 86.021415710 9.3796958923 -0.028286597 2.3123996258 0.2540106177 -9999.000000 0.4067937732 0.3455308974 0.3087683916 -9999.000000  -999.250000 7.4060750008
 1757.4060000 85.721672058 9.2371168137 -0.026278529 2.3113508224 0.2563104630 -9999.000000 0.4036470652 0.3435850739 0.3052098453 -9999.000000  -999.250000 7.3674850464
 1757.5060000 85.778388977 9.1372566223 -0.023118788 2.3129665852 0.2492321283 -9999.000000 0.3991865516 0.3432269096 0.3281031251 -9999.000000  -999.250000 7.3018727303
 1757.6060000 86.220695496 9.2047863007 -0.019739265 2.3100130558 0.2458612025 -9999.000000 0.3926183283 0.3458889723 0.3875749111 -9999.000000  -999.250000 7.2040677071
 1757.7060000 86.911354065 9.1528224945 -0.016445557 2.3026449680 0.2479323447 -9999.000000 0.4032134712 0.3461035788 0.3504200578 -9999.000000  -999.250000 7.0732512474
 1757.8060000 87.249977112 9.1135778427 -0.013669838 2.3003332615 0.2460843325 -9999.000000 0.4139474630 0.3459202945 0.3048034608 -9999.000000  -999.250000 6.9553022385
 1757.9060000 87.277770996 9.1964569092 -0.011695676 2.2958850861 0.2495709658 -9999.000000 0.4125372469 0.3464308083 0.3064718843 -9999.000000  -999.250000 6.8804736137
 1758.0060000 87.069686890 9.1420001984 -0.011906954 2.2883954048 0.2600213289 -9999.000000 0.4064113796 0.3478936851 0.3130027652 -9999.000000  -999.250000 6.9038758278
 1758.1060000 86.778282166 9.0584430695 -0.017368965 2.2865087986 0.2655116916 -9999.000000 0.4010791183 0.3501312435 0.3183814585 -9999.000000  -999.250000 7.0920433998
 1758.2060000 86.834358215 9.0426874161 -0.023553826 2.2817568779 0.2670816183 -9999.000000 0.4045062959 0.3539534211 0.3135304153 -9999.000000  -999.250000 7.3770170212
 1758.3060000 86.925842285 9.0433082581 -0.028372709 2.2748599052 0.2684453428 -9999.000000 0.4090250134 0.3602730930 0.3136294782 -9999.000000  -999.250000 7.7209072113
 1758.4060000 86.535171509 9.0732526779 -0.030158812 2.2728214264 0.2737589180 -9999.000000 0.4138409793 0.3670327067 0.3130443096 -9999.000000  -999.250000 8.0714178085
 1758.5060000 86.564186096 9.2103481293 -0.029525723 2.2798621655 0.2770631015 -9999.000000 0.4177648723 0.3705865145 0.2985607088 -9999.000000  -999.250000 8.3482732773
 1758.6060000 86.586151123 9.2453374863 -0.026490968 2.2891728878 0.2754327357 -9999.000000 0.4234876633 0.3650642633 0.3214671314 -9999.000000  -999.250000 8.3626422882
 1758.7060000 86.177940369 9.2360391617 -0.023254244 2.2937624454 0.2677957416 -9999.000000 0.4290223420 0.3566453159 0.3758778572 -9999.000000  -999.250000 7.9107384682
 1758.8060000 85.761283875 9.3089313507 -0.020122556 2.2907934189 0.2610640228 -9999.000000 0.4261397719 0.3630166948 0.5102046132 -9999.000000  -999.250000 7.2026367188
 1758.9060000 85.666351318 9.2854909897 -0.017340284 2.2923107147 0.2539351881 -9999.000000 0.4219760895 0.3686551750 0.4684002995 -9999.000000  -999.250000 6.6719183922
 1759.0060000 85.954681396 9.1988620758 -0.015169605 2.3019292355 0.2457893193 -9999.000000 0.4174402058 0.3743629158 0.3202776611 -9999.000000  -999.250000 6.4659409523
 1759.1060000 86.418197632 9.1315937042 -0.013570767 2.3168833256 0.2372437119 -9999.000000 0.4189362526 0.3870020509 0.3211930096 -9999.000000  -999.250000 6.5243191719
 1759.2060000 86.295783997 9.0870761871 -0.013107562 2.3169469833 0.2346498519 -9999.000000 0.4224298000 0.3924488127 0.3239481151 -9999.000000  -999.250000 6.7744216919
 1759.3060000 85.888557434 9.0616044998 -0.014476338 2.3073225021 0.2381552756 -9999.000000 0.4276573062 0.3918374777 0.3279217482 -9999.000000  -999.250000 6.9200272560
 1759.4060000 86.301742554 9.0559749603 -0.016633742 2.3064465523 0.2499570251 -9999.000000 0.4370296001 0.3835374415 0.3209512830 -9999.000000  -999.250000 6.9579386711
 1759.5060000 86.218292236 9.0528259277 -0.018735120 2.3019289970 0.2529601753 -9999.000000 0.4436187148 0.3764858842 0.3163942993 -9999.000000  -999.250000 6.9204754829
 1759.6060000 85.734077454 9.0521373749 -0.020874714 2.2938580513 0.2493742406 -9999.000000 0.4474467933 0.3706728816 0.3142316043 -9999.000000  -999.250000 6.9188141823
 1759.7060000 86.097671509 9.0526847839 -0.023006031 2.2902452946 0.2605583668 -9999.000000 0.4293124676 0.3712199032 0.3135181069 -9999.000000  -999.250000 6.9679751396
 1759.8060000 86.060226440 9.0547790527 -0.025110437 2.2908954620 0.2664287388 -9999.000000 0.4159729183 0.3728587329 0.3497190475 -9999.000000  -999.250000 7.1256470680
 1759.9060000 85.598045349 9.0586929321 -0.027210070 2.2954351902 0.2651781440 -9999.000000 0.4089683294 0.3756339550 0.4300971627 -9999.000000  -999.250000 7.3381233215
 1760.0060000 85.507431030 9.2039899826 -0.029041609 2.2933230400 0.2526857853 -9999.000000 0.4127896726 0.3797519505 0.4240417480 -9999.000000  -999.250000 7.5615572929
 1760.1060000 84.958045959 9.2874574661 -0.029457636 2.2937271595 0.2457530946 -9999.000000 0.4164639711 0.3849744797 0.4163300097 -9999.000000  -999.250000 7.3109188080
 1760.2060000 83.896736145 9.2646551132 -0.028851960 2.2982578278 0.2452911884 -9999.000000 0.4187126458 0.3916627765 0.4158595204 -9999.000000  -999.250000 7.1745057106
 1760.3060000 84.092330933 9.2215347290 -0.027422834 2.3083479404 0.2359381318 -9999.000000 0.4196214080 0.4208943248 0.4561049640 -9999.000000  -999.250000 7.2791938782
 1760.4060000 84.092475891 9.2193641663 -0.025195487 2.3137066364 0.2322467566 -9999.000000 0.4270322621 0.4493230879 0.5001403093 -9999.000000  -999.250000 7.5632786751
 1760.5060000 83.698226929 9.2951641083 -0.022967938 2.3138029575 0.2367847711 -9999.000000 0.4463728070 0.4709332883 0.5412164330 -9999.000000  -999.250000 7.8901662827
 1760.6060000 83.844093323 9.2095661163 -0.020826096 2.3293578625 0.2351132780 -9999.000000 0.4684722424 0.4988826513 0.5962427855 -9999.000000  -999.250000 8.1752357483
 1760.7060000 83.869651794 9.1210193634 -0.018643547 2.3464484215 0.2355227023 -9999.000000 0.4942063689 0.5251052976 0.6128302217 -9999.000000  -999.250000 8.0270252228
 1760.8060000 83.474166870 9.0968990326 -0.016565382 2.3599946499 0.2408666462 -9999.000000 0.5268172622 0.5446964502 0.5377246141 -9999.000000  -999.250000 7.7669887543
 1760.9060000 82.718437195 9.0968437195 -0.014832485 2.3681149483 0.2420702428 -9999.000000 0.5529521108 0.5473164916 0.4877543747 -9999.000000  -999.250000 7.5680179596
 1761.0060000 81.693283081 9.1375694275 -0.014610291 2.3725793362 0.2381694466 -9999.000000 0.5749968886 0.5419867039 0.4493691027 -9999.000000  -999.250000 7.7464203835
 1761.1060000 80.555862427 9.2742166519 -0.015765781 2.3712699413 0.2285522521 -9999.000000 0.5905211568 0.5273279548 0.4242706895 -9999.000000  -999.250000 8.1772089005
 1761.2060000 80.549247742 9.1955614090 -0.018263049 2.3628783226 0.2284427732 -9999.000000 0.5718896985 0.5147434473 0.4306166470 -9999.000000  -999.250000 8.7803440094
 1761.3060000 80.964477539 9.1026744843 -0.021056762 2.3552939892 0.2289339155 -9999.000000 0.5452417731 0.5075308681 0.4604630470 -9999.000000  -999.250000 8.9884738922
 1761.4060000 81.376060486 9.2381620407 -0.023839904 2.3541865349 0.2239776999 -9999.000000 0.5335457325 0.5174599290 0.5361065269 -9999.000000  -999.250000 8.9804496765
 1761.5060000 81.669578552 9.2417173386 -0.026473211 2.3501565456 0.2228681743 -9999.000000 0.5287477970 0.5279405713 0.5311632156 -9999.000000  -999.250000 8.8984222412
 1761.6060000 81.694190979 9.2017869949 -0.028162299 2.3461129665 0.2220706344 -9999.000000 0.5279660225 0.5387988091 0.4956088960 -9999.000000  -999.250000 8.8015193939
 1761.7060000 81.319458008 9.2411804199 -0.028864941 2.3478338718 0.2177071124 -9999.000000 0.5317913294 0.5503095984 0.4881623983 -9999.000000  -999.250000 8.7020092010
 1761.8060000 81.291275024 9.2985820770 -0.028196804 2.3574283123 0.2163241059 -9999.000000 0.5512793660 0.5570124984 0.5044286847 -9999.000000  -999.250000 8.6009311676
