# LAS format log file from PETREL
# Project units are specified as depth units
#==================================================================
~Version information
VERS.   2.0:
WRAP.   NO:
#==================================================================
~Well
STRT .m      9.9060000000 :
STOP .m      2153.9060000 :
STEP .m     0.10000000 :
NULL .        -999.250000 :
COMP.           : COMPANY
WELL.  F03-02   : WELL
FLD.            : FIELD
LOC.            : LOCATION
SRVC.           : SERVICE COMPANY
DATE.  2023-08-04 09:51:44   : Log Export Date {yyyy-MM-dd HH:mm:ss}
PROV.           : PROVINCE
UWI.   7033   : UNIQUE WELL ID
API.            : API NUMBER
#==================================================================
~Curve
DEPT .m                   : DEPTH
DT .us/ft                 : DT
CAL .in                   : CAL
DRHO .g/cm3               : DRHO
RHOB .g/cm3               : RHOB
NPHI .m3/m3               : NPHI
ILD .ohm.m                : ILD
LLD .ohm.m                : LLD
LLS .ohm.m                : LLS
MLL .ohm.m                : MLL
SN .ohm.m                 : SN
SP .mV                    : SP
GR .gAPI                  : GR
~Parameter
#==================================================================
~Ascii
# ...
 1056.3060000 127.39826202 12.226869583  -999.250000  -999.250000  -999.250000 0.8273307681 -9999.000000 -9999.000000 -9999.000000 1.0069299936 39.642318726 57.930130005
 1056.4060000 127.82097626 12.214690208  -999.250000  -999.250000  -999.250000 0.8415993452 -9999.000000 -9999.000000 -9999.000000 0.9857212305 39.540084839 57.015293121
 1056.5060000 127.41406250 12.222231865  -999.250000  -999.250000  -999.250000 0.8515534401 -9999.000000 -9999.000000 -9999.000000 1.0062704086 39.849338531 56.456481934
 1056.6060000 126.98284149 12.234512329  -999.250000  -999.250000  -999.250000 0.8580729365 -9999.000000 -9999.000000 -9999.000000 1.0351634026 40.315921783 56.378669739
 1056.7060000 127.09942627 12.231572151  -999.250000  -999.250000  -999.250000 0.8572897911 -9999.000000 -9999.000000 -9999.000000 1.0243121386 40.723960876 56.701244354
 1056.8060000 127.61293793 12.211751938  -999.250000  -999.250000  -999.250000 0.8527898788 -9999.000000 -9999.000000 -9999.000000 1.0239104033 40.854858398 57.204380035
 1056.9060000 128.21678162 12.197235107  -999.250000  -999.250000  -999.250000 0.8450447917 -9999.000000 -9999.000000 -9999.000000 1.0288789272 40.830627441 57.723762512
 1057.0060000 128.52536011 12.273698807  -999.250000  -999.250000  -999.250000 0.8288117051 -9999.000000 -9999.000000 -9999.000000 1.0334534645 40.734745026 58.306861877
 1057.1060000 128.30598450 12.289839745  -999.250000  -999.250000  -999.250000 0.8143074512 -9999.000000 -9999.000000 -9999.000000 1.0367765427 40.526519775 58.955829620
 1057.2060000 127.72975159 12.262787819  -999.250000  -999.250000  -999.250000 0.8017060161 -9999.000000 -9999.000000 -9999.000000 1.0396493673 40.264900208 59.580284119
 1057.3060000 127.18168640 12.185481071  -999.250000  -999.250000  -999.250000 0.7975221276 -9999.000000 -9999.000000 -9999.000000 1.0461589098 40.193607330 60.058818817
 1057.4060000 126.62049866 12.196467400  -999.250000  -999.250000  -999.250000 0.7936988473 -9999.000000 -9999.000000 -9999.000000 1.0448646545 39.983341217 60.268165588
 1057.5060000 126.04511261 12.267814636  -999.250000  -999.250000  -999.250000 0.7901878357 -9999.000000 -9999.000000 -9999.000000 1.0378168821 39.667964935 60.105484009
 1057.6060000 125.80892181 12.139343262  -999.250000  -999.250000  -999.250000 0.7875266671 -9999.000000 -9999.000000 -9999.000000 1.0378384590 39.411281586 59.805999756
 1057.7060000 126.09751129 12.077094078  -999.250000  -999.250000  -999.250000 0.7869328260 -9999.000000 -9999.000000 -9999.000000 1.0383841991 39.344894409 59.542217255
 1057.8060000 126.77193451 12.077211380  -999.250000  -999.250000  -999.250000 0.7882858515 -9999.000000 -9999.000000 -9999.000000 1.0394237041 39.457725525 59.429489136
 1057.9060000 127.48168182 12.183476448  -999.250000  -999.250000  -999.250000 0.7948543429 -9999.000000 -9999.000000 -9999.000000 1.0419466496 39.533008575 59.508140564
 1058.0060000 127.87241364 12.267622948  -999.250000  -999.250000  -999.250000 0.8013626337 -9999.000000 -9999.000000 -9999.000000 1.0451844931 39.597309113 59.737087250
 1058.1060000 127.89434052 12.325531006  -999.250000  -999.250000  -999.250000 0.8077486157 -9999.000000 -9999.000000 -9999.000000 1.0492199659 39.649513245 60.018775940
 1058.2060000 127.50262451 12.318911552  -999.250000  -999.250000  -999.250000 0.8155394197 -9999.000000 -9999.000000 -9999.000000 1.0542171001 39.847324371 60.312561035
 1058.3060000 126.74249268 12.304412842  -999.250000  -999.250000  -999.250000 0.8225707412 -9999.000000 -9999.000000 -9999.000000 1.0578165054 40.097362518 60.615249634
 1058.4060000 126.12625122 12.284478188  -999.250000  -999.250000  -999.250000 0.8284243345 -9999.000000 -9999.000000 -9999.000000 1.0593870878 40.407638550 60.925312042
 1058.5060000 126.17627716 12.273298264  -999.250000  -999.250000  -999.250000 0.8323392868 -9999.000000 -9999.000000 -9999.000000 1.0560036898 40.440826416 61.237178802
 1058.6060000 126.23182678 12.272233009  -999.250000  -999.250000  -999.250000 0.8349650502 -9999.000000 -9999.000000 -9999.000000 1.0489429235 40.433860779 61.566532135
 1058.7060000 125.74497223 12.286510468  -999.250000  -999.250000  -999.250000 0.8357986212 -9999.000000 -9999.000000 -9999.000000 1.0366553068 40.413990021 61.959812164
 1058.8060000 125.30900574 12.309990883  -999.250000  -999.250000  -999.250000 0.8299705982 -9999.000000 -9999.000000 -9999.000000 1.0444420576 40.630325317 62.463573456
 1058.9060000 125.15226746 12.330441475  -999.250000  -999.250000  -999.250000 0.8195121884 -9999.000000 -9999.000000 -9999.000000 1.0533472300 40.773231506 63.037403107
 1059.0060000 125.06867218 12.340984344  -999.250000  -999.250000  -999.250000 0.8018575907 -9999.000000 -9999.000000 -9999.000000 1.0569131374 40.671001434 63.540508270
 1059.1060000 125.36355591 12.335547447  -999.250000  -999.250000  -999.250000 0.7872483134 -9999.000000 -9999.000000 -9999.000000 1.0516810417 40.379608154 63.847270966
 1059.2060000 125.92915344 12.322046280  -999.250000  -999.250000  -999.250000 0.7744179368 -9999.000000 -9999.000000 -9999.000000 1.0425131321 40.049186707 63.806255341
 1059.3060000 126.07776642 12.297886848  -999.250000  -999.250000  -999.250000 0.7642577291 -9999.000000 -9999.000000 -9999.000000 1.0288047791 39.741329193 63.380485535
 1059.4060000 125.66277313 12.211675644  -999.250000  -999.250000  -999.250000 0.7521216273 -9999.000000 -9999.000000 -9999.000000 1.0387715101 39.756954193 62.825065613
 1059.5060000 125.38062286 12.148454666  -999.250000  -999.250000  -999.250000 0.7390611768 -9999.000000 -9999.000000 -9999.000000 1.0512998104 39.889556885 62.352542877
 1059.6060000 125.86454010 12.234062195  -999.250000  -999.250000  -999.250000 0.7250664234 -9999.000000 -9999.000000 -9999.000000 1.0458612442 40.057403564 61.955764771
 1059.7060000 126.40562439 12.247514725  -999.250000  -999.250000  -999.250000 0.7152592540 -9999.000000 -9999.000000 -9999.000000 1.0488413572 40.230831146 61.679458618
 1059.8060000 126.23087311 12.240881920  -999.250000  -999.250000  -999.250000 0.7080809474 -9999.000000 -9999.000000 -9999.000000 1.0495668650 40.423412323 61.786949158
 1059.9060000 125.79471588 12.281941414  -999.250000  -999.250000  -999.250000 0.7048459053 -9999.000000 -9999.000000 -9999.000000 1.0236383677 40.693008423 62.502838135
 1060.0060000 126.09230804 12.244993210  -999.250000  -999.250000  -999.250000 0.7059473395 -9999.000000 -9999.000000 -9999.000000 1.0204660892 40.644401550 63.691783905
 1060.1060000 126.89927673 12.179958344  -999.250000  -999.250000  -999.250000 0.7094676495 -9999.000000 -9999.000000 -9999.000000 1.0270870924 40.409172058 64.904281616
 1060.2060000 126.85684204 12.200728416  -999.250000  -999.250000  -999.250000 0.7139571309 -9999.000000 -9999.000000 -9999.000000 1.0193883181 40.041728973 65.646774292
 1060.3060000 126.90389252 12.196524620  -999.250000  -999.250000  -999.250000 0.7199835181 -9999.000000 -9999.000000 -9999.000000 1.0202138424 39.571956635 65.793838501
 1060.4060000 127.99483490 12.181897163  -999.250000  -999.250000  -999.250000 0.7275481224 -9999.000000 -9999.000000 -9999.000000 1.0284721851 39.094753265 65.567413330
 1060.5060000 128.50976563 12.231531143  -999.250000  -999.250000  -999.250000 0.7410674691 -9999.000000 -9999.000000 -9999.000000 1.0576192141 39.270454407 65.394386292
 1060.6060000 128.32629395 12.244313240  -999.250000  -999.250000  -999.250000 0.7529536486 -9999.000000 -9999.000000 -9999.000000 1.0726293325 39.469093323 65.677696228
 1060.7060000 128.74589539 12.227575302  -999.250000  -999.250000  -999.250000 0.7635515928 -9999.000000 -9999.000000 -9999.000000 1.0760915279 39.676670074 66.493408203
 1060.8060000 130.17050171 12.194810867  -999.250000  -999.250000  -999.250000 0.7740095854 -9999.000000 -9999.000000 -9999.000000 1.0670489073 39.626045227 67.237541199
 1060.9060000 131.32798767 12.180407524  -999.250000  -999.250000  -999.250000 0.7893587947 -9999.000000 -9999.000000 -9999.000000 1.0773429871 39.684013367 67.538421631
 1061.0060000 130.79920959 12.183646202  -999.250000  -999.250000  -999.250000 0.8094073534 -9999.000000 -9999.000000 -9999.000000 1.1062155962 39.846309662 67.329284668
