# LAS format log file from PETREL
# Project units are specified as depth units
#==================================================================
~Version information
VERS.   2.0:
WRAP.   NO:
#==================================================================
~Well
STRT .m      9.9060000000 :
STOP .m      2153.9060000 :
STEP .m     0.10000000 :
NULL .        -999.250000 :
COMP.           : COMPANY
WELL.  F03-02   : WELL
FLD.            : FIELD
LOC.            : LOCATION
SRVC.           : SERVICE COMPANY
DATE.  2023-08-04 09:51:44   : Log Export Date {yyyy-MM-dd HH:mm:ss}
PROV.           : PROVINCE
UWI.   7033   : UNIQUE WELL ID
API.            : API NUMBER
#==================================================================
~Curve
DEPT .m                   : DEPTH
DT .us/ft                 : DT
CAL .in                   : CAL
DRHO .g/cm3               : DRHO
RHOB .g/cm3               : RHOB
NPHI .m3/m3               : NPHI
ILD .ohm.m                : ILD
LLD .ohm.m                : LLD
LLS .ohm.m                : LLS
MLL .ohm.m                : MLL
SN .ohm.m                 : SN
SP .mV                    : SP
GR .gAPI                  : GR
~Parameter
#==================================================================
~Ascii
# ...
 1286.7060000 134.66694641 12.494439125  -999.250000  -999.250000  -999.250000 0.7935404181 -9999.000000 -9999.000000 -9999.000000 0.9710094333 49.047622681 70.538856506
 1286.8060000 135.14102173 12.413325310  -999.250000  -999.250000  -999.250000 0.7889125347 -9999.000000 -9999.000000 -9999.000000 0.9528693557 48.996860504 69.617973328
 1286.9060000 136.65931702 12.361518860  -999.250000  -999.250000  -999.250000 0.7816316485 -9999.000000 -9999.000000 -9999.000000 0.9534322023 48.784378052 68.695083618
 1287.0060000 138.89053345 12.367868423  -999.250000  -999.250000  -999.250000 0.7709435821 -9999.000000 -9999.000000 -9999.000000 0.9823876619 48.357089996 68.330459595
 1287.1060000 139.06196594 12.302475929  -999.250000  -999.250000  -999.250000 0.7593253255 -9999.000000 -9999.000000 -9999.000000 0.9456161261 48.591735840 68.499549866
 1287.2060000 139.50860596 12.300544739  -999.250000  -999.250000  -999.250000 0.7468428016 -9999.000000 -9999.000000 -9999.000000 0.9293544292 48.799659729 69.131629944
 1287.3060000 140.22238159 12.419284821  -999.250000  -999.250000  -999.250000 0.7330890298 -9999.000000 -9999.000000 -9999.000000 0.9603931904 48.833515167 69.489669800
 1287.4060000 138.38864136 12.418904305  -999.250000  -999.250000  -999.250000 0.7319406867 -9999.000000 -9999.000000 -9999.000000 0.9532482624 48.438686371 70.285049438
 1287.5060000 137.15827942 12.427644730  -999.250000  -999.250000  -999.250000 0.7335329056 -9999.000000 -9999.000000 -9999.000000 0.9399388433 48.278015137 71.868362427
 1287.6060000 137.47875977 12.498703003  -999.250000  -999.250000  -999.250000 0.7361921668 -9999.000000 -9999.000000 -9999.000000 0.9278156757 48.757877350 73.585784912
 1287.7060000 136.96197510 12.496677399  -999.250000  -999.250000  -999.250000 0.7427189946 -9999.000000 -9999.000000 -9999.000000 0.9571619630 48.411922455 75.129371643
 1287.8060000 136.26277161 12.451620102  -999.250000  -999.250000  -999.250000 0.7514702678 -9999.000000 -9999.000000 -9999.000000 0.9844930768 48.130859375 76.289031982
 1287.9060000 135.97042847 12.341936111  -999.250000  -999.250000  -999.250000 0.7635037303 -9999.000000 -9999.000000 -9999.000000 0.9795042872 48.558055878 77.053588867
 1288.0060000 136.17533875 12.497893333  -999.250000  -999.250000  -999.250000 0.7743812203 -9999.000000 -9999.000000 -9999.000000 0.9830683470 48.565414429 77.384361267
 1288.1060000 137.08769226 12.635384560  -999.250000  -999.250000  -999.250000 0.7831685543 -9999.000000 -9999.000000 -9999.000000 0.9866576195 48.527423859 77.080642700
 1288.2060000 138.75672913 12.419335365  -999.250000  -999.250000  -999.250000 0.7862275243 -9999.000000 -9999.000000 -9999.000000 0.9809387922 48.798641205 76.111412048
 1288.3060000 139.88755798 12.515614510  -999.250000  -999.250000  -999.250000 0.7882761359 -9999.000000 -9999.000000 -9999.000000 0.9721376300 49.064289093 74.670875549
 1288.4060000 139.93168640 12.696326256  -999.250000  -999.250000  -999.250000 0.7898768783 -9999.000000 -9999.000000 -9999.000000 0.9653131962 49.215942383 72.905349731
 1288.5060000 138.63012695 12.664879799  -999.250000  -999.250000  -999.250000 0.7913736105 -9999.000000 -9999.000000 -9999.000000 0.9732974172 48.862388611 71.314819336
 1288.6060000 137.19599915 12.579155922  -999.250000  -999.250000  -999.250000 0.7911713123 -9999.000000 -9999.000000 -9999.000000 0.9945338368 48.779632568 69.981353760
 1288.7060000 135.98414612 12.494049072  -999.250000  -999.250000  -999.250000 0.7900043130 -9999.000000 -9999.000000 -9999.000000 1.0190632343 48.857418060 68.765991211
 1288.8060000 134.84335327 12.596066475  -999.250000  -999.250000  -999.250000 0.7883350253 -9999.000000 -9999.000000 -9999.000000 1.0201623440 49.059055328 67.371757507
 1288.9060000 133.28053284 12.547204018  -999.250000  -999.250000  -999.250000 0.7815004587 -9999.000000 -9999.000000 -9999.000000 0.9925345778 49.264774323 65.832008362
 1289.0060000 132.19943237 12.415656090  -999.250000  -999.250000  -999.250000 0.7722870111 -9999.000000 -9999.000000 -9999.000000 0.9510251880 49.465259552 64.504241943
 1289.1060000 132.48507690 12.434362411  -999.250000  -999.250000  -999.250000 0.7731445432 -9999.000000 -9999.000000 -9999.000000 0.9584204555 49.580287933 63.743984222
 1289.2060000 132.45875549 12.458905220  -999.250000  -999.250000  -999.250000 0.7742190361 -9999.000000 -9999.000000 -9999.000000 0.9518843293 49.691093445 63.404113770
 1289.3060000 132.25996399 12.485826492  -999.250000  -999.250000  -999.250000 0.7754651308 -9999.000000 -9999.000000 -9999.000000 0.9358718395 49.802772522 63.140960693
 1289.4060000 132.94436646 12.457263947  -999.250000  -999.250000  -999.250000 0.7767571211 -9999.000000 -9999.000000 -9999.000000 0.9559452534 50.020179749 62.823070526
 1289.5060000 133.79675293 12.377591133  -999.250000  -999.250000  -999.250000 0.7822848558 -9999.000000 -9999.000000 -9999.000000 0.9477113485 50.276420593 62.446086884
 1289.6060000 134.37217712 12.249593735  -999.250000  -999.250000  -999.250000 0.7918176055 -9999.000000 -9999.000000 -9999.000000 0.9127119780 50.569374084 62.035522461
 1289.7060000 134.90328979 12.241235733  -999.250000  -999.250000  -999.250000 0.7916348577 -9999.000000 -9999.000000 -9999.000000 0.9497737288 50.712711334 61.638427734
 1289.8060000 135.90721130 12.245785713  -999.250000  -999.250000  -999.250000 0.7899337411 -9999.000000 -9999.000000 -9999.000000 0.9646117687 50.712783813 61.450298309
 1289.9060000 137.32112122 12.263516426  -999.250000  -999.250000  -999.250000 0.7866214514 -9999.000000 -9999.000000 -9999.000000 0.9528735280 50.550125122 61.722866058
 1290.0060000 138.62562561 12.454695702  -999.250000  -999.250000  -999.250000 0.7797364593 -9999.000000 -9999.000000 -9999.000000 0.9557991624 50.670772552 62.393817902
 1290.1060000 139.67704773 12.556114197  -999.250000  -999.250000  -999.250000 0.7718328834 -9999.000000 -9999.000000 -9999.000000 0.9596402645 50.426765442 63.370700836
 1290.2060000 140.51719666 12.517412186  -999.250000  -999.250000  -999.250000 0.7628230453 -9999.000000 -9999.000000 -9999.000000 0.9634757638 49.650295258 64.561309814
 1290.3060000 141.17655945 12.596945763  -999.250000  -999.250000  -999.250000 0.7546519041 -9999.000000 -9999.000000 -9999.000000 0.9807068110 49.680168152 65.858413696
 1290.4060000 141.62242126 12.642923355  -999.250000  -999.250000  -999.250000 0.7443324924 -9999.000000 -9999.000000 -9999.000000 0.9878352880 49.812667847 67.203216553
 1290.5060000 141.55981445 12.607041359  -999.250000  -999.250000  -999.250000 0.7301658392 -9999.000000 -9999.000000 -9999.000000 0.9749147296 49.953723907 68.598449707
 1290.6060000 140.78041077 12.500223160  -999.250000  -999.250000  -999.250000 0.7230570316 -9999.000000 -9999.000000 -9999.000000 0.9358063340 50.116737366 70.125946045
 1290.7060000 139.62248230 12.472638130  -999.250000  -999.250000  -999.250000 0.7163710594 -9999.000000 -9999.000000 -9999.000000 0.9027104974 50.204673767 71.884536743
 1290.8060000 138.31629944 12.639291763  -999.250000  -999.250000  -999.250000 0.7078493834 -9999.000000 -9999.000000 -9999.000000 0.8923889995 50.126037598 73.884963989
 1290.9060000 136.98466492 12.579900742  -999.250000  -999.250000  -999.250000 0.6978457570 -9999.000000 -9999.000000 -9999.000000 0.8750949502 49.695938110 75.932907104
 1291.0060000 136.16743469 12.517195702  -999.250000  -999.250000  -999.250000 0.6866668463 -9999.000000 -9999.000000 -9999.000000 0.8579533100 49.355537415 77.403465271
 1291.1060000 136.10781860 12.598765373  -999.250000  -999.250000  -999.250000 0.6733464003 -9999.000000 -9999.000000 -9999.000000 0.8459434509 49.493347168 77.744789124
 1291.2060000 136.56863403 12.576264381  -999.250000  -999.250000  -999.250000 0.6594402790 -9999.000000 -9999.000000 -9999.000000 0.8451538682 49.548019409 77.320144653
 1291.3060000 137.89564514 12.549157143  -999.250000  -999.250000  -999.250000 0.6448186636 -9999.000000 -9999.000000 -9999.000000 0.8505424261 49.552692413 76.803413391
 1291.4060000 139.91134644 12.625710487  -999.250000  -999.250000  -999.250000 0.6284191012 -9999.000000 -9999.000000 -9999.000000 0.8642123938 49.481555939 76.526557922
