# LAS format log file from PETREL
# Project units are specified as depth units
#==================================================================
~Version information
VERS.   2.0:
WRAP.   NO:
#==================================================================
~Well
STRT .m      9.9060000000 :
STOP .m      2153.9060000 :
STEP .m     0.10000000 :
NULL .        -999.250000 :
COMP.           : COMPANY
WELL.  F03-02   : WELL
FLD.            : FIELD
LOC.            : LOCATION
SRVC.           : SERVICE COMPANY
DATE.  2023-08-04 09:51:44   : Log Export Date {yyyy-MM-dd HH:mm:ss}
PROV.           : PROVINCE
UWI.   7033   : UNIQUE WELL ID
API.            : API NUMBER
#==================================================================
~Curve
DEPT .m                   : DEPTH
DT .us/ft                 : DT
CAL .in                   : CAL
DRHO .g/cm3               : DRHO
RHOB .g/cm3               : RHOB
NPHI .m3/m3               : NPHI
ILD .ohm.m                : ILD
LLD .ohm.m                : LLD
LLS .ohm.m                : LLS
MLL .ohm.m                : MLL
SN .ohm.m                 : SN
SP .mV                    : SP
GR .gAPI                  : GR
~Parameter
#==================================================================
~Ascii
# ...
 902.70600000 121.69264221 12.463121414  -999.250000  -999.250000  -999.250000 0.9071314335 -9999.000000 -9999.000000 -9999.000000 0.9296058416 57.739746094 41.169345856
 902.80600000 127.12439728 12.400632858  -999.250000  -999.250000  -999.250000 0.9092152715 -9999.000000 -9999.000000 -9999.000000 0.9190652370 57.235157013 43.066711426
 902.90600000 131.17732239 12.501278877  -999.250000  -999.250000  -999.250000 0.9105443954 -9999.000000 -9999.000000 -9999.000000 0.9078995585 57.743144989 44.771366119
 903.00600000 134.66914368 12.563005447  -999.250000  -999.250000  -999.250000 0.9092334509 -9999.000000 -9999.000000 -9999.000000 1.2186944485 52.807323456 46.338695526
 903.10600000 138.37998962 12.527064323  -999.250000  -999.250000  -999.250000 0.9036135674 -9999.000000 -9999.000000 -9999.000000 2.0731363297 38.482994080 48.021495819
 903.20600000 142.10214233 12.485941887  -999.250000  -999.250000  -999.250000 1.1063042879 -9999.000000 -9999.000000 -9999.000000 2.2587652206 36.879356384 49.650264740
 903.30600000 145.19996643 12.465360641  -999.250000  -999.250000  -999.250000 1.2015435696 -9999.000000 -9999.000000 -9999.000000 2.3119494915 37.551410675 50.948242188
 903.40600000 147.94468689 12.489150047  -999.250000  -999.250000  -999.250000 0.9980297089 -9999.000000 -9999.000000 -9999.000000 2.3372395039 38.250839233 51.674171448
 903.50600000 147.42431641 12.510595322  -999.250000  -999.250000  -999.250000 0.9185757637 -9999.000000 -9999.000000 -9999.000000 2.3342454433 38.578647614 51.847267151
 903.60600000 136.43251038 12.510125160  -999.250000  -999.250000  -999.250000 0.8797860146 -9999.000000 -9999.000000 -9999.000000 2.3076577187 38.851684570 51.450469971
 903.70600000 121.68025970 12.453690529  -999.250000  -999.250000  -999.250000 0.8673225045 -9999.000000 -9999.000000 -9999.000000 2.2374966145 39.221714020 50.707683563
 903.80600000 117.42704773 12.514219284  -999.250000  -999.250000  -999.250000 0.8691468835 -9999.000000 -9999.000000 -9999.000000 2.1224646568 38.878929138 49.957546234
 903.90600000 117.61171722 12.576105118  -999.250000  -999.250000  -999.250000 0.8776634932 -9999.000000 -9999.000000 -9999.000000 1.9775173664 38.594581604 49.626686096
 904.00600000 117.35520172 12.513383865  -999.250000  -999.250000  -999.250000 0.8929320574 -9999.000000 -9999.000000 -9999.000000 1.7814049721 39.294193268 50.233318329
 904.10600000 116.78204346 12.456611633  -999.250000  -999.250000  -999.250000 0.9127036333 -9999.000000 -9999.000000 -9999.000000 1.6183685064 39.426990509 51.710186005
 904.20600000 116.36901855 12.419162750  -999.250000  -999.250000  -999.250000 0.9363954067 -9999.000000 -9999.000000 -9999.000000 1.4751827717 39.375682831 53.862648010
 904.30600000 117.02333069 12.458454132  -999.250000  -999.250000  -999.250000 0.9694032669 -9999.000000 -9999.000000 -9999.000000 1.3596818447 39.560962677 55.834350586
 904.40600000 119.25971222 12.394935608  -999.250000  -999.250000  -999.250000 0.9813298583 -9999.000000 -9999.000000 -9999.000000 1.3006447554 40.036510468 57.464771271
 904.50600000 123.77672577 12.299243927  -999.250000  -999.250000  -999.250000 0.9778345823 -9999.000000 -9999.000000 -9999.000000 1.2775373459 40.576698303 58.644958496
 904.60600000 129.46687317 12.343695641  -999.250000  -999.250000  -999.250000 0.9455528855 -9999.000000 -9999.000000 -9999.000000 1.2964874506 40.550392151 59.623115540
 904.70600000 135.53620911 12.351720810  -999.250000  -999.250000  -999.250000 0.9289332628 -9999.000000 -9999.000000 -9999.000000 1.2749348879 40.461753845 60.475803375
 904.80600000 140.98651123 12.333779335  -999.250000  -999.250000  -999.250000 0.9229951501 -9999.000000 -9999.000000 -9999.000000 1.2332108021 40.361309052 61.103145599
 904.90600000 145.21246338 12.286627769  -999.250000  -999.250000  -999.250000 0.9243415594 -9999.000000 -9999.000000 -9999.000000 1.2538998127 40.566722870 61.496601105
 905.00600000 147.78820801 12.219325066  -999.250000  -999.250000  -999.250000 0.9270272851 -9999.000000 -9999.000000 -9999.000000 1.2530277967 40.685764313 61.730167389
 905.10600000 146.93711853 12.141590118  -999.250000  -999.250000  -999.250000 0.9311951399 -9999.000000 -9999.000000 -9999.000000 1.2357002497 40.734275818 61.912223816
 905.20600000 143.66503906 12.204466820  -999.250000  -999.250000  -999.250000 0.9465510249 -9999.000000 -9999.000000 -9999.000000 1.2310022116 40.713436127 62.093788147
 905.30600000 139.35151672 12.209192276  -999.250000  -999.250000  -999.250000 0.9540113211 -9999.000000 -9999.000000 -9999.000000 1.2381069660 40.790740967 62.276660919
 905.40600000 136.64959717 12.158938408  -999.250000  -999.250000  -999.250000 0.9540060759 -9999.000000 -9999.000000 -9999.000000 1.2563713789 40.960838318 62.460266113
 905.50600000 135.84957886 12.257260323  -999.250000  -999.250000  -999.250000 0.9496665001 -9999.000000 -9999.000000 -9999.000000 1.2430851460 41.067935944 62.647891998
 905.60600000 136.24066162 12.292761803  -999.250000  -999.250000  -999.250000 0.9414659739 -9999.000000 -9999.000000 -9999.000000 1.2462745905 41.076999664 62.820163727
 905.70600000 135.18981934 12.253966331  -999.250000  -999.250000  -999.250000 0.9288559556 -9999.000000 -9999.000000 -9999.000000 1.2688642740 40.973556519 62.885990143
 905.80600000 133.18988037 12.312751770  -999.250000  -999.250000  -999.250000 0.9247944355 -9999.000000 -9999.000000 -9999.000000 1.2320135832 40.647457123 62.847370148
 905.90600000 130.55888367 12.324256897  -999.250000  -999.250000  -999.250000 0.9232816696 -9999.000000 -9999.000000 -9999.000000 1.2195371389 40.113880157 62.680236816
 906.00600000 128.65203857 12.261101723  -999.250000  -999.250000  -999.250000 0.9245830774 -9999.000000 -9999.000000 -9999.000000 1.2463480234 39.309741974 62.326210022
 906.10600000 126.43452454 12.177840233  -999.250000  -999.250000  -999.250000 0.9274586439 -9999.000000 -9999.000000 -9999.000000 1.2412781715 39.229698181 61.875980377
 906.20600000 124.07675934 12.146890640  -999.250000  -999.250000  -999.250000 0.9298772812 -9999.000000 -9999.000000 -9999.000000 1.2395889759 39.249851227 61.332618713
 906.30600000 124.41654968 12.209875107  -999.250000  -999.250000  -999.250000 0.9311904311 -9999.000000 -9999.000000 -9999.000000 1.2501976490 39.294647217 60.808101654
 906.40600000 125.64552307 12.383308411  -999.250000  -999.250000  -999.250000 0.9247043729 -9999.000000 -9999.000000 -9999.000000 1.2443102598 39.631984711 60.267719269
 906.50600000 127.90864563 12.512531281  -999.250000  -999.250000  -999.250000 0.9161292911 -9999.000000 -9999.000000 -9999.000000 1.2326047421 39.718891144 59.711776733
 906.60600000 132.73245239 12.505379677  -999.250000  -999.250000  -999.250000 0.9061614871 -9999.000000 -9999.000000 -9999.000000 1.2149934769 39.162551880 59.140964508
 906.70600000 135.68992615 12.432664871  -999.250000  -999.250000  -999.250000 0.8913066983 -9999.000000 -9999.000000 -9999.000000 1.1980684996 39.427490234 58.578895569
 906.80600000 135.12998962 12.334924698  -999.250000  -999.250000  -999.250000 0.8739032149 -9999.000000 -9999.000000 -9999.000000 1.1844828129 39.598838806 58.047836304
 906.90600000 133.24600220 12.214844704  -999.250000  -999.250000  -999.250000 0.8530244231 -9999.000000 -9999.000000 -9999.000000 1.1792849302 38.971359253 57.555698395
 907.00600000 131.18960571 12.161636353  -999.250000  -999.250000  -999.250000 0.8292172551 -9999.000000 -9999.000000 -9999.000000 1.1834251881 39.012996674 57.108440399
 907.10600000 129.05908203 12.138578415  -999.250000  -999.250000  -999.250000 0.8043854237 -9999.000000 -9999.000000 -9999.000000 1.1812492609 39.117912292 56.699150085
 907.20600000 125.73662567 12.141768456  -999.250000  -999.250000  -999.250000 0.7794228196 -9999.000000 -9999.000000 -9999.000000 1.1464817524 38.664329529 56.288936615
 907.30600000 122.74416351 12.177504539  -999.250000  -999.250000  -999.250000 0.7514854670 -9999.000000 -9999.000000 -9999.000000 1.1191579103 38.767345428 55.886234283
 907.40600000 121.37219238 12.210771561  -999.250000  -999.250000  -999.250000 0.7216689587 -9999.000000 -9999.000000 -9999.000000 1.0961365700 38.991294861 55.491825104
