# LAS format log file from PETREL
# Project units are specified as depth units
#==================================================================
~Version information
VERS.   2.0:
WRAP.   NO:
#==================================================================
~Well
STRT .m      9.9060000000 :
STOP .m      2153.9060000 :
STEP .m     0.10000000 :
NULL .        -999.250000 :
COMP.           : COMPANY
WELL.  F03-02   : WELL
FLD.            : FIELD
LOC.            : LOCATION
SRVC.           : SERVICE COMPANY
DATE.  2023-08-04 09:51:44   : Log Export Date {yyyy-MM-dd HH:mm:ss}
PROV.           : PROVINCE
UWI.   7033   : UNIQUE WELL ID
API.            : API NUMBER
#==================================================================
~Curve
DEPT .m                   : DEPTH
DT .us/ft                 : DT
CAL .in                   : CAL
DRHO .g/cm3               : DRHO
RHOB .g/cm3               : RHOB
NPHI .m3/m3               : NPHI
ILD .ohm.m                : ILD
LLD .ohm.m                : LLD
LLS .ohm.m                : LLS
MLL .ohm.m                : MLL
SN .ohm.m                 : SN
SP .mV                    : SP
GR .gAPI                  : GR
~Parameter
#==================================================================
~Ascii
# ...
 1133.1060000 139.97590637 12.352593422  -999.250000  -999.250000  -999.250000 0.9174462557 -9999.000000 -9999.000000 -9999.000000 1.1631203890 43.859672546 89.132682800
 1133.2060000 139.49085999 12.159251213  -999.250000  -999.250000  -999.250000 0.9247225523 -9999.000000 -9999.000000 -9999.000000 1.1515672207 43.859489441 88.326568604
 1133.3060000 139.02168274 12.179657936  -999.250000  -999.250000  -999.250000 0.9328746796 -9999.000000 -9999.000000 -9999.000000 1.1530891657 43.651447296 87.692077637
 1133.4060000 138.59701538 12.313151360  -999.250000  -999.250000  -999.250000 0.9414166212 -9999.000000 -9999.000000 -9999.000000 1.1631162167 43.348220825 87.260848999
 1133.5060000 138.21856689 12.208273888  -999.250000  -999.250000  -999.250000 0.9482191205 -9999.000000 -9999.000000 -9999.000000 1.1750165224 43.430084229 86.960662842
 1133.6060000 138.01565552 12.243729591  -999.250000  -999.250000  -999.250000 0.9552158117 -9999.000000 -9999.000000 -9999.000000 1.1886250973 43.668540955 86.312698364
 1133.7060000 138.18544006 12.379656792  -999.250000  -999.250000  -999.250000 0.9621092677 -9999.000000 -9999.000000 -9999.000000 1.2027050257 44.020442963 84.984748840
 1133.8060000 138.69740295 12.318145752  -999.250000  -999.250000  -999.250000 0.9627568722 -9999.000000 -9999.000000 -9999.000000 1.1958578825 44.184642792 83.456985474
 1133.9060000 139.11422729 12.252716064  -999.250000  -999.250000  -999.250000 0.9634152055 -9999.000000 -9999.000000 -9999.000000 1.1835757494 44.099460602 82.126983643
 1134.0060000 139.04338074 12.183592796  -999.250000  -999.250000  -999.250000 0.9640836120 -9999.000000 -9999.000000 -9999.000000 1.1661752462 43.779415131 81.003883362
 1134.1060000 138.68894958 12.253483772  -999.250000  -999.250000  -999.250000 0.9649599195 -9999.000000 -9999.000000 -9999.000000 1.1807858944 43.965351105 80.020683289
 1134.2060000 138.23625183 12.235872269  -999.250000  -999.250000  -999.250000 0.9658479691 -9999.000000 -9999.000000 -9999.000000 1.1973218918 44.213932037 79.486991882
 1134.3060000 137.71098328 12.117515564  -999.250000  -999.250000  -999.250000 0.9667475224 -9999.000000 -9999.000000 -9999.000000 1.2157531977 44.529098511 79.725837708
 1134.4060000 137.20652771 12.143084526  -999.250000  -999.250000  -999.250000 0.9667641521 -9999.000000 -9999.000000 -9999.000000 1.2167391777 44.806713104 80.288604736
 1134.5060000 136.76826477 12.172739983  -999.250000  -999.250000  -999.250000 0.9667324424 -9999.000000 -9999.000000 -9999.000000 1.2143902779 44.957927704 80.727104187
 1134.6060000 136.49668884 12.196448326  -999.250000  -999.250000  -999.250000 0.9667049050 -9999.000000 -9999.000000 -9999.000000 1.2088253498 44.936901093 80.806358337
 1134.7060000 136.65785217 12.189741135  -999.250000  -999.250000  -999.250000 0.9666731954 -9999.000000 -9999.000000 -9999.000000 1.1922684908 44.906562805 80.460983276
 1134.8060000 137.16233826 12.164925575  -999.250000  -999.250000  -999.250000 0.9675017595 -9999.000000 -9999.000000 -9999.000000 1.1875840425 44.740966797 79.692474365
 1134.9060000 137.55459595 12.115561485  -999.250000  -999.250000  -999.250000 0.9697834849 -9999.000000 -9999.000000 -9999.000000 1.2051192522 44.348869324 78.651229858
 1135.0060000 137.73910522 12.178778648  -999.250000  -999.250000  -999.250000 0.9720579982 -9999.000000 -9999.000000 -9999.000000 1.1952255964 44.327224731 77.639930725
 1135.1060000 138.03790283 12.219192505  -999.250000  -999.250000  -999.250000 0.9747815132 -9999.000000 -9999.000000 -9999.000000 1.1946530342 44.418518066 76.743194580
 1135.2060000 138.80995178 12.169841766  -999.250000  -999.250000  -999.250000 0.9784488678 -9999.000000 -9999.000000 -9999.000000 1.2238420248 44.608421326 75.772308350
 1135.3060000 139.20420837 12.134463310  -999.250000  -999.250000  -999.250000 0.9791686535 -9999.000000 -9999.000000 -9999.000000 1.2099159956 44.795772552 74.698936462
 1135.4060000 138.95014954 12.121620178  -999.250000  -999.250000  -999.250000 0.9795325398 -9999.000000 -9999.000000 -9999.000000 1.1922922134 44.945045471 73.680488586
 1135.5060000 138.89974976 12.158669472  -999.250000  -999.250000  -999.250000 0.9809079170 -9999.000000 -9999.000000 -9999.000000 1.1934201717 44.996109009 73.027091980
 1135.6060000 139.12016296 12.246725082  -999.250000  -999.250000  -999.250000 0.9794979692 -9999.000000 -9999.000000 -9999.000000 1.2157697678 44.559494019 72.609443665
 1135.7060000 139.16093445 12.323593140  -999.250000  -999.250000  -999.250000 0.9773702025 -9999.000000 -9999.000000 -9999.000000 1.2368373871 44.138092041 72.276283264
 1135.8060000 138.20280457 12.305092812  -999.250000  -999.250000  -999.250000 0.9759259224 -9999.000000 -9999.000000 -9999.000000 1.2297067642 44.316150665 72.019821167
 1135.9060000 136.87722778 12.212788582  -999.250000  -999.250000  -999.250000 0.9726079106 -9999.000000 -9999.000000 -9999.000000 1.2150665522 44.590820313 71.841705322
 1136.0060000 135.74452209 12.113942146  -999.250000  -999.250000  -999.250000 0.9686195850 -9999.000000 -9999.000000 -9999.000000 1.1981115341 44.779033661 71.768600464
 1136.1060000 134.84611511 12.127344131  -999.250000  -999.250000  -999.250000 0.9651839137 -9999.000000 -9999.000000 -9999.000000 1.1850650311 44.387462616 71.805885315
 1136.2060000 134.29959106 12.113091469  -999.250000  -999.250000  -999.250000 0.9613642097 -9999.000000 -9999.000000 -9999.000000 1.1879756451 44.596923828 71.968193054
 1136.3060000 134.33984375 12.094449997  -999.250000  -999.250000  -999.250000 0.9574430585 -9999.000000 -9999.000000 -9999.000000 1.1945526600 45.051742554 72.328033447
 1136.4060000 134.77970886 12.141735077  -999.250000  -999.250000  -999.250000 0.9541730881 -9999.000000 -9999.000000 -9999.000000 1.1704826355 45.051414490 72.814086914
 1136.5060000 135.41641235 12.155329704  -999.250000  -999.250000  -999.250000 0.9511829019 -9999.000000 -9999.000000 -9999.000000 1.1635115147 44.413463593 73.406135559
 1136.6060000 136.07749939 12.142415047  -999.250000  -999.250000  -999.250000 0.9484302998 -9999.000000 -9999.000000 -9999.000000 1.1674760580 43.453563690 74.099517822
 1136.7060000 136.66416931 12.077598572  -999.250000  -999.250000  -999.250000 0.9463009238 -9999.000000 -9999.000000 -9999.000000 1.1699467897 43.497615814 74.824256897
 1136.8060000 137.20265198 12.152860641  -999.250000  -999.250000  -999.250000 0.9438027740 -9999.000000 -9999.000000 -9999.000000 1.1719447374 43.843612671 75.559478760
 1136.9060000 137.25773621 12.327943802  -999.250000  -999.250000  -999.250000 0.9410046339 -9999.000000 -9999.000000 -9999.000000 1.1734060049 44.377113342 76.202964783
 1137.0060000 136.62094116 12.236557007  -999.250000  -999.250000  -999.250000 0.9379410744 -9999.000000 -9999.000000 -9999.000000 1.1705671549 43.616012573 76.726982117
 1137.1060000 137.15026855 12.243914604  -999.250000  -999.250000  -999.250000 0.9321943521 -9999.000000 -9999.000000 -9999.000000 1.1673096418 43.338405609 77.093002319
 1137.2060000 136.95977783 12.345767021  -999.250000  -999.250000  -999.250000 0.9238800406 -9999.000000 -9999.000000 -9999.000000 1.1636515856 43.523471832 77.007743835
 1137.3060000 136.12208557 12.360333443  -999.250000  -999.250000  -999.250000 0.9148041010 -9999.000000 -9999.000000 -9999.000000 1.1617356539 43.962394714 76.537239075
 1137.4060000 136.40026855 12.345577240  -999.250000  -999.250000  -999.250000 0.9045243263 -9999.000000 -9999.000000 -9999.000000 1.1486365795 44.308998108 75.705375671
 1137.5060000 136.03074646 12.298273087  -999.250000  -999.250000  -999.250000 0.8928655386 -9999.000000 -9999.000000 -9999.000000 1.1225925684 44.545097351 74.903450012
 1137.6060000 135.01965332 12.364028931  -999.250000  -999.250000  -999.250000 0.8783240914 -9999.000000 -9999.000000 -9999.000000 1.1215239763 44.385066986 75.208396912
 1137.7060000 134.92825317 12.352688789  -999.250000  -999.250000  -999.250000 0.8638889194 -9999.000000 -9999.000000 -9999.000000 1.1233596802 44.028980255 76.895904541
 1137.8060000 135.42169189 12.222009659  -999.250000  -999.250000  -999.250000 0.8498646021 -9999.000000 -9999.000000 -9999.000000 1.1270498037 43.431175232 78.767875671
