# LAS format log file from PETREL
# Project units are specified as depth units
#==================================================================
~Version information
VERS.   2.0:
WRAP.   NO:
#==================================================================
~Well
STRT .m      9.9060000000 :
STOP .m      2153.9060000 :
STEP .m     0.10000000 :
NULL .        -999.250000 :
COMP.           : COMPANY
WELL.  F03-02   : WELL
FLD.            : FIELD
LOC.            : LOCATION
SRVC.           : SERVICE COMPANY
DATE.  2023-08-04 09:51:44   : Log Export Date {yyyy-MM-dd HH:mm:ss}
PROV.           : PROVINCE
UWI.   7033   : UNIQUE WELL ID
API.            : API NUMBER
#==================================================================
~Curve
DEPT .m                   : DEPTH
DT .us/ft                 : DT
CAL .in                   : CAL
DRHO .g/cm3               : DRHO
RHOB .g/cm3               : RHOB
NPHI .m3/m3               : NPHI
ILD .ohm.m                : ILD
LLD .ohm.m                : LLD
LLS .ohm.m                : LLS
MLL .ohm.m                : MLL
SN .ohm.m                 : SN
SP .mV                    : SP
GR .gAPI                  : GR
~Parameter
#==================================================================
~Ascii
# ...
 2141.1060000 68.660873413 8.6657381058 -0.037815873 2.0118231773 0.0303379521 -9999.000000 2246.5048828 641.67730713 -9999.000000 -9999.000000  -999.250000 6.1263828278
 2141.2060000 68.521224976 8.6670932770 -0.036986545 2.0137157440 0.0295273829 -9999.000000 2252.3098145 664.82830811 -9999.000000 -9999.000000  -999.250000 6.0619816780
 2141.3060000 68.328392029 8.6677350998 -0.035432488 2.0105636120 0.0295828562 -9999.000000 2254.1633301 665.93328857 -9999.000000 -9999.000000  -999.250000 5.9420275688
 2141.4060000 68.372299194 8.6690874100 -0.033410806 2.0042188168 0.0308003519 -9999.000000 2253.1447754 661.53479004 -9999.000000 -9999.000000  -999.250000 5.8121519089
 2141.5060000 68.645896912 8.6717681885 -0.031499360 1.9974753857 0.0326061361 -9999.000000 2248.0612793 652.14056396 -9999.000000 -9999.000000  -999.250000 5.6930742264
 2141.6060000 68.504875183 8.6720666885 -0.029970311 1.9989832640 0.0324737430 -9999.000000 2245.6440430 630.99078369 -9999.000000 -9999.000000  -999.250000 5.5963478088
 2141.7060000 68.453140259 8.6716909409 -0.029047146 2.0099081993 0.0312531441 -9999.000000 2242.6760254 616.83758545 -9999.000000 -9999.000000  -999.250000 5.5130739212
 2141.8060000 68.726905823 8.6707963943 -0.028112127 2.0258469582 0.0297175441 -9999.000000 2237.6062012 621.35351563 -9999.000000 -9999.000000  -999.250000 5.4279365540
 2141.9060000 68.632774353 8.6689443588 -0.027021993 2.0267853737 0.0284750871 -9999.000000 2237.7729492 629.14270020 -9999.000000 -9999.000000  -999.250000 5.3317723274
 2142.0060000 68.562042236 8.6670370102 -0.025883583 2.0217511654 0.0278778877 -9999.000000 2239.1162109 639.19921875 -9999.000000 -9999.000000  -999.250000 5.2253842354
 2142.1060000 68.802719116 8.6655912399 -0.024830928 2.0199162960 0.0287345275 -9999.000000 2240.1813965 653.02105713 -9999.000000 -9999.000000  -999.250000 5.1115131378
 2142.2060000 68.722801208 8.6648988724 -0.023930518 2.0181546211 0.0314075761 -9999.000000 2238.9191895 662.60083008 -9999.000000 -9999.000000  -999.250000 4.9868278503
 2142.3060000 68.504783630 8.6651725769 -0.023247806 2.0184237957 0.0336704887 -9999.000000 2238.6848145 667.21472168 -9999.000000 -9999.000000  -999.250000 4.8531737328
 2142.4060000 68.469055176 8.6678256989 -0.022973847 2.0226039886 0.0331848264 -9999.000000 2244.3056641 659.98858643 -9999.000000 -9999.000000  -999.250000 4.7582187653
 2142.5060000 68.466133118 8.6683359146 -0.023292854 2.0247461796 0.0313316062 -9999.000000 2245.2187500 638.17602539 -9999.000000 -9999.000000  -999.250000 4.7442650795
 2142.6060000 68.424888611 8.6679372787 -0.024242880 2.0273933411 0.0303102080 -9999.000000 2244.0310059 610.60729980 -9999.000000 -9999.000000  -999.250000 4.7738161087
 2142.7060000 68.335380554 8.6674089432 -0.025605608 2.0331366062 0.0310899280 -9999.000000 2242.1057129 584.04772949 -9999.000000 -9999.000000  -999.250000 4.8218116760
 2142.8060000 68.208427429 8.6669082642 -0.027077161 2.0337359905 0.0307805277 -9999.000000 2245.0766602 557.47766113 -9999.000000 -9999.000000  -999.250000 4.8820524216
 2142.9060000 68.243927002 8.6669683456 -0.028171143 2.0327472687 0.0302046873 -9999.000000 2249.0764160 530.63757324 -9999.000000 -9999.000000  -999.250000 4.9444980621
 2143.0060000 68.571281433 8.6704063416 -0.028990887 2.0355362892 0.0315115899 -9999.000000 2244.0329590 502.15823364 -9999.000000 -9999.000000  -999.250000 4.9918861389
 2143.1060000 68.790138245 8.6733579636 -0.029737432 2.0323936939 0.0328929909 -9999.000000 -2705.748535 462.50753784 -9999.000000 -9999.000000  -999.250000 5.0048537254
 2143.2060000 68.785179138 8.6756753922 -0.030459208 2.0265221596 0.0329458937 -9999.000000 -9999.000000 416.83850098 -9999.000000 -9999.000000  -999.250000 4.9843964577
 2143.3060000 68.665885925 8.6747350693 -0.031177264 2.0267200470 0.0321788453 -9999.000000 -9999.000000 380.50286865 -9999.000000 -9999.000000  -999.250000 4.9314217567
 2143.4060000 68.464309692 8.6692132950 -0.031895928 2.0254981518 0.0329743363 -9999.000000 -9999.000000 348.09194946 -9999.000000 -9999.000000  -999.250000 4.8419342041
 2143.5060000 68.406745911 8.6598720551 -0.032609370 2.0213215351 0.0338239819 -9999.000000 -9999.000000 317.77664185 -9999.000000 -9999.000000  -999.250000 4.7291646004
 2143.6060000 68.634246826 8.6484594345 -0.033330213 2.0207083225 0.0320920236 -9999.000000 -9999.000000 245.18405151 -9999.000000 -9999.000000  -999.250000 4.6671137810
 2143.7060000 68.644081116 8.6412000656 -0.034047481 2.0243203640 0.0313844793 -9999.000000 -9999.000000 185.35964966 -9999.000000 -9999.000000  -999.250000 4.7291808128
 2143.8060000 68.376449585 8.6380605698 -0.034749679 2.0272867680 0.0325246304 -9999.000000 -9999.000000 138.20173645 -9999.000000 -9999.000000  -999.250000 4.8478865623
 2143.9060000 68.308059692 8.6350898743 -0.035394374 2.0241675377 0.0324969254 -9999.000000 -9999.000000 128.42976379 -9999.000000 -9999.000000  -999.250000 4.9733376503
 2144.0060000 68.563827515 8.6416587830 -0.035846055 2.0160641670 0.0311903842 -9999.000000 -9999.000000 121.04586029 -9999.000000 -9999.000000  -999.250000 5.1022233963
 2144.1060000 68.746665955 8.6596021652 -0.035921320 2.0081682205 0.0295544956 -9999.000000 -9999.000000 115.55419159 -9999.000000 -9999.000000  -999.250000 5.2307043076
 2144.2060000 68.488883972 8.6541576385 -0.035072945 2.0056374073 0.0279260408 -9999.000000 -9999.000000 108.68843079 -9999.000000 -9999.000000  -999.250000 5.3528923988
 2144.3060000 68.186721802 8.6462173462 -0.033046633 2.0094814301 0.0264293998 -9999.000000 -9999.000000 100.87335205 -9999.000000 -9999.000000  -999.250000 5.4636816978
 2144.4060000 68.192802429 8.6371374130 -0.030603992 2.0131974220 0.0256640166 -9999.000000 -9999.000000 91.831390381 -9999.000000 -9999.000000  -999.250000 5.5688319206
 2144.5060000 68.389533997 8.6674146652 -0.028349036 2.0106098652 0.0264002811 -9999.000000 -9999.000000 -5772.285156 -9999.000000 -9999.000000  -999.250000 5.6711177826
 2144.6060000 68.693664551 8.6869716644 -0.026322607 2.0094742775 0.0284292493 -9999.000000 -9999.000000 -9999.000000 -9999.000000 -9999.000000  -999.250000 5.7700567245
 2144.7060000 68.898475647 8.6786212921 -0.024446992 2.0141615868 0.0308130253 -9999.000000 -9999.000000 -9999.000000 -9999.000000 -9999.000000  -999.250000 5.8652853966
 2144.8060000 68.787750244 8.6509437561 -0.022701392 2.0179257393 0.0322455615 -9999.000000 -9999.000000 -9999.000000 -9999.000000 -9999.000000  -999.250000 5.9483661652
 2144.9060000 68.719955444 8.6302671432 -0.021388216 2.0212335587 0.0315676741 -9999.000000 -9999.000000 -9999.000000 -9999.000000 -9999.000000  -999.250000 6.0064859390
 2145.0060000 68.819366455 8.6329421997 -0.021065071 2.0267732143 0.0299132802 -9999.000000 -9999.000000 -9999.000000 -9999.000000 -9999.000000  -999.250000 6.0267987251
 2145.1060000 68.712257385 8.6209478378 -0.021891665 2.0313894749 0.0296561830 -9999.000000 -9999.000000 -9999.000000 -9999.000000 -9999.000000  -999.250000 6.0035500526
 2145.2060000 68.653877258 8.6056451797 -0.023385441 2.0315763950 0.0290950555 -9999.000000 -9999.000000 -9999.000000 -9999.000000 -9999.000000  -999.250000 5.9486846924
 2145.3060000 68.867744446 8.5918922424 -0.024824368 2.0268528461 0.0269028954 -9999.000000 -9999.000000 -9999.000000 -9999.000000 -9999.000000  -999.250000 5.8762621880
 2145.4060000 68.926399231 8.5748071671 -0.025318814 2.0200362206 0.0257631447 -9999.000000 -9999.000000 -9999.000000 -9999.000000 -9999.000000  -999.250000 5.7890954018
 2145.5060000 68.803771973 8.5590000153 -0.024369759 2.0137963295 0.0262219999 -9999.000000 -9999.000000 -9999.000000 -9999.000000 -9999.000000  -999.250000 5.6797399521
 2145.6060000 68.750068665 8.5517148972 -0.022836817 2.0103502274 0.0268235356 -9999.000000 -9999.000000 -9999.000000 -9999.000000 -9999.000000  -999.250000 5.5151839256
 2145.7060000 68.746559143 8.5475997925 -0.021429256 2.0112502575 0.0270229839 -9999.000000 -9999.000000 -9999.000000 -9999.000000 -9999.000000  -999.250000 5.2959733009
 2145.8060000  -999.250000 8.5470342636 -0.020132551 2.0155279636 0.0271565039 -9999.000000 -9999.000000 -9999.000000 -9999.000000 -9999.000000  -999.250000 5.0959429741
