# LAS format log file from PETREL
# Project units are specified as depth units
#==================================================================
~Version information
VERS.   2.0:
WRAP.   NO:
#==================================================================
~Well
STRT .m      9.9060000000 :
STOP .m      2153.9060000 :
STEP .m     0.10000000 :
NULL .        -999.250000 :
COMP.           : COMPANY
WELL.  F03-02   : WELL
FLD.            : FIELD
LOC.            : LOCATION
SRVC.           : SERVICE COMPANY
DATE.  2023-08-04 09:51:44   : Log Export Date {yyyy-MM-dd HH:mm:ss}
PROV.           : PROVINCE
UWI.   7033   : UNIQUE WELL ID
API.            : API NUMBER
#==================================================================
~Curve
DEPT .m                   : DEPTH
DT .us/ft                 : DT
CAL .in                   : CAL
DRHO .g/cm3               : DRHO
RHOB .g/cm3               : RHOB
NPHI .m3/m3               : NPHI
ILD .ohm.m                : ILD
LLD .ohm.m                : LLD
LLS .ohm.m                : LLS
MLL .ohm.m                : MLL
SN .ohm.m                 : SN
SP .mV                    : SP
GR .gAPI                  : GR
~Parameter
#==================================================================
~Ascii
# ...
 1363.5060000 150.61187744 12.352366447  -999.250000  -999.250000  -999.250000 0.4483137727 -9999.000000 -9999.000000 -9999.000000 0.6777880192 50.767066956 64.664489746
 1363.6060000 149.55401611 12.299822807  -999.250000  -999.250000  -999.250000 0.4442992210 -9999.000000 -9999.000000 -9999.000000 0.6848649383 50.182453156 63.099254608
 1363.7060000 148.90463257 12.288393974  -999.250000  -999.250000  -999.250000 0.4389216900 -9999.000000 -9999.000000 -9999.000000 0.6961823106 49.576583862 61.566955566
 1363.8060000 148.73826599 12.366530418  -999.250000  -999.250000  -999.250000 0.4314833581 -9999.000000 -9999.000000 -9999.000000 0.7090150118 49.052085876 59.971103668
 1363.9060000 148.73896790 12.343898773  -999.250000  -999.250000  -999.250000 0.4218259156 -9999.000000 -9999.000000 -9999.000000 0.6912201643 49.062225342 58.292041779
 1364.0060000 148.73843384 12.314216614  -999.250000  -999.250000  -999.250000 0.4117216468 -9999.000000 -9999.000000 -9999.000000 0.6664780974 49.226913452 56.656600952
 1364.1060000 148.71823120 12.330654144  -999.250000  -999.250000  -999.250000 0.4018720090 -9999.000000 -9999.000000 -9999.000000 0.6432147622 49.452648163 55.303455353
 1364.2060000 148.78511047 12.356368065  -999.250000  -999.250000  -999.250000 0.3943887055 -9999.000000 -9999.000000 -9999.000000 0.6409409046 49.574665070 54.538734436
 1364.3060000 149.40304565 12.371152878  -999.250000  -999.250000  -999.250000 0.3880828023 -9999.000000 -9999.000000 -9999.000000 0.6482707858 49.665191650 54.475677490
 1364.4060000 150.50874329 12.339216232  -999.250000  -999.250000  -999.250000 0.3831340075 -9999.000000 -9999.000000 -9999.000000 0.6648262739 49.763576508 54.813270569
 1364.5060000 151.30326843 12.359598160  -999.250000  -999.250000  -999.250000 0.3826430440 -9999.000000 -9999.000000 -9999.000000 0.6580151916 49.890190125 55.280239105
 1364.6060000 151.67230225 12.385458946  -999.250000  -999.250000  -999.250000 0.3841711283 -9999.000000 -9999.000000 -9999.000000 0.6464729905 50.044689178 55.785865784
 1364.7060000 151.93646240 12.338003159  -999.250000  -999.250000  -999.250000 0.3864758015 -9999.000000 -9999.000000 -9999.000000 0.6573403478 50.272449493 56.269847870
 1364.8060000 152.21040344 12.365058899  -999.250000  -999.250000  -999.250000 0.3906930387 -9999.000000 -9999.000000 -9999.000000 0.6559518576 50.321498871 56.769020081
 1364.9060000 152.51332092 12.418154716  -999.250000  -999.250000  -999.250000 0.3964361250 -9999.000000 -9999.000000 -9999.000000 0.6480897069 50.263771057 57.362609863
 1365.0060000 152.88293457 12.389251709  -999.250000  -999.250000  -999.250000 0.4056160152 -9999.000000 -9999.000000 -9999.000000 0.6395578980 50.116264343 58.048633575
 1365.1060000 153.34997559 12.425688744  -999.250000  -999.250000  -999.250000 0.4137410522 -9999.000000 -9999.000000 -9999.000000 0.6487112045 49.906147003 58.714397430
 1365.2060000 153.71881104 12.490442276  -999.250000  -999.250000  -999.250000 0.4207525253 -9999.000000 -9999.000000 -9999.000000 0.6664591432 49.648593903 59.122741699
 1365.3060000 153.77487183 12.412214279  -999.250000  -999.250000  -999.250000 0.4230057895 -9999.000000 -9999.000000 -9999.000000 0.6555202007 49.309513092 59.073932648
 1365.4060000 153.57757568 12.392269135  -999.250000  -999.250000  -999.250000 0.4238572419 -9999.000000 -9999.000000 -9999.000000 0.6685252190 49.554016113 58.371150970
 1365.5060000 153.07041931 12.413393974  -999.250000  -999.250000  -999.250000 0.4235518277 -9999.000000 -9999.000000 -9999.000000 0.6988927126 50.224975586 57.034469604
 1365.6060000 152.10731506 12.319622993  -999.250000  -999.250000  -999.250000 0.4217317402 -9999.000000 -9999.000000 -9999.000000 0.6944653392 50.130989075 55.519985199
 1365.7060000 150.82615662 12.304859161  -999.250000  -999.250000  -999.250000 0.4177376926 -9999.000000 -9999.000000 -9999.000000 0.6896629333 49.932613373 54.324573517
 1365.8060000 149.68356323 12.364496231  -999.250000  -999.250000  -999.250000 0.4116963446 -9999.000000 -9999.000000 -9999.000000 0.6845073700 49.635936737 53.872329712
 1365.9060000 149.08164978 12.354755402  -999.250000  -999.250000  -999.250000 0.4022255540 -9999.000000 -9999.000000 -9999.000000 0.6754296422 49.277191162 54.291889191
 1366.0060000 148.80549622 12.333369255  -999.250000  -999.250000  -999.250000 0.3913742304 -9999.000000 -9999.000000 -9999.000000 0.6642363071 49.094730377 55.283966064
 1366.1060000 148.66430664 12.299309731  -999.250000  -999.250000  -999.250000 0.3789704144 -9999.000000 -9999.000000 -9999.000000 0.6506500244 49.115741730 56.308059692
 1366.2060000 148.71784973 12.398105621  -999.250000  -999.250000  -999.250000 0.3722003102 -9999.000000 -9999.000000 -9999.000000 0.6378675699 49.418327332 57.172370911
 1366.3060000 149.18548584 12.456049919  -999.250000  -999.250000  -999.250000 0.3676122725 -9999.000000 -9999.000000 -9999.000000 0.6285980940 49.677944183 57.893115997
 1366.4060000 150.30126953 12.445725441  -999.250000  -999.250000  -999.250000 0.3655794561 -9999.000000 -9999.000000 -9999.000000 0.6241509318 49.853595734 58.522010803
 1366.5060000 151.89936829 12.358120918  -999.250000  -999.250000  -999.250000 0.3673964739 -9999.000000 -9999.000000 -9999.000000 0.6374397874 49.900043488 59.138385773
 1366.6060000 153.36090088 12.322937965  -999.250000  -999.250000  -999.250000 0.3777225316 -9999.000000 -9999.000000 -9999.000000 0.6414619684 49.927612305 59.783588409
 1366.7060000 153.88464355 12.392902374  -999.250000  -999.250000  -999.250000 0.4018269181 -9999.000000 -9999.000000 -9999.000000 0.6260798573 49.948822021 60.455799103
 1366.8060000 154.04693604 12.381862640  -999.250000  -999.250000  -999.250000 0.4309828281 -9999.000000 -9999.000000 -9999.000000 0.6354461908 49.821796417 61.054393768
 1366.9060000 154.60704041 12.396513939  -999.250000  -999.250000  -999.250000 0.4617044330 -9999.000000 -9999.000000 -9999.000000 0.6483532786 49.465488434 61.447006226
 1367.0060000 154.98652649 12.496307373  -999.250000  -999.250000  -999.250000 0.4937865138 -9999.000000 -9999.000000 -9999.000000 0.6592298150 48.683219910 61.569541931
 1367.1060000 154.85086060 12.480176926  -999.250000  -999.250000  -999.250000 0.5156516433 -9999.000000 -9999.000000 -9999.000000 0.6766514778 48.674037933 61.495494843
 1367.2060000 154.49703979 12.408745766  -999.250000  -999.250000  -999.250000 0.5310646296 -9999.000000 -9999.000000 -9999.000000 0.7009154558 48.828498840 61.374526978
 1367.3060000 154.06512451 12.267705917  -999.250000  -999.250000  -999.250000 0.5361400843 -9999.000000 -9999.000000 -9999.000000 0.7390158176 48.900859833 61.219703674
 1367.4060000 153.55412292 12.347943306  -999.250000  -999.250000  -999.250000 0.5321286917 -9999.000000 -9999.000000 -9999.000000 0.7919595242 48.433277130 59.763614655
 1367.5060000 152.64379883 12.496281624  -999.250000  -999.250000  -999.250000 0.5271225572 -9999.000000 -9999.000000 -9999.000000 0.8405421376 47.665966034 56.143669128
 1367.6060000 149.90882874 12.623896599  -999.250000  -999.250000  -999.250000 0.5291383266 -9999.000000 -9999.000000 -9999.000000 0.8571534753 46.491844177 52.260231018
 1367.7060000 143.99699402 12.651687622  -999.250000  -999.250000  -999.250000 0.5347479582 -9999.000000 -9999.000000 -9999.000000 0.8430022001 45.701965332 48.978076935
 1367.8060000 136.24954224 12.635106087  -999.250000  -999.250000  -999.250000 0.5404642820 -9999.000000 -9999.000000 -9999.000000 0.8118848205 45.335952759 46.593029022
 1367.9060000 129.23493958 12.608434677  -999.250000  -999.250000  -999.250000 0.5397061110 -9999.000000 -9999.000000 -9999.000000 0.7625597715 46.169464111 44.800636292
 1368.0060000 125.41152191 12.511607170  -999.250000  -999.250000  -999.250000 0.5200631022 -9999.000000 -9999.000000 -9999.000000 0.7298045754 47.024105072 43.383003235
 1368.1060000 124.53110504 12.386497498  -999.250000  -999.250000  -999.250000 0.4913865924 -9999.000000 -9999.000000 -9999.000000 0.7070488334 47.845756531 42.261966705
 1368.2060000 126.74553680 12.321606636  -999.250000  -999.250000  -999.250000 0.4694141448 -9999.000000 -9999.000000 -9999.000000 0.6922863722 48.371543884 41.443462372
