# LAS format log file from PETREL
# Project units are specified as depth units
#==================================================================
~Version information
VERS.   2.0:
WRAP.   NO:
#==================================================================
~Well
STRT .m      9.9060000000 :
STOP .m      2153.9060000 :
STEP .m     0.10000000 :
NULL .        -999.250000 :
COMP.           : COMPANY
WELL.  F03-02   : WELL
FLD.            : FIELD
LOC.            : LOCATION
SRVC.           : SERVICE COMPANY
DATE.  2023-08-04 09:51:44   : Log Export Date {yyyy-MM-dd HH:mm:ss}
PROV.           : PROVINCE
UWI.   7033   : UNIQUE WELL ID
API.            : API NUMBER
#==================================================================
~Curve
DEPT .m                   : DEPTH
DT .us/ft                 : DT
CAL .in                   : CAL
DRHO .g/cm3               : DRHO
RHOB .g/cm3               : RHOB
NPHI .m3/m3               : NPHI
ILD .ohm.m                : ILD
LLD .ohm.m                : LLD
LLS .ohm.m                : LLS
MLL .ohm.m                : MLL
SN .ohm.m                 : SN
SP .mV                    : SP
GR .gAPI                  : GR
~Parameter
#==================================================================
~Ascii
# ...
 1987.5060000 72.637283325 9.9785308838 -0.030527251 2.0921914577 0.0707245693 -9999.000000 2293.7868652 246.09405518 -9999.000000 -9999.000000  -999.250000 15.102588654
 1987.6060000 73.078414917 9.9611110687 -0.028153006 2.0832552910 0.0709780380 -9999.000000 2294.1516113 223.24026489 -9999.000000 -9999.000000  -999.250000 15.849225998
 1987.7060000 72.580635071 9.9014225006 -0.025803301 2.0707650185 0.0666892827 -9999.000000 2294.6811523 224.51953125 -9999.000000 -9999.000000  -999.250000 16.297552109
 1987.8060000 71.332054138 9.9142866135 -0.023679459 2.0590696335 0.0609281175 -9999.000000 2294.0114746 231.54940796 -9999.000000 -9999.000000  -999.250000 16.422079086
 1987.9060000 70.013275146 9.9831876755 -0.022057656 2.0500481129 0.0578673407 -9999.000000 2292.3247070 243.04090881 -9999.000000 -9999.000000  -999.250000 16.311401367
 1988.0060000 69.233520508 9.9648122787 -0.021803627 2.0456423759 0.0599624328 -9999.000000 2289.0444336 248.28189087 -9999.000000 -9999.000000  -999.250000 16.039993286
 1988.1060000 69.361778259 9.8925733566 -0.023449812 2.0476725101 0.0669007748 -9999.000000 2286.8610840 240.34828186 -9999.000000 -9999.000000  -999.250000 15.766140938
 1988.2060000 70.157356262 9.7677497864 -0.025896261 2.0530953407 0.0741889551 -9999.000000 2285.7492676 219.55250549 -9999.000000 -9999.000000  -999.250000 15.801544189
 1988.3060000 71.273750305 9.8168334961 -0.028359242 2.0574345589 0.0777950212 -9999.000000 2284.3395996 226.61610413 -9999.000000 -9999.000000  -999.250000 16.259653091
 1988.4060000 72.422584534 9.8251724243 -0.030702269 2.0579767227 0.0763853341 -9999.000000 2282.7421875 239.23020935 -9999.000000 -9999.000000  -999.250000 17.019220352
 1988.5060000 73.477272034 9.7806673050 -0.032902911 2.0589606762 0.0746732578 -9999.000000 2280.9282227 257.78765869 -9999.000000 -9999.000000  -999.250000 17.866218567
 1988.6060000 74.362289429 9.6152896881 -0.034267735 2.0629734993 0.0763696954 -9999.000000 2276.1474609 260.99206543 -9999.000000 -9999.000000  -999.250000 18.666339874
 1988.7060000 74.841033936 9.6239557266 -0.033966284 2.0695815086 0.0815680698 -9999.000000 2269.8159180 258.01660156 -9999.000000 -9999.000000  -999.250000 19.310705185
 1988.8060000 74.542297363 9.8955650330 -0.032737374 2.0765419006 0.0836587548 -9999.000000 2261.5593262 247.73466492 -9999.000000 -9999.000000  -999.250000 19.750715256
 1988.9060000 73.495735168 9.9244775772 -0.031051014 2.0803117752 0.0816937536 -9999.000000 2258.9938965 250.58398438 -9999.000000 -9999.000000  -999.250000 19.984289169
 1989.0060000 72.335594177 9.8767757416 -0.029026182 2.0775346756 0.0813440382 -9999.000000 2256.0280762 246.81037903 -9999.000000 -9999.000000  -999.250000 20.137872696
 1989.1060000 71.424758911 9.7494850159 -0.026874706 2.0737802982 0.0832801238 -9999.000000 2251.0229492 228.19937134 -9999.000000 -9999.000000  -999.250000 20.320293427
 1989.2060000 70.949737549 9.7702083588 -0.024735129 2.0726556778 0.0860477239 -9999.000000 1918.8642578 251.52784729 -9999.000000 -9999.000000  -999.250000 20.580989838
 1989.3060000 71.031692505 9.7698507309 -0.022653854 2.0757021904 0.0876347646 -9999.000000 1492.2944336 290.36599731 -9999.000000 -9999.000000  -999.250000 20.933687210
 1989.4060000 71.619865417 9.6599588394 -0.020619757 2.0858914852 0.0911205932 -9999.000000 998.34112549 345.31958008 -9999.000000 -9999.000000  -999.250000 21.330112457
 1989.5060000 72.709693909 9.4936485291 -0.018632462 2.1034629345 0.0963923633 -9999.000000 1600.1728516 393.91113281 -9999.000000 -9999.000000  -999.250000 21.773796082
 1989.6060000 74.022140503 9.4517879486 -0.016641391 2.1196076870 0.0969104618 -9999.000000 2258.7370605 421.43713379 -9999.000000 -9999.000000  -999.250000 22.376119614
 1989.7060000 75.009193420 9.7991933823 -0.014671250 2.1284966469 0.0970096737 -9999.000000 2253.5830078 395.00662231 -9999.000000 -9999.000000  -999.250000 23.252788544
 1989.8060000 75.317466736 9.8839883804 -0.012817360 2.1277220249 0.1010891423 -9999.000000 2250.1967773 355.09005737 -9999.000000 -9999.000000  -999.250000 24.761131287
 1989.9060000 75.231903076 9.8926649094 -0.011341162 2.1249890327 0.1093524545 -9999.000000 2248.7897949 317.51211548 -9999.000000 -9999.000000  -999.250000 27.315097809
 1990.0060000 75.121292114 9.9578933716 -0.010483637 2.1257836819 0.1174088717 -9999.000000 2252.2946777 305.38125610 -9999.000000 -9999.000000  -999.250000 29.627004623
 1990.1060000 75.124755859 9.9684982300 -0.010574620 2.1309468746 0.1211720780 -9999.000000 2258.7624512 301.94366455 -9999.000000 -9999.000000  -999.250000 30.294795990
 1990.2060000 74.848304749 9.9416828156 -0.012018212 2.1250617504 0.1194666848 -9999.000000 2265.2900391 305.16168213 -9999.000000 -9999.000000  -999.250000 30.155391693
 1990.3060000 74.558280945 9.8488368988 -0.014386790 2.1129651070 0.1132406965 -9999.000000 2265.6450195 322.35806274 -9999.000000 -9999.000000  -999.250000 29.603569031
 1990.4060000 74.494712830 9.8463754654 -0.017631641 2.1007061005 0.1017409787 -9999.000000 2268.1748047 350.73110962 -9999.000000 -9999.000000  -999.250000 28.689750671
 1990.5060000 73.943092346 9.8945198059 -0.020703057 2.0928783417 0.0901496932 -9999.000000 2114.7626953 380.69873047 -9999.000000 -9999.000000  -999.250000 27.618480682
 1990.6060000 72.786315918 9.9473276138 -0.023629777 2.0905733109 0.0803800672 -9999.000000 819.78387451 377.36767578 -9999.000000 -9999.000000  -999.250000 26.086679459
 1990.7060000 70.780311584 9.8159351349 -0.026412720 2.0958814621 0.0740163028 -9999.000000 184.82060242 371.69143677 -9999.000000 -9999.000000  -999.250000 23.164846420
 1990.8060000 69.506057739 9.5853204727 -0.028205741 2.0928995609 0.0652074367 -9999.000000 8.6866159439 364.64685059 -9999.000000 -9999.000000  -999.250000 20.244207382
 1990.9060000 69.097679138 9.6718320847 -0.029167416 2.0795345306 0.0542804077 -9999.000000 27.689208984 360.28451538 -9999.000000 -9999.000000  -999.250000 17.512968063
 1991.0060000 68.817993164 9.8453264236 -0.028985197 2.0632369518 0.0510554649 -9999.000000 842.99249268 355.80502319 -9999.000000 -9999.000000  -999.250000 15.557596207
 1991.1060000 68.581954956 10.084270477 -0.028232524 2.0481045246 0.0511160120 -9999.000000 2278.3571777 351.13061523 -9999.000000 -9999.000000  -999.250000 14.378446579
 1991.2060000 68.473960876 10.077652931 -0.027240939 2.0425879955 0.0518491119 -9999.000000 2280.8041992 342.62512207 -9999.000000 -9999.000000  -999.250000 13.713510513
 1991.3060000 68.678413391 10.083080292 -0.026241044 2.0423657894 0.0493165292 -9999.000000 2281.1252441 322.01174927 -9999.000000 -9999.000000  -999.250000 12.589622498
 1991.4060000 69.324256897 10.100504875 -0.025258059 2.0488579273 0.0415522084 -9999.000000 2279.3283691 289.33883667 -9999.000000 -9999.000000  -999.250000 11.765477180
 1991.5060000 69.439949036 10.198998451 -0.024259871 2.0459754467 0.0353320874 -9999.000000 2276.4794922 277.59249878 -9999.000000 -9999.000000  -999.250000 11.265389442
 1991.6060000 69.156234741 10.251526833 -0.023277888 2.0379247665 0.0312614627 -9999.000000 2276.5788574 267.10684204 -9999.000000 -9999.000000  -999.250000 11.042721748
 1991.7060000 68.573509216 10.245906830 -0.022353064 2.0381364822 0.0348351374 -9999.000000 2280.2839355 257.52572632 -9999.000000 -9999.000000  -999.250000 10.846209526
 1991.8060000 68.739997864 10.229083061 -0.021618078 2.0372898579 0.0407122523 -9999.000000 1032.7135010 229.67193604 -9999.000000 -9999.000000  -999.250000 10.656362534
 1991.9060000 69.567588806 10.236558914 -0.021837208 2.0360317230 0.0479086526 -9999.000000 173.24461365 204.93870544 -9999.000000 -9999.000000  -999.250000 10.498536110
 1992.0060000 69.587974548 10.280994415 -0.022536756 2.0434520245 0.0458236560 -9999.000000 24.443441391 186.84169006 -9999.000000 -9999.000000  -999.250000 10.343030930
 1992.1060000 69.369056702 10.114670753 -0.023658717 2.0456180573 0.0424137823 -9999.000000 64.552078247 167.16447449 -9999.000000 -9999.000000  -999.250000 10.177839279
 1992.2060000 68.950317383 10.004551888 -0.025453672 2.0422618389 0.0387768783 -9999.000000 614.93762207 150.49873352 -9999.000000 -9999.000000  -999.250000 9.8685331345
