# LAS format log file from PETREL
# Project units are specified as depth units
#==================================================================
~Version information
VERS.   2.0:
WRAP.   NO:
#==================================================================
~Well
STRT .m      48.400200000 :
STOP .m      3533.9002000 :
STEP .m     0.10000000 :
NULL .        -999.250000 :
COMP.           : COMPANY
WELL.  F06-01   : WELL
FLD.            : FIELD
LOC.            : LOCATION
SRVC.           : SERVICE COMPANY
DATE.  2023-08-04 09:51:51   : Log Export Date {yyyy-MM-dd HH:mm:ss}
PROV.           : PROVINCE
UWI.   7044   : UNIQUE WELL ID
API.            : API NUMBER
#==================================================================
~Curve
DEPT .m                   : DEPTH
DT .us/ft                 : DT
DRHO .g/cm3               : DRHO
RHOB .g/cm3               : RHOB
NPHI .m3/m3               : NPHI
GR .gAPI                  : GR
~Parameter
#==================================================================
~Ascii
# ...
 2170.0002000 120.95652008 0.0303901788 2.2480936050 0.3852483034 94.376174927
 2170.1002000 118.13237762 0.0241477434 2.2341587543 0.3960445821 93.335830688
 2170.2002000 115.61946106 0.0212436821 2.2260012627 0.3900740743 93.975028992
 2170.3002000 115.11437988 0.0203596335 2.2213788033 0.3821767271 94.610687256
 2170.4002000 116.93204498 0.0222144090 2.2226800919 0.3788868487 95.042213440
 2170.5002000 119.33770752 0.0280325096 2.2320449352 0.3820723593 95.971954346
 2170.6002000 121.15572357 0.0386122204 2.2463848591 0.3959941268 96.434516907
 2170.7002000 122.06079865 0.0487196818 2.2608060837 0.4151943624 96.072731018
 2170.8002000 122.95467377 0.0491886809 2.2682087421 0.4211342931 95.718788147
 2170.9002000 123.49837494 0.0464372821 2.2712638378 0.4081361592 95.316329956
 2171.0002000 122.73516846 0.0421030149 2.2717404366 0.3809147775 94.888320923
 2171.1002000 120.17940521 0.0354390107 2.2734599113 0.3655849099 94.632553101
 2171.2002000 117.36951447 0.0333512239 2.2796745300 0.3593675792 94.650154114
 2171.3002000 115.43698120 0.0388594083 2.2901206017 0.3598455191 95.059684753
 2171.4002000 113.59881592 0.0438420549 2.2957661152 0.3606605530 95.685546875
 2171.5002000 111.85865784 0.0480095036 2.2957291603 0.3630747199 96.490730286
 2171.6002000 110.58265686 0.0495603681 2.2886791229 0.3673013151 96.777114868
 2171.7002000 110.28506470 0.0471103862 2.2799282074 0.3702940345 95.219642639
 2171.8002000 110.55490875 0.0450412035 2.2783527374 0.3774734139 92.426818848
 2171.9002000 110.66275024 0.0479233079 2.2929759026 0.3924210966 90.035308838
 2172.0002000 110.66440582 0.0508133285 2.3082041740 0.4027271271 89.145889282
 2172.1002000 111.19586945 0.0520901866 2.3191881180 0.4072445035 89.844268799
 2172.2002000 113.25788116 0.0492346063 2.3162727356 0.4034514427 91.823410034
 2172.3002000 115.78069305 0.0446966290 2.3036210537 0.3951459527 94.165985107
 2172.4002000 118.43148804 0.0362523720 2.2832572460 0.3824301660 96.114624023
 2172.5002000 120.26175690 0.0239579175 2.2648561001 0.3687101603 96.528602600
 2172.6002000 121.46874237 0.0202460587 2.2585527897 0.3609442413 97.741012573
 2172.7002000 121.97393799 0.0211562291 2.2623505592 0.3654653132 98.886245728
 2172.8002000 122.01741791 0.0179735851 2.2686400414 0.3851757348 97.627059937
 2172.9002000 121.42607880 0.0247176792 2.2856547832 0.3964931071 96.573394775
 2173.0002000 119.95255280 0.0386212245 2.3094367981 0.3995828032 96.096565247
 2173.1002000 117.65309906 0.0462232493 2.3256444931 0.4022699594 95.415878296
 2173.2002000 114.63219452 0.0522758551 2.3385181427 0.3903768361 95.108566284
 2173.3002000 111.44099426 0.0533707589 2.3416395187 0.3692903221 94.924530029
 2173.4002000 109.52605438 0.0440650098 2.3269729614 0.3634383976 93.366577148
 2173.5002000 108.37833405 0.0367758498 2.3156540394 0.3571738005 90.703460693
 2173.6002000 107.93056488 0.0350511223 2.3125901222 0.3509716094 87.789566040
 2173.7002000 108.10057068 0.0366362147 2.3117904663 0.3554863632 86.988510132
 2173.8002000 109.14939117 0.0433886983 2.3180789948 0.3590303957 86.418746948
 2173.9002000 110.92152405 0.0513501056 2.3269963264 0.3551895916 85.993324280
 2174.0002000 111.83289337 0.0484577790 2.3211336136 0.3462089896 88.012397766
 2174.1002000 111.93003082 0.0464310721 2.3135488033 0.3457852006 90.168075562
 2174.2002000 111.27262115 0.0485735387 2.3080475330 0.3596034348 90.939117432
 2174.3002000 110.73229980 0.0464683585 2.2985455990 0.3716957271 91.609428406
 2174.4002000 111.26696777 0.0520940535 2.2982957363 0.3835544288 90.855346680
 2174.5002000 113.67298889 0.0664717853 2.3086199760 0.3933356702 88.528190613
 2174.6002000 116.36198425 0.0669387281 2.3042414188 0.3961566091 88.519660950
 2174.7002000 119.88400269 0.0662700161 2.2974832058 0.4007711411 90.559501648
 2174.8002000 124.27105713 0.0675591230 2.2907972336 0.4132235646 93.997215271
 2174.9002000 127.56325531 0.0550107695 2.2695739269 0.4254184365 97.367591858
 2175.0002000 129.32562256 0.0431116931 2.2508740425 0.4254051447 99.093681335
 2175.1002000 129.60653687 0.0413162932 2.2478966713 0.4097530842 97.793540955
 2175.2002000 129.60723877 0.0369710587 2.2484443188 0.4002434611 95.225517273
 2175.3002000 128.96823120 0.0329739898 2.2522535324 0.3970415294 93.799812317
 2175.4002000 127.62624359 0.0310347974 2.2574832439 0.3985932767 94.894035339
 2175.5002000 126.37096405 0.0270230528 2.2604959011 0.4015311897 94.845855713
 2175.6002000 124.84492493 0.0208485425 2.2596466541 0.4032658041 95.733520508
 2175.7002000 122.83432770 0.0134312641 2.2560281754 0.4007116854 98.688972473
 2175.8002000 120.81974792 0.0053362912 2.2542173862 0.3938406408 99.785835266
 2175.9002000 119.19261932 -0.000356942 2.2571401596 0.3890413642 99.358139038
 2176.0002000 117.99366760 -0.001642184 2.2646553516 0.3883829415 98.812553406
 2176.1002000 116.59979248 -0.000927163 2.2727527618 0.3824089766 97.455665588
 2176.2002000 115.32164001 0.0088874744 2.2764725685 0.3758177757 95.729057312
 2176.3002000 114.66444397 0.0276117455 2.2732636929 0.3780043423 94.303161621
 2176.4002000 114.74109650 0.0425133295 2.2645041943 0.3934116662 92.666763306
 2176.5002000 115.80385590 0.0467404127 2.2472319603 0.4218844771 91.358901978
 2176.6002000 117.38115692 0.0416912325 2.2262361050 0.4528251588 90.761428833
 2176.7002000 118.03967285 0.0310051087 2.2170593739 0.4700235426 90.058265686
 2176.8002000 117.81951904 0.0283249673 2.2281653881 0.4646443427 90.805664063
 2176.9002000 117.40969086 0.0394255742 2.2537291050 0.4437029660 93.492713928
 2177.0002000 116.11355591 0.0538855903 2.2831547260 0.4201137722 93.832176208
 2177.1002000 113.78224182 0.0659478381 2.3012177944 0.4117290080 92.559448242
 2177.2002000 111.35517120 0.0719320998 2.2995190620 0.4221535623 92.390708923
 2177.3002000 111.61286163 0.0586191118 2.2736856937 0.4345029294 90.858566284
 2177.4002000 113.43405914 0.0355702341 2.2417609692 0.4440414310 89.038879395
 2177.5002000 114.35254669 0.0185878910 2.2219083309 0.4527668357 89.324501038
 2177.6002000 116.10378265 0.0080515519 2.2144293785 0.4504071772 88.895004272
 2177.7002000 118.59510040 0.0078275790 2.2201058865 0.4455376267 88.370407104
 2177.8002000 120.28879547 0.0190781448 2.2365245819 0.4498210549 90.175773621
 2177.9002000 121.30162048 0.0284309592 2.2458968163 0.4534820318 92.522842407
 2178.0002000 122.18133545 0.0307919793 2.2456705570 0.4510563314 94.997001648
 2178.1002000 123.11763000 0.0300183501 2.2442333698 0.4451756775 98.772735596
 2178.2002000 124.01896667 0.0260878205 2.2404255867 0.4317543209 101.78578186
 2178.3002000 124.78710938 0.0231837016 2.2384908199 0.4129893482 102.79665375
 2178.4002000 125.38760376 0.0259237289 2.2444100380 0.3948972821 102.27451324
 2178.5002000 125.04954529 0.0328810886 2.2541170120 0.3827444315 101.32106781
 2178.6002000 123.92102814 0.0399158970 2.2640302181 0.3774199188 100.26494598
 2178.7002000 122.77275085 0.0447505154 2.2746851444 0.3772265315 98.649612427
 2178.8002000 122.15585327 0.0456383713 2.2823381424 0.3765340745 97.996749878
 2178.9002000 121.90052032 0.0449640378 2.2883877754 0.3744054139 98.704696655
 2179.0002000 121.48602295 0.0465572029 2.2982413769 0.3742384911 99.623161316
 2179.1002000 121.11704254 0.0462808460 2.3008999825 0.3864113688 100.70269012
 2179.2002000 121.00926208 0.0422770418 2.2931063175 0.4063451290 101.30378723
 2179.3002000 121.00003052 0.0373348333 2.2832605839 0.4192224443 99.589591980
 2179.4002000 119.76140594 0.0327956155 2.2758851051 0.4204075336 96.380111694
 2179.5002000 117.17549133 0.0298986752 2.2744402885 0.4100013077 93.870971680
 2179.6002000 114.82314301 0.0304523092 2.2837111950 0.3837558925 93.364982605
 2179.7002000 113.07620239 0.0383432619 2.3027648926 0.3596941531 94.788238525
 2179.8002000 111.62020111 0.0484596342 2.3208796978 0.3542093039 96.930335999
 2179.9002000 110.95201874 0.0444970131 2.3225572109 0.3644581139 98.866050720
 2180.0002000 111.84526062 0.0304183271 2.3120527267 0.3797899485 99.461891174
 2180.1002000 113.92699432 0.0193850715 2.3042550087 0.3896763623 98.531204224
