# LAS format log file from PETREL
# Project units are specified as depth units
#==================================================================
~Version information
VERS.   2.0:
WRAP.   NO:
#==================================================================
~Well
STRT .m      48.400200000 :
STOP .m      3533.9002000 :
STEP .m     0.10000000 :
NULL .        -999.250000 :
COMP.           : COMPANY
WELL.  F06-01   : WELL
FLD.            : FIELD
LOC.            : LOCATION
SRVC.           : SERVICE COMPANY
DATE.  2023-08-04 09:51:51   : Log Export Date {yyyy-MM-dd HH:mm:ss}
PROV.           : PROVINCE
UWI.   7044   : UNIQUE WELL ID
API.            : API NUMBER
#==================================================================
~Curve
DEPT .m                   : DEPTH
DT .us/ft                 : DT
DRHO .g/cm3               : DRHO
RHOB .g/cm3               : RHOB
NPHI .m3/m3               : NPHI
GR .gAPI                  : GR
~Parameter
#==================================================================
~Ascii
# ...
 1945.6002000 106.33772278 0.0177079998 2.2206568718 0.4497080147 75.648254395
 1945.7002000 97.698669434 0.0287240017 2.2879068851 0.4295449853 72.576080322
 1945.8002000 92.257934570 0.0355779976 2.3380110264 0.3762440085 72.341201782
 1945.9002000 91.703475952 0.0392099991 2.3471360207 0.3156340122 74.517013550
 1946.0002000 95.298217773 0.0452179983 2.3173580170 0.2783800066 77.015228271
 1946.1002000 100.69828033 0.0426650010 2.2649691105 0.2759279907 80.191925049
 1946.2002000 106.62018585 0.0337459967 2.2143878937 0.3002870083 83.759201050
 1946.3002000 112.98419189 0.0280540008 2.1801297665 0.3363769948 86.756072998
 1946.4002000 117.61813354 0.0271469988 2.1660931110 0.3600339890 89.986526489
 1946.5002000 120.14054871 0.0286819991 2.1576259136 0.3669080138 93.088058472
 1946.6002000 121.77851868 0.0310370009 2.1400430202 0.3668859899 94.946350098
 1946.7002000 123.72372437 0.0384199992 2.1257009506 0.3782149851 95.545516968
 1946.8002000 126.08380127 0.0432210006 2.1152129173 0.4016610086 94.912155151
 1946.9002000 128.38006592 0.0346749984 2.0974891186 0.4277929962 92.619827271
 1947.0002000 130.15188599 0.0214780010 2.0901341438 0.4490039945 90.464569092
 1947.1002000 131.35284424 0.0113850003 2.0976588726 0.4613940120 89.215301514
 1947.2002000 132.20205688 0.0027379999 2.1078100204 0.4647029936 87.758392334
 1947.3002000 132.82168579 0.0024059999 2.1240379810 0.4539229870 87.410995483
 1947.4002000 133.02978516 0.0105059994 2.1446149349 0.4354769886 88.681503296
 1947.5002000 132.24560547 0.0195840001 2.1589241028 0.4227589965 90.234451294
 1947.6002000 130.79531860 0.0233250000 2.1645419598 0.4142459929 91.513488770
 1947.7002000 129.15426636 0.0234689992 2.1665539742 0.4054310024 92.367065430
 1947.8002000 127.00233459 0.0275660008 2.1697261333 0.3982900083 92.136413574
 1947.9002000 125.15467834 0.0324189998 2.1709351540 0.3943719864 90.965240479
 1948.0002000 124.34017944 0.0333160013 2.1663701534 0.3935639858 89.494354248
 1948.1002000 124.34786987 0.0315419994 2.1550848484 0.3967660069 87.763748169
 1948.2002000 125.03383636 0.0279520005 2.1446700096 0.4063450098 86.988388062
 1948.3002000 126.24009705 0.0235680006 2.1419889927 0.4211879969 87.911651611
 1948.4002000 128.03744507 0.0200270005 2.1454508305 0.4367200136 89.348358154
 1948.5002000 129.52212524 0.0222299993 2.1587049961 0.4455620050 91.540756226
 1948.6002000 129.76092529 0.0317559987 2.1808369160 0.4447790086 95.133117676
 1948.7002000 129.87344360 0.0403460003 2.1949331760 0.4411579967 97.603942871
 1948.8002000 129.99652100 0.0404359996 2.1909890175 0.4372090101 97.963409424
 1948.9002000 129.20266724 0.0316749997 2.1748869419 0.4336479902 97.768997192
 1949.0002000 128.06738281 0.0232560001 2.1597428322 0.4430989921 96.664810181
 1949.1002000 127.04293823 0.0195709988 2.1520750523 0.4567289948 94.336212158
 1949.2002000 125.94766235 0.0167989992 2.1474370956 0.4483349919 91.417709351
 1949.3002000 124.93804932 0.0151580004 2.1482648849 0.4325099885 90.373794556
 1949.4002000 124.51550293 0.0145819997 2.1551489830 0.4196139872 92.490417480
 1949.5002000 125.16264343 0.0137689998 2.1618688107 0.4046030045 94.183731079
 1949.6002000 126.87586975 0.0124639999 2.1692829132 0.3967039883 95.778106689
 1949.7002000 129.07531738 0.0128049999 2.1776950359 0.3989109993 96.957733154
 1949.8002000 130.56170654 0.0190409999 2.1848750114 0.3911190033 95.752075195
 1949.9002000 131.15496826 0.0273449998 2.1882729530 0.3843800128 93.698577881
 1950.0002000 130.85833740 0.0340180025 2.1870839596 0.3896389902 92.857192993
 1950.1002000 129.98309326 0.0422479995 2.1885330677 0.3933570087 91.219589233
 1950.2002000 128.40139771 0.0474269986 2.1877758503 0.4005199969 89.247436523
 1950.3002000 126.25698853 0.0427319966 2.1793479919 0.4162310064 88.474945068
 1950.4002000 123.88710022 0.0351899974 2.1730611324 0.4301789999 88.704147339
 1950.5002000 121.82365417 0.0263950005 2.1665449142 0.4375889897 90.196929932
 1950.6002000 121.17364502 0.0227630008 2.1588277817 0.4319649935 92.653167725
 1950.7002000 121.43592072 0.0303010009 2.1629929543 0.4204440117 95.216171265
 1950.8002000 122.69839478 0.0457150005 2.1717438698 0.4064359963 96.521438599
 1950.9002000 124.51927185 0.0533070005 2.1632452011 0.4006420076 94.765182495
 1951.0002000 126.39555359 0.0524370000 2.1504039764 0.4064640105 93.200958252
 1951.1002000 128.23110962 0.0425940007 2.1367018223 0.4244410098 92.597076416
 1951.2002000 129.96710205 0.0306730010 2.1290171146 0.4401049912 91.704345703
 1951.3002000 130.97509766 0.0215009991 2.1333410740 0.4360570014 90.937194824
 1951.4002000 130.70385742 0.0186620001 2.1499230862 0.4134829938 90.409820557
 1951.5002000 129.87365723 0.0211270005 2.1617619991 0.4066579938 89.519470215
 1951.6002000 129.17495728 0.0220809989 2.1655550003 0.4055930078 88.049163818
 1951.7002000 129.16043091 0.0198999997 2.1586189270 0.4082719982 86.431472778
 1951.8002000 129.50906372 0.0206320006 2.1494250298 0.4150240123 86.447113037
 1951.9002000 130.05902100 0.0224319994 2.1431388855 0.4224460125 86.706619263
 1952.0002000 130.57275391 0.0244829990 2.1435849667 0.4252380133 86.392913818
 1952.1002000 130.68551636 0.0269280002 2.1462900639 0.4190930128 86.906921387
 1952.2002000 130.24829102 0.0294369999 2.1493840218 0.4175440073 87.651443481
 1952.3002000 129.20449829 0.0298849996 2.1501550674 0.4240570068 88.701614380
 1952.4002000 128.38424683 0.0247639995 2.1467318535 0.4125140011 91.826797485
 1952.5002000 127.60300446 0.0201520007 2.1440291405 0.3927839994 94.416046143
 1952.6002000 126.53749847 0.0210759994 2.1465129852 0.3767449856 93.380081177
 1952.7002000 125.23738861 0.0216019992 2.1499300003 0.3702419996 92.170761108
 1952.8002000 124.16552734 0.0233519990 2.1544981003 0.3709099889 90.817352295
 1952.9002000 124.17955780 0.0259179994 2.1581029892 0.3781099916 89.671325684
 1953.0002000 125.21107483 0.0220610015 2.1542859077 0.3936609924 89.644760132
 1953.1002000 125.99995422 0.0132799996 2.1446168423 0.4061779976 90.538925171
 1953.2002000 124.99700928 0.0039450000 2.1341211796 0.4029560089 91.232666016
 1953.3002000 124.50000000 0.0001010000 2.1303160191 0.3993740082 90.408279419
 1953.4002000 124.81030273 0.0001960000 2.1332647800 0.4012539983 89.458908081
 1953.5002000 125.64805603 0.0024530001 2.1429331303 0.4120270014 90.099090576
 1953.6002000 126.23997498 0.0097559998 2.1599349976 0.4172919989 89.138595581
 1953.7002000 126.25669861 0.0182029996 2.1774260998 0.4191330075 87.129913330
 1953.8002000 125.86617279 0.0222420003 2.1864938736 0.4220750034 85.987594604
 1953.9002000 125.96606445 0.0255739987 2.1936609745 0.4234009981 84.805587769
 1954.0002000 126.24578857 0.0270650014 2.1952600479 0.4207960069 84.260848999
 1954.1002000 126.02861023 0.0250840001 2.1883478165 0.4165279865 85.439620972
 1954.2002000 126.08831787 0.0206270013 2.1790380478 0.4204509854 87.989273071
 1954.3002000 126.60331726 0.0150159998 2.1679880619 0.4190799892 89.826583862
 1954.4002000 127.16967773 0.0109700002 2.1569390297 0.4014999866 89.022750854
 1954.5002000 127.47239685 0.0101089999 2.1505060196 0.3930050135 88.172592163
 1954.6002000 127.78201294 0.0133349998 2.1534590721 0.3936649859 87.092269897
 1954.7002000 128.32534790 0.0191740002 2.1647050381 0.3924889863 84.551116943
 1954.8002000 127.69279480 0.0254319999 2.1769220829 0.3974620104 82.760330200
 1954.9002000 126.31843567 0.0297989994 2.1867890358 0.4087319970 82.779220581
 1955.0002000 125.76011658 0.0314680003 2.1944088936 0.4197160006 83.681640625
 1955.1002000 125.29529572 0.0310180001 2.1976931095 0.4286530018 84.821533203
 1955.2002000 124.27328491 0.0304930005 2.1989870071 0.4355610013 85.909698486
 1955.3002000 122.77613831 0.0320629999 2.2027270794 0.4411740005 86.902282715
 1955.4002000 121.55323792 0.0373510011 2.2093980312 0.4420160055 86.645751953
 1955.5002000 120.57069397 0.0445449986 2.2152771950 0.4375399947 85.663375854
 1955.6002000 119.22180176 0.0505180024 2.2169380188 0.4304200113 85.522979736
 1955.7002000 117.92481232 0.0552299991 2.2156131268 0.4188790023 86.189086914
