# LAS format log file from PETREL
# Project units are specified as depth units
#==================================================================
~Version information
VERS.   2.0:
WRAP.   NO:
#==================================================================
~Well
STRT .m      48.400200000 :
STOP .m      3533.9002000 :
STEP .m     0.10000000 :
NULL .        -999.250000 :
COMP.           : COMPANY
WELL.  F06-01   : WELL
FLD.            : FIELD
LOC.            : LOCATION
SRVC.           : SERVICE COMPANY
DATE.  2023-08-04 09:51:51   : Log Export Date {yyyy-MM-dd HH:mm:ss}
PROV.           : PROVINCE
UWI.   7044   : UNIQUE WELL ID
API.            : API NUMBER
#==================================================================
~Curve
DEPT .m                   : DEPTH
DT .us/ft                 : DT
DRHO .g/cm3               : DRHO
RHOB .g/cm3               : RHOB
NPHI .m3/m3               : NPHI
GR .gAPI                  : GR
~Parameter
#==================================================================
~Ascii
# ...
 2057.8002000 129.81037903 0.0233873427 2.2109577656 0.3973532915 95.255638123
 2057.9002000 128.42175293 0.0274198577 2.2134747505 0.4103908539 93.782150269
 2058.0002000 127.36642456 0.0420871601 2.2258324623 0.4143393636 93.314262390
 2058.1002000 126.59767151 0.0565889962 2.2338614464 0.4150382578 93.581436157
 2058.2002000 126.04575348 0.0539089963 2.2176413536 0.4186524749 93.485649109
 2058.3002000 125.87172699 0.0519876704 2.2045295238 0.4101043940 93.113052368
 2058.4002000 126.03381348 0.0474810675 2.1905915737 0.3986030519 93.210968018
 2058.5002000 126.15732574 0.0368097834 2.1707165241 0.3988299072 94.532112122
 2058.6002000 126.13156128 0.0310350191 2.1591601372 0.3919038177 94.868392944
 2058.7002000 125.78058624 0.0313327089 2.1566667557 0.3861679137 95.008079529
 2058.8002000 125.03353882 0.0324604772 2.1552376747 0.3970023990 97.138557434
 2058.9002000 124.12449646 0.0281433556 2.1502180099 0.4103704691 98.867271423
 2059.0002000 123.32883453 0.0214239154 2.1460089684 0.4259625971 99.632362366
 2059.1002000 122.97420502 0.0207864512 2.1509010792 0.4431661665 100.28005219
 2059.2002000 123.15161133 0.0241166167 2.1610693932 0.4496442378 100.40432739
 2059.3002000 124.10028839 0.0298510250 2.1718270779 0.4405755401 99.750282288
 2059.4002000 125.63127899 0.0345701352 2.1765701771 0.4240940511 98.678779602
 2059.5002000 127.01221466 0.0361128785 2.1747860909 0.4117602706 97.745155334
 2059.6002000 128.05752563 0.0330672562 2.1688148975 0.4112408757 96.910667419
 2059.7002000 129.12242126 0.0280202217 2.1657893658 0.4209260941 95.759262085
 2059.8002000 129.86885071 0.0273506064 2.1719603539 0.4336749613 94.915176392
 2059.9002000 130.44784546 0.0288410038 2.1837804317 0.4395884573 94.997367859
 2060.0002000 131.34735107 0.0263072010 2.1914832592 0.4346041083 95.972602844
 2060.1002000 132.09445190 0.0286276396 2.2019171715 0.4327354133 97.633712769
 2060.2002000 132.59407043 0.0350562222 2.2120494843 0.4354719818 99.514457703
 2060.3002000 133.25209045 0.0364564806 2.2127501965 0.4339003563 101.07514954
 2060.4002000 133.61352539 0.0329032913 2.2062549591 0.4359945655 101.45420837
 2060.5002000 133.07443237 0.0270265434 2.1961834431 0.4380507767 101.18749237
 2060.6002000 131.55233765 0.0216853544 2.1855015755 0.4293987751 101.79891968
 2060.7002000 130.06990051 0.0203721877 2.1809680462 0.4191789329 102.97316742
 2060.8002000 129.11352539 0.0277254470 2.1882834435 0.4124458730 103.82755280
 2060.9002000 128.18544006 0.0452995375 2.2070987225 0.4053613544 103.92575073
 2061.0002000 128.10525513 0.0603050217 2.2193422318 0.3985950649 103.36004639
 2061.1002000 128.85104370 0.0647085458 2.2164258957 0.3964594603 102.54956818
 2061.2002000 129.45912170 0.0613256581 2.2047567368 0.4021431506 101.78303528
 2061.3002000 129.16424561 0.0555371940 2.1884365082 0.4128301740 101.32160187
 2061.4002000 128.27931213 0.0518666506 2.1720018387 0.4232304096 101.14587402
 2061.5002000 127.70207214 0.0515273064 2.1581642628 0.4306334257 101.03269196
 2061.6002000 127.21675110 0.0494423658 2.1446552277 0.4310544133 100.58320618
 2061.7002000 126.52938080 0.0433016270 2.1329247952 0.4282622039 100.25762939
 2061.8002000 125.81369019 0.0349574126 2.1284210682 0.4307400286 101.38730621
 2061.9002000 126.10231781 0.0258743428 2.1328279972 0.4325656891 101.86473846
 2062.0002000 127.54998016 0.0184138156 2.1436655521 0.4307055175 100.30706024
 2062.1002000 129.38632202 0.0160125233 2.1595423222 0.4304012060 97.549072266
 2062.2002000 130.18267822 0.0201254450 2.1738607883 0.4231003225 94.454277039
 2062.3002000 129.23526001 0.0274327174 2.1830236912 0.4088242352 91.576354980
 2062.4002000 125.93120575 0.0329768546 2.1875350475 0.4020350277 89.810523987
 2062.5002000 122.60379791 0.0390526876 2.1903429031 0.4101931155 89.914428711
 2062.6002000 121.07306671 0.0458209179 2.1904187202 0.4305324554 91.207061768
 2062.7002000 121.16241455 0.0451209210 2.1782889366 0.4613097310 91.347801208
 2062.8002000 122.05628967 0.0386967883 2.1561357975 0.4827135205 91.219650269
 2062.9002000 123.35344696 0.0318703130 2.1321032047 0.4829354584 92.306396484
 2063.0002000 126.00109100 0.0239397399 2.1111230850 0.4684601426 93.044799805
 2063.1002000 128.40956116 0.0172646809 2.0958838463 0.4464342296 93.575302124
 2063.2002000 128.72198486 0.0140169356 2.0864565372 0.4236790538 94.951362610
 2063.3002000 128.17161560 0.0106793530 2.0813841820 0.4182305038 95.904487610
 2063.4002000 128.22875977 0.0066929553 2.0825004578 0.4313352704 96.345550537
 2063.5002000 129.13305664 0.0042089117 2.0910942554 0.4511018097 97.180747986
 2063.6002000 129.64410400 0.0062686880 2.1072225571 0.4704067707 97.541061401
 2063.7002000 129.61033630 0.0114681516 2.1244359016 0.4811292291 97.711540222
 2063.8002000 130.01710510 0.0158026759 2.1353805065 0.4790594876 99.005775452
 2063.9002000 130.71455383 0.0200430397 2.1398124695 0.4617753923 99.670219421
 2064.0002000 131.31835938 0.0240918081 2.1408119202 0.4386217296 99.383819580
 2064.1002000 131.75828552 0.0264286790 2.1417431831 0.4236736596 100.12022400
 2064.2002000 132.09764099 0.0282656606 2.1518273354 0.4221100509 99.650444031
 2064.3002000 132.42413330 0.0294452924 2.1700172424 0.4310241640 97.520263672
 2064.4002000 132.75109863 0.0279211402 2.1837759018 0.4426056147 97.014480591
 2064.5002000 132.59718323 0.0314577743 2.2086632252 0.4416211545 97.335418701
 2064.6002000 132.08534241 0.0426331796 2.2460343838 0.4259997308 96.952941895
 2064.7002000 132.39328003 0.0515125208 2.2688398361 0.4168186188 96.770988464
 2064.8002000 133.76147461 0.0608008429 2.2818670273 0.4105699360 96.531814575
 2064.9002000 135.83554077 0.0688587874 2.2887296677 0.4027721882 95.825843811
 2065.0002000 138.71922302 0.0619787611 2.2701196671 0.4031782448 95.316864014
 2065.1002000 141.35379028 0.0491035916 2.2419090271 0.4058174193 95.629760742
 2065.2002000 142.09873962 0.0449602194 2.2291612625 0.4022172391 96.809280396
 2065.3002000 141.54289246 0.0364141092 2.2089374065 0.4030702710 97.868003845
 2065.4002000 140.13772583 0.0244659111 2.1828482151 0.4097995162 98.575859070
 2065.5002000 138.81033325 0.0175647829 2.1655876637 0.4174836278 99.145591736
 2065.6002000 137.57887268 0.0132745709 2.1532080173 0.4249820113 99.056213379
 2065.7002000 136.50936890 0.0140125044 2.1521949768 0.4279021919 98.602134705
 2065.8002000 135.56694031 0.0211886205 2.1670551300 0.4227094352 98.952880859
 2065.9002000 134.28207397 0.0275732335 2.1820299625 0.4173806608 99.160980225
 2066.0002000 132.82752991 0.0287257172 2.1901335716 0.4169248939 98.306663513
 2066.1002000 132.15934753 0.0253447797 2.1946680546 0.4223471284 96.467933655
 2066.2002000 131.75486755 0.0201943070 2.1958060265 0.4331583679 95.063461304
 2066.3002000 131.16758728 0.0162518807 2.1948859692 0.4451949298 95.396591187
 2066.4002000 130.38142395 0.0161721446 2.1970496178 0.4482838511 96.692596436
 2066.5002000 130.03736877 0.0160572287 2.1996178627 0.4507031739 98.373023987
 2066.6002000 130.61917114 0.0131837586 2.2001998425 0.4549774528 99.647918701
 2066.7002000 130.86502075 0.0099873943 2.1990094185 0.4516386986 100.04161835
 2066.8002000 129.44047546 0.0087694284 2.1985018253 0.4521479607 99.308250427
 2066.9002000 124.96658325 0.0128098987 2.2006287575 0.4643425643 97.601974487
 2067.0002000 120.80304718 0.0210534949 2.2024085522 0.4701374471 96.971778870
 2067.1002000 117.87934875 0.0291987099 2.2050895691 0.4733056724 96.940338135
 2067.2002000 117.45789337 0.0331281610 2.2108154297 0.4773209393 96.378097534
 2067.3002000 117.46121979 0.0401319824 2.2182233334 0.4762002528 95.074859619
 2067.4002000 118.49463654 0.0473545529 2.2249684334 0.4716590941 93.551567078
 2067.5002000 121.62475586 0.0506234765 2.2273702621 0.4664414227 92.870910645
 2067.6002000 125.63135529 0.0535232015 2.2281603813 0.4609140456 92.477424622
 2067.7002000 129.69305420 0.0515270121 2.2253396511 0.4537732899 93.573959351
 2067.8002000 131.93345642 0.0387615748 2.2178680897 0.4463129342 97.704879761
 2067.9002000 132.29530334 0.0287400316 2.2160484791 0.4516013563 100.87027740
