# LAS format log file from PETREL
# Project units are specified as depth units
#==================================================================
~Version information
VERS.   2.0:
WRAP.   NO:
#==================================================================
~Well
STRT .m      48.400200000 :
STOP .m      3533.9002000 :
STEP .m     0.10000000 :
NULL .        -999.250000 :
COMP.           : COMPANY
WELL.  F06-01   : WELL
FLD.            : FIELD
LOC.            : LOCATION
SRVC.           : SERVICE COMPANY
DATE.  2023-08-04 09:51:51   : Log Export Date {yyyy-MM-dd HH:mm:ss}
PROV.           : PROVINCE
UWI.   7044   : UNIQUE WELL ID
API.            : API NUMBER
#==================================================================
~Curve
DEPT .m                   : DEPTH
DT .us/ft                 : DT
DRHO .g/cm3               : DRHO
RHOB .g/cm3               : RHOB
NPHI .m3/m3               : NPHI
GR .gAPI                  : GR
~Parameter
#==================================================================
~Ascii
# ...
 3404.2002000 77.990722656 -0.002885289 2.6387710571 0.1741936952 92.040405273
 3404.3002000 78.021850586 -0.005902949 2.6073522568 0.1645608246 89.026283264
 3404.4002000 77.458587646 -0.003602948 2.5961046219 0.1690284759 91.960197449
 3404.5002000 76.887878418 -0.001525231 2.5919404030 0.1769472212 94.313079834
 3404.6002000 76.243820190 -0.000469159 2.5943956375 0.1838642508 94.195808411
 3404.7002000 75.383323669 -0.000464006 2.6007370949 0.1841342598 91.132110596
 3404.8002000 74.982673645 -0.002950518 2.6018526554 0.1814201623 87.333198547
 3404.9002000 75.078536987 -0.007316884 2.5950706005 0.1756064594 83.606849670
 3405.0002000 75.040443420 -0.010007942 2.5841259956 0.1675531864 81.130508423
 3405.1002000 75.016700745 -0.011391860 2.5716106892 0.1630195677 81.798233032
 3405.2002000 75.223678589 -0.011293310 2.5603656769 0.1638434827 85.782272339
 3405.3002000 75.908927917 -0.010009861 2.5564205647 0.1654721051 88.506134033
 3405.4002000 76.729232788 -0.007516491 2.5569126606 0.1688049883 90.723930359
 3405.5002000 77.311088562 -0.004753292 2.5610697269 0.1728169620 91.952438354
 3405.6002000 77.133537292 -0.005148785 2.5656402111 0.1719695926 90.396766663
 3405.7002000 76.785491943 -0.005584692 2.5687706470 0.1701644212 87.311836243
 3405.8002000 76.567901611 -0.004889097 2.5672347546 0.1689346880 83.378944397
 3405.9002000 76.247314453 -0.006188085 2.5588443279 0.1656937450 80.058830261
 3406.0002000 76.003738403 -0.007288700 2.5472557545 0.1624836326 77.846443176
 3406.1002000 76.035720825 -0.007132480 2.5365321636 0.1612676382 77.503044128
 3406.2002000 76.125137329 -0.009487910 2.5285530090 0.1604265124 77.601737976
 3406.3002000 76.075393677 -0.011407247 2.5256674290 0.1608746499 78.241760254
 3406.4002000 75.697410583 -0.010054089 2.5305263996 0.1631292254 79.385879517
 3406.5002000 75.395057678 -0.010115800 2.5347301960 0.1637361944 80.105781555
 3406.6002000 75.058555603 -0.010811906 2.5385105610 0.1629982144 80.622901917
 3406.7002000 74.553092957 -0.011794051 2.5409646034 0.1606809646 80.486602783
 3406.8002000 74.019393921 -0.015355294 2.5397357941 0.1556630731 77.754859924
 3406.9002000 73.607986450 -0.019613218 2.5371575356 0.1502980888 73.304321289
 3407.0002000 73.543769836 -0.021111529 2.5368938446 0.1479530036 69.690795898
 3407.1002000 73.573684692 -0.021162856 2.5360445976 0.1447177082 68.538665771
 3407.2002000 73.812057495 -0.019694420 2.5343561172 0.1440559626 69.923332214
 3407.3002000 74.323005676 -0.017452730 2.5320539474 0.1504248381 73.071945190
 3407.4002000 74.745117188 -0.015863761 2.5302972794 0.1580092311 77.742401123
 3407.5002000 74.895950317 -0.014799189 2.5302131176 0.1668434888 81.511314392
 3407.6002000 74.737518311 -0.014083145 2.5329716206 0.1765568554 81.231269836
 3407.7002000 74.683601379 -0.015248488 2.5377855301 0.1842828393 80.788513184
 3407.8002000 74.665489197 -0.017524162 2.5433702469 0.1880696714 80.429359436
 3407.9002000 74.476051331 -0.019168073 2.5475444794 0.1876622736 79.888160706
 3408.0002000 74.322509766 -0.022310559 2.5514051914 0.1845054924 80.325172424
 3408.1002000 74.214355469 -0.026268121 2.5532953739 0.1772368401 80.902992249
 3408.2002000 74.103858948 -0.029053656 2.5525014400 0.1664982438 80.086494446
 3408.3002000 74.161827087 -0.032013118 2.5541570187 0.1576973945 79.443443298
 3408.4002000 74.468940735 -0.034921277 2.5560562611 0.1520967782 78.447494507
 3408.5002000 74.906745911 -0.037033673 2.5533132553 0.1482734531 76.492477417
 3408.6002000 75.351020813 -0.039541472 2.5510089397 0.1505331546 77.250480652
 3408.7002000 75.836875916 -0.043811176 2.5483508110 0.1594312489 80.228454590
 3408.8002000 76.421913147 -0.049747176 2.5422980785 0.1698238105 81.853630066
 3408.9002000 76.946456909 -0.055366147 2.5383279324 0.1788100600 83.537384033
 3409.0002000 77.441101074 -0.058827642 2.5385651588 0.1851330549 86.302261353
 3409.1002000 77.999458313 -0.059739288 2.5403416157 0.1895408034 89.458351135
 3409.2002000 78.287300110 -0.058424965 2.5428712368 0.1938071996 90.945228577
 3409.3002000 78.232612610 -0.055950437 2.5453803539 0.1991599351 90.254837036
 3409.4002000 78.074966431 -0.053702742 2.5470948219 0.2052995712 88.696746826
 3409.5002000 77.642379761 -0.052817639 2.5468466282 0.2116130590 85.510124207
 3409.6002000 77.066871643 -0.053760160 2.5444152355 0.2169968635 81.437034607
 3409.7002000 76.678642273 -0.056001268 2.5407338142 0.2208065838 78.165519714
 3409.8002000 76.560272217 -0.058466602 2.5368294716 0.2179097533 76.497955322
 3409.9002000 76.504470825 -0.059719253 2.5329668522 0.2106418461 76.010192871
 3410.0002000 76.252891541 -0.059135765 2.5285620689 0.2059101760 75.679962158
 3410.1002000 75.972450256 -0.054879799 2.5276198387 0.1977754384 76.514694214
 3410.2002000 75.650260925 -0.046727493 2.5326299667 0.1862545907 78.496498108
 3410.3002000 75.054641724 -0.035464816 2.5432102680 0.1774673313 80.635612488
 3410.4002000 74.512977600 -0.024432095 2.5540034771 0.1685846448 81.496635437
 3410.5002000 74.116714478 -0.015633376 2.5622832775 0.1596029401 80.340629578
 3410.6002000 73.603378296 -0.009028794 2.5692520142 0.1555720568 77.027290344
 3410.7002000 73.072364807 -0.006884393 2.5711095333 0.1541452557 72.850837708
 3410.8002000 72.558837891 -0.008539999 2.5667114258 0.1524889767 68.312705994
 3410.9002000 71.890678406 -0.011336600 2.5577411652 0.1515388489 62.516368866
 3411.0002000 71.502243042 -0.013119659 2.5466434956 0.1523415744 58.789123535
 3411.1002000 71.663528442 -0.012984423 2.5352871418 0.1545473635 58.580383301
 3411.2002000 72.332717896 -0.010341951 2.5244555473 0.1574632525 60.371135712
 3411.3002000 72.939659119 -0.006299141 2.5178256035 0.1604999006 65.130714417
 3411.4002000 73.245758057 -0.002781548 2.5160014629 0.1621739864 72.220756531
 3411.5002000 73.580352783 -0.001898625 2.5165085793 0.1590454280 78.050834656
 3411.6002000 73.525657654 -0.002863030 2.5198345184 0.1554436088 80.639495850
 3411.7002000 72.794967651 -0.004124738 2.5264284611 0.1552032381 80.483146667
 3411.8002000 71.772644043 -0.005977147 2.5353412628 0.1552569419 77.994071960
 3411.9002000 70.936630249 -0.008016961 2.5445806980 0.1528533995 73.959297180
 3412.0002000 70.494857788 -0.009733283 2.5531325340 0.1477631032 69.601249695
 3412.1002000 70.617004395 -0.011889843 2.5622248650 0.1397799850 66.693183899
 3412.2002000 71.353904724 -0.014825064 2.5682082176 0.1308259517 65.622360229
 3412.3002000 72.496292114 -0.017979845 2.5675337315 0.1235083193 65.766670227
 3412.4002000 73.497627258 -0.019578403 2.5597298145 0.1215839237 67.908027649
 3412.5002000 74.108673096 -0.019209370 2.5464694500 0.1266019791 72.870231628
 3412.6002000 74.473815918 -0.017936274 2.5312132835 0.1364141852 80.016227722
 3412.7002000 74.807998657 -0.015935002 2.5194978714 0.1493161023 87.291534424
 3412.8002000 75.074851990 -0.013952982 2.5162644386 0.1653569490 93.909751892
 3412.9002000 75.089523315 -0.012962989 2.5215957165 0.1844559014 100.50462341
 3413.0002000 75.262573242 -0.012432531 2.5351872444 0.1970484108 104.30734253
 3413.1002000 75.703552246 -0.012012419 2.5524888039 0.2020090520 104.01018524
 3413.2002000 76.000556946 -0.012018993 2.5673110485 0.2102437615 101.83576202
 3413.3002000 76.211090088 -0.012055961 2.5783591270 0.2144957483 95.201934814
 3413.4002000 76.509651184 -0.011429626 2.5821592808 0.2090274841 83.761123657
 3413.5002000 76.966217041 -0.009870561 2.5749611855 0.2006963342 71.241981506
 3413.6002000 77.019355774 -0.006580292 2.5619492531 0.1834502518 60.015705109
 3413.7002000 76.230705261 -0.002220361 2.5502755642 0.1570933610 53.194782257
 3413.8002000 75.066238403 0.0009008800 2.5361061096 0.1346714050 51.799385071
 3413.9002000 73.811676025 0.0009259780 2.5194344521 0.1192923710 54.075630188
 3414.0002000 72.763099670 -0.002518552 2.5031211376 0.1091111749 55.537700653
 3414.1002000 71.687767029 -0.007075442 2.4880559444 0.0998422652 55.563056946
 3414.2002000 70.817794800 -0.011783293 2.4763135910 0.0913604796 53.426067352
 3414.3002000 70.600372314 -0.015411373 2.4700744152 0.0864618942 49.690689087
