# LAS format log file from PETREL
# Project units are specified as depth units
#==================================================================
~Version information
VERS.   2.0:
WRAP.   NO:
#==================================================================
~Well
STRT .m      48.400200000 :
STOP .m      3533.9002000 :
STEP .m     0.10000000 :
NULL .        -999.250000 :
COMP.           : COMPANY
WELL.  F06-01   : WELL
FLD.            : FIELD
LOC.            : LOCATION
SRVC.           : SERVICE COMPANY
DATE.  2023-08-04 09:51:51   : Log Export Date {yyyy-MM-dd HH:mm:ss}
PROV.           : PROVINCE
UWI.   7044   : UNIQUE WELL ID
API.            : API NUMBER
#==================================================================
~Curve
DEPT .m                   : DEPTH
DT .us/ft                 : DT
DRHO .g/cm3               : DRHO
RHOB .g/cm3               : RHOB
NPHI .m3/m3               : NPHI
GR .gAPI                  : GR
~Parameter
#==================================================================
~Ascii
# ...
 3516.4002000 81.084449768 0.0663344860 2.5674307346 0.2369004190 117.19073486
 3516.5002000 81.010749817 0.0661942884 2.5798552036 0.2338451147 118.07991791
 3516.6002000 81.203697205 0.0609025992 2.5886273384 0.2315515876 118.84233093
 3516.7002000 81.845336914 0.0506545156 2.5933375359 0.2311278284 119.86890411
 3516.8002000 82.678085327 0.0374504179 2.5938711166 0.2333605289 117.77259064
 3516.9002000 83.454162598 0.0254889186 2.5904209614 0.2384757698 115.15573120
 3517.0002000 84.104934692 0.0168193262 2.5840795040 0.2457773834 115.51531982
 3517.1002000 84.349624634 0.0123988250 2.5754742622 0.2541342676 117.45036316
 3517.2002000 84.212158203 0.0124848103 2.5680317879 0.2583465874 119.18762970
 3517.3002000 83.907585144 0.0163043458 2.5649161339 0.2558520138 120.33244324
 3517.4002000 83.273544312 0.0249576736 2.5746412277 0.2536104620 119.28160858
 3517.5002000 82.547592163 0.0317803621 2.5907924175 0.2514133751 116.59184265
 3517.6002000 82.123069763 0.0293588806 2.6008369923 0.2441914678 114.07499695
 3517.7002000 81.553916931 0.0202801824 2.6035246849 0.2373646498 111.58277130
 3517.8002000 80.732078552 0.0096772118 2.6011898518 0.2333310544 108.40361023
 3517.9002000 80.023056030 -0.000105438 2.5949523449 0.2291144282 104.33998108
 3518.0002000 79.465911865 -0.008079059 2.5862994194 0.2254353613 101.78076172
 3518.1002000 78.967498779 -0.013502164 2.5780212879 0.2228282094 101.38974762
 3518.2002000 78.472473145 -0.015987040 2.5721356869 0.2203549445 101.41021729
 3518.3002000 78.276115417 -0.014403184 2.5705621243 0.2166583836 101.89263153
 3518.4002000 78.416954041 -0.010026763 2.5729284286 0.2120252699 102.29049683
 3518.5002000 78.556381226 -0.005683686 2.5771665573 0.2085230052 101.13861847
 3518.6002000 78.881858826 -0.001214938 2.5815351009 0.2065798789 100.64239502
 3518.7002000 79.545303345 0.0026792141 2.5844740868 0.2064352781 102.60312653
 3518.8002000 80.280509949 0.0027169399 2.5858094692 0.2093162388 104.92525482
 3518.9002000 80.876892090 -0.000139276 2.5883469582 0.2116802782 106.26194763
 3519.0002000 81.192321777 -0.002719840 2.5942234993 0.2104694247 105.96433258
 3519.1002000 81.194938660 -0.004665112 2.5999875069 0.2103741765 104.24414063
 3519.2002000 80.914733887 -0.006808713 2.6025011539 0.2129169106 101.99720001
 3519.3002000 80.571762085 -0.009957697 2.6009461880 0.2159080058 100.73206329
 3519.4002000 80.382064819 -0.012903111 2.5992503166 0.2149968296 100.71849823
 3519.5002000 80.420501709 -0.014122568 2.5973567963 0.2104251683 103.30775452
 3519.6002000 80.555923462 -0.012326604 2.5933909416 0.2083411515 108.58400726
 3519.7002000 80.719146729 -0.007333000 2.5899300575 0.2117531598 113.02700806
 3519.8002000 81.086166382 0.0003436360 2.5886595249 0.2218378037 115.33933258
 3519.9002000 81.816543579 0.0076923040 2.5890583992 0.2332681268 117.30306244
 3520.0002000 82.160835266 0.0169065632 2.5901308060 0.2449666113 117.55321503
 3520.1002000 81.827117920 0.0293071866 2.5919790268 0.2550558150 115.93765259
 3520.2002000 81.699256897 0.0429507121 2.5950176716 0.2625330687 115.40769958
 3520.3002000 81.862663269 0.0556416214 2.5955660343 0.2678114474 115.83309937
 3520.4002000 82.421730042 0.0649803355 2.5911476612 0.2703449428 117.80403900
 3520.5002000 83.096900940 0.0736197233 2.5872688293 0.2710126638 121.71752167
 3520.6002000 83.445655823 0.0822257847 2.5856690407 0.2699710727 126.18644714
 3520.7002000 83.021286011 0.0897649229 2.5867218971 0.2675967813 128.98725891
 3520.8002000 82.550529480 0.0933837816 2.5841403008 0.2654832304 129.71173096
 3520.9002000 81.989860535 0.0947323143 2.5814454556 0.2631676197 128.13146973
 3521.0002000 81.227409363 0.0936850980 2.5826005936 0.2598526478 123.82713318
 3521.1002000 80.240196228 0.0840902179 2.5816278458 0.2552651763 118.19230652
 3521.2002000 79.497047424 0.0652597025 2.5795750618 0.2467141151 111.67652130
 3521.3002000 79.609535217 0.0393618234 2.5786459446 0.2318118364 105.51960754
 3521.4002000 79.223594666 0.0158949234 2.5785651207 0.2199008167 99.538131714
 3521.5002000 78.535011292 -0.001317600 2.5798125267 0.2130446881 94.937934875
 3521.6002000 78.205337524 -0.007837004 2.5834455490 0.2114771158 93.330993652
 3521.7002000 78.160865784 -0.010382924 2.5899767876 0.2067873925 92.029640198
 3521.8002000  -999.250000 -0.010687400 2.5969192982 0.1965495050 90.558715820
 3521.9002000  -999.250000 -0.012517334 2.5990130901 0.1810210794 88.391105652
 3522.0002000  -999.250000 -0.013358321 2.6015388966 0.1680798680 86.038764954
 3522.1002000  -999.250000 -0.013478762 2.6031575203 0.1617137045 84.946960449
 3522.2002000  -999.250000 -0.014241472 2.6005382538 0.1630433053 87.297195435
 3522.3002000  -999.250000 -0.011764966 2.6008362770 0.1666347980 90.172912598
 3522.4002000  -999.250000 -0.007524488 2.6022710800 0.1718435735 93.725402832
 3522.5002000  -999.250000 -0.008438152 2.5963368416 0.1789427996 99.202613831
 3522.6002000  -999.250000 -0.009400076 2.5925505161 0.1866416037 103.32453918
 3522.7002000  -999.250000 -0.009403996 2.5928542614 0.1942916960 105.35523224
 3522.8002000  -999.250000 -0.010698406 2.5911664963 0.2008309364 107.53379059
 3522.9002000  -999.250000 -0.011539320 2.5898327827 0.2038998753 107.45870209
 3523.0002000  -999.250000 -0.011304474 2.5895206928 0.2034499049 104.23491669
 3523.1002000  -999.250000 -0.011466675 2.5884971619 0.2046705633 101.31375122
 3523.2002000  -999.250000 -0.013036854 2.5872685909 0.2047308832 98.440956116
 3523.3002000  -999.250000 -0.015637793 2.5877299309 0.2025044560 95.590034485
 3523.4002000  -999.250000 -0.015999287 2.5919704437 0.2007205635 93.194946289
 3523.5002000  -999.250000 -0.015777446 2.5944788456 0.1950852871 90.166290283
 3523.6002000  -999.250000 -0.014915725 2.5924527645 0.1831019968 86.475616455
 3523.7002000  -999.250000 -0.011244354 2.5915875435 0.1713904291 84.567756653
 3523.8002000  -999.250000 -0.006955580 2.5883784294 0.1614708304 85.214256287
 3523.9002000  -999.250000 -0.003731444 2.5803091526 0.1578182876 89.830261230
 3524.0002000  -999.250000 -0.000541380 2.5706682205 0.1638039947 98.019401550
 3524.1002000  -999.250000 0.0025637902 2.5541291237 0.1817021668 107.35540771
 3524.2002000  -999.250000 0.0083154859 2.5262928009 0.2106051594 115.46974182
 3524.3002000  -999.250000 0.0212391242 2.4911363125 0.2432816327 123.71416473
 3524.4002000  -999.250000 0.0411930680 2.4413137436 0.2784506679 129.83593750
 3524.5002000  -999.250000 0.0619774312 2.3823530674 0.3062005341 132.23216248
 3524.6002000  -999.250000 0.0755977929 2.3349547386 0.3144046664 133.18730164
 3524.7002000  -999.250000 0.0817018151 2.3104021549 0.3129339814 133.23471069
 3524.8002000  -999.250000 0.0825024173 2.3137383461 0.3107234240 133.06350708
 3524.9002000  -999.250000 0.0795708820 2.3394894600 0.2989855111 133.14949036
 3525.0002000  -999.250000 0.0805699900 2.3845539093 0.2847454846 135.45022583
 3525.1002000  -999.250000 0.0868384391 2.4335899353 0.2747240365 139.05224609
 3525.2002000  -999.250000 0.0865915269 2.4689993858 0.2620164156 138.96679688
 3525.3002000  -999.250000 0.0840520859 2.4979729652 0.2562415302 134.65132141
 3525.4002000  -999.250000 0.0834941044 2.5313673019 0.2636022270 128.24707031
 3525.5002000  -999.250000 0.0764221698 2.5633640289 0.2764472663 120.35773468
 3525.6002000  -999.250000 0.0712483376 2.6036303043 0.2853422463 113.40660095
 3525.7002000  -999.250000 0.0747719109 2.6523685455 0.2856523991 109.03958893
 3525.8002000  -999.250000 0.0782630146 2.6819479465 0.2775911391 107.12168121
 3525.9002000  -999.250000 0.0838657841 2.6915349960 0.2655570805  -999.250000
 3526.0002000  -999.250000 0.0921254680 2.6936199665 0.2555270493  -999.250000
 3526.1002000  -999.250000 0.0868585855 2.6798515320 0.2527604997  -999.250000
 3526.2002000  -999.250000 0.0682213232 2.6590225697 0.2571252286  -999.250000
 3526.3002000  -999.250000 0.0474036448 2.6429321766 0.2649922669  -999.250000
 3526.4002000  -999.250000 0.0326564685 2.6240108013 0.2741157711  -999.250000
 3526.5002000  -999.250000 0.0314313956 2.5981438160 0.2806609273  -999.250000
