# LAS format log file from PETREL
# Project units are specified as depth units
#==================================================================
~Version information
VERS.   2.0:
WRAP.   NO:
#==================================================================
~Well
STRT .m      48.400200000 :
STOP .m      3533.9002000 :
STEP .m     0.10000000 :
NULL .        -999.250000 :
COMP.           : COMPANY
WELL.  F06-01   : WELL
FLD.            : FIELD
LOC.            : LOCATION
SRVC.           : SERVICE COMPANY
DATE.  2023-08-04 09:51:51   : Log Export Date {yyyy-MM-dd HH:mm:ss}
PROV.           : PROVINCE
UWI.   7044   : UNIQUE WELL ID
API.            : API NUMBER
#==================================================================
~Curve
DEPT .m                   : DEPTH
DT .us/ft                 : DT
DRHO .g/cm3               : DRHO
RHOB .g/cm3               : RHOB
NPHI .m3/m3               : NPHI
GR .gAPI                  : GR
~Parameter
#==================================================================
~Ascii
# ...
 2506.6002000 119.66107178 0.0655920357 2.2479834557 0.4453469813 97.495300293
 2506.7002000 118.68860626 0.0594932251 2.2521195412 0.4528419971 99.781845093
 2506.8002000 117.31187439 0.0543941930 2.2582077980 0.4502462447 102.05805206
 2506.9002000 116.22339630 0.0588400699 2.2788774967 0.4346931577 103.33471680
 2507.0002000 115.39851379 0.0700904652 2.3091473579 0.4195143580 103.99462128
 2507.1002000 114.54852295 0.0899871662 2.3439333439 0.4062525332 104.13852692
 2507.2002000 113.47424316 0.1151476577 2.3726644516 0.3910104930 103.80632782
 2507.3002000 112.79931641 0.1277837753 2.3722829819 0.3812245429 103.22319794
 2507.4002000 112.87236786 0.1212820783 2.3390493393 0.3846111894 101.54352570
 2507.5002000 113.29192352 0.1083798259 2.2994103432 0.3986169696 97.937942505
 2507.6002000 114.37337494 0.0943929777 2.2619998455 0.4121708870 94.627639771
 2507.7002000 115.80954742 0.0813570693 2.2343013287 0.4189255238 93.084365845
 2507.8002000 116.54886627 0.0674548075 2.2151472569 0.4226615429 91.890205383
 2507.9002000 116.95271301 0.0549410246 2.2016639709 0.4200342894 93.335754395
 2508.0002000 117.53901672 0.0467084497 2.1933307648 0.4096577764 97.740463257
 2508.1002000 118.37271881 0.0430802405 2.1909747124 0.3989783823 99.480827332
 2508.2002000 119.28773499 0.0448434539 2.1947016716 0.3926386535 100.83387756
 2508.3002000 119.94389343 0.0519118384 2.2034265995 0.3950092196 103.94083405
 2508.4002000 120.11117554 0.0588710792 2.2111146450 0.4014560878 105.53467560
 2508.5002000 119.94585419 0.0642861724 2.2190780640 0.4109859169 105.72061157
 2508.6002000 119.73083496 0.0653698519 2.2260570526 0.4204780161 104.69882202
 2508.7002000 119.36156464 0.0614748076 2.2252135277 0.4253872037 102.13990784
 2508.8002000 118.88478851 0.0537574477 2.2191543579 0.4224269688 99.018684387
 2508.9002000 118.62370300 0.0447959304 2.2130622864 0.4087943137 97.657684326
 2509.0002000 119.10079193 0.0362730436 2.2074601650 0.3947860003 97.991607666
 2509.1002000 120.13362885 0.0333528183 2.2073380947 0.3828658462 99.511405945
 2509.2002000 120.81832123 0.0426992550 2.2188978195 0.3777232468 100.50782013
 2509.3002000 120.90158081 0.0529115684 2.2298080921 0.3812668920 101.18159485
 2509.4002000 120.37932587 0.0598341674 2.2354438305 0.3930554092 101.21154785
 2509.5002000 119.87371063 0.0570825413 2.2301127911 0.4057665765 100.32769775
 2509.6002000 119.77220154 0.0465800352 2.2189173698 0.4103658199 99.690101624
 2509.7002000 119.68415070 0.0337756202 2.2084598541 0.4065446854 99.273780823
 2509.8002000 118.45205688 0.0322869308 2.2114868164 0.4017466009 98.161193848
 2509.9002000 117.71721649 0.0351223089 2.2167434692 0.3952859342 97.627609253
 2510.0002000 118.27220154 0.0432656929 2.2231721878 0.3893977702 98.139808655
 2510.1002000 119.18553162 0.0572200678 2.2319862843 0.3913909793 98.660400391
 2510.2002000 119.40618134 0.0651751161 2.2342026234 0.3970367014 99.455772400
 2510.3002000 118.67064667 0.0625752434 2.2261102200 0.4027465880 100.21737671
 2510.4002000 118.95221710 0.0579722151 2.2162995338 0.4019246697 99.614479065
 2510.5002000 119.72763062 0.0544230975 2.2069504261 0.4022922516 99.406631470
 2510.6002000 120.53879547 0.0529409535 2.1977853775 0.4054646492 100.79711151
 2510.7002000 120.88042450 0.0504759327 2.1858687401 0.4036586285 102.01415253
 2510.8002000 120.84017181 0.0480318889 2.1757352352 0.4045751393 102.83741760
 2510.9002000 120.38230896 0.0464601405 2.1719055176 0.4103594124 102.55353546
 2511.0002000 119.61221313 0.0449849479 2.1708781719 0.4079588354 100.85475159
 2511.1002000 118.87279510 0.0421177410 2.1677322388 0.4031925499 98.904640198
 2511.2002000 118.66671753 0.0374902599 2.1585593224 0.4013327062 98.422134399
 2511.3002000 118.78380585 0.0348552614 2.1485152245 0.4019447863 99.080528259
 2511.4002000 119.00083160 0.0328021049 2.1357705593 0.4124609232 100.72010803
 2511.5002000 119.05619812 0.0308129787 2.1220383644 0.4321775436 102.76657867
 2511.6002000 119.27429962 0.0312331505 2.1168513298 0.4326271713 104.34689331
 2511.7002000 119.60150146 0.0331411771 2.1190474033 0.4253805280 104.41449738
 2511.8002000 119.90329742 0.0336819217 2.1244122982 0.4225616455 102.33147430
 2511.9002000 120.12914276 0.0298027769 2.1266453266 0.4131797850 100.55551910
 2512.0002000 120.24004364 0.0298648607 2.1339344978 0.4107897282 99.426300049
 2512.1002000 120.50558472 0.0394637659 2.1506872177 0.4256711602 98.985496521
 2512.2002000 121.61400604 0.0418642275 2.1584033966 0.4331949651 98.941139221
 2512.3002000 123.13387299 0.0449208803 2.1648271084 0.4323447347 99.192977905
 2512.4002000 124.02134705 0.0530616976 2.1770257950 0.4287482202 99.159934998
 2512.5002000 124.24631500 0.0476339124 2.1805858612 0.4300404191 98.037544250
 2512.6002000 123.47400665 0.0438166261 2.1917767525 0.4375569522 97.448028564
 2512.7002000 122.06894684 0.0559366941 2.2221763134 0.4485000968 99.005546570
 2512.8002000 121.19559479 0.0597743616 2.2432377338 0.4596147537 100.15777588
 2512.9002000 120.47189331 0.0589177310 2.2478330135 0.4593585730 101.00602722
 2513.0002000 119.12960815 0.0614828542 2.2395126820 0.4435077608 102.63677979
 2513.1002000 118.32547760 0.0532455184 2.2152028084 0.4283073843 103.85197449
 2513.2002000 118.34876251 0.0411182716 2.1879515648 0.4196602702 104.07624817
 2513.3002000 118.60660553 0.0398634672 2.1762013435 0.4166480005 103.59235382
 2513.4002000 118.92707825 0.0497332141 2.1834981441 0.4205731452 102.31679535
 2513.5002000 118.73571777 0.0678986311 2.2055127621 0.4310739636 100.32147980
 2513.6002000 117.78488159 0.0860836357 2.2277574539 0.4431009591 98.149864197
 2513.7002000 117.10498047 0.0928065926 2.2328538895 0.4494273663 96.578842163
 2513.8002000 116.91025543 0.0831413940 2.2192134857 0.4543990791 95.934135437
 2513.9002000 116.69721222 0.0638077036 2.1992409229 0.4622991681 95.939071655
 2514.0002000 116.70070648 0.0453130007 2.1799991131 0.4561809897 96.614593506
 2514.1002000 117.14146423 0.0341640003 2.1709318161 0.4359610081 97.528152466
 2514.2002000 117.91333008 0.0292370003 2.1751120090 0.4150049984 98.168334961
 2514.3002000 118.41101074 0.0256869998 2.1850309372 0.4012520015 98.807693481
 2514.4002000 118.69165039 0.0191910006 2.1951699257 0.4022609890 99.529693604
 2514.5002000 119.25756836 0.0092139998 2.2058730125 0.4185799956 100.17987061
 2514.6002000 119.59426117 0.0068899998 2.2287681103 0.4378120005 100.50631714
 2514.7002000 119.56280518 0.0135840001 2.2570149899 0.4476070106 100.77511597
 2514.8002000 119.50863647 0.0230320003 2.2774908543 0.4455130100 101.43281555
 2514.9002000 119.42770386 0.0417379998 2.2873678207 0.4429039955 101.10668945
 2515.0002000 119.50967407 0.0594169982 2.2837028503 0.4422009885 100.42634583
 2515.1002000 120.09130859 0.0605219975 2.2634251118 0.4378910065 101.37889099
 2515.2002000 120.73320007 0.0534339994 2.2474160194 0.4359770119 103.20162964
 2515.3002000 120.84413147 0.0471189991 2.2496178150 0.4336960018 105.04324341
 2515.4002000 120.04544830 0.0417729989 2.2700600624 0.4213429987 107.18623352
 2515.5002000 118.68596649 0.0428539999 2.2989339828 0.4155420065 108.22390747
 2515.6002000 117.45989990 0.0514170006 2.3247108459 0.4179970026 107.32165527
 2515.7002000 116.97338867 0.0642559975 2.3404769897 0.4127619863 104.53849792
 2515.8002000 116.54385376 0.0716260001 2.3387219906 0.4087550044 100.73452759
 2515.9002000 115.74484253 0.0727479979 2.3227019310 0.4111729860 97.100051880
 2516.0002000 115.09811401 0.0751110017 2.3001389503 0.4113979936 94.807617188
 2516.1002000 114.76890564 0.0719280019 2.2671389580 0.4168939888 93.879287720
 2516.2002000 114.64070129 0.0610579997 2.2277791500 0.4292019904 93.367858887
 2516.3002000 114.83738708 0.0526730008 2.1987581253 0.4338729978 92.177444458
 2516.4002000 115.38510132 0.0504859984 2.1830801964 0.4333429933 90.813125610
 2516.5002000 116.08345032 0.0516489968 2.1744008064 0.4349339902 90.209213257
 2516.6002000 116.54530334 0.0531619973 2.1714088917 0.4358359873 90.827835083
 2516.7002000 116.84887695 0.0542319976 2.1636288166 0.4345749915 92.556976318
