# LAS format log file from PETREL
# Project units are specified as depth units
#==================================================================
~Version information
VERS.   2.0:
WRAP.   NO:
#==================================================================
~Well
STRT .m      48.400200000 :
STOP .m      3533.9002000 :
STEP .m     0.10000000 :
NULL .        -999.250000 :
COMP.           : COMPANY
WELL.  F06-01   : WELL
FLD.            : FIELD
LOC.            : LOCATION
SRVC.           : SERVICE COMPANY
DATE.  2023-08-04 09:51:51   : Log Export Date {yyyy-MM-dd HH:mm:ss}
PROV.           : PROVINCE
UWI.   7044   : UNIQUE WELL ID
API.            : API NUMBER
#==================================================================
~Curve
DEPT .m                   : DEPTH
DT .us/ft                 : DT
DRHO .g/cm3               : DRHO
RHOB .g/cm3               : RHOB
NPHI .m3/m3               : NPHI
GR .gAPI                  : GR
~Parameter
#==================================================================
~Ascii
# ...
 2955.4002000 112.21755981 0.0989620015 2.4009020329 0.3544270098 110.48277283
 2955.5002000 113.55128479 0.0726549998 2.3754780293 0.3633080125 108.41098022
 2955.6002000 114.66143799 0.0479599983 2.3617279530 0.3825060129 107.35668945
 2955.7002000 114.39472961 0.0300610010 2.3556680679 0.4079239964 108.85049438
 2955.8002000 113.46400452 0.0211479999 2.3565969467 0.4261539876 112.38543701
 2955.9002000 112.21942139 0.0201520007 2.3637518883 0.4295490086 115.72538757
 2956.0002000 110.07072449 0.0227230005 2.3759021759 0.4255610108 116.83384705
 2956.1002000 108.16107178 0.0296289995 2.4011411667 0.4139409959 115.45707703
 2956.2002000 107.32391357 0.0414789990 2.4382901192 0.3967339993 112.43617249
 2956.3002000 107.03724670 0.0580330007 2.4772560596 0.3774360120 108.65979004
 2956.4002000 107.13385010 0.0695609972 2.4961299896 0.3601169884 106.56649780
 2956.5002000 107.80953979 0.0700960010 2.4851508141 0.3484779894 106.55667114
 2956.6002000 109.53744507 0.0626410022 2.4521780014 0.3436340094 106.42413330
 2956.7002000 111.84925842 0.0501910001 2.4098529816 0.3500860035 107.62797546
 2956.8002000 113.63319397 0.0396090001 2.3733959198 0.3638849854 110.46020508
 2956.9002000 113.98692322 0.0385750011 2.3510439396 0.3754659891 112.86865234
 2957.0002000 114.01974487 0.0469669998 2.3419618607 0.3822369874 115.52619934
 2957.1002000 114.51348114 0.0586269982 2.3398079872 0.3855040073 118.54568481
 2957.2002000 114.69300079 0.0677969977 2.3406670094 0.3855609894 119.80174255
 2957.3002000 114.28245544 0.0721959993 2.3453009129 0.3846449852 119.95086670
 2957.4002000 113.67404175 0.0730250031 2.3533082008 0.3843910098 120.13548279
 2957.5002000 113.42492676 0.0716850013 2.3622701168 0.3838599920 119.57885742
 2957.6002000 113.51500702 0.0712120011 2.3723239899 0.3844220042 118.29240417
 2957.7002000 113.83265686 0.0722860023 2.3824141026 0.3872039914 116.75466919
 2957.8002000 114.89012146 0.0709460005 2.3854041100 0.3918780088 114.83749390
 2957.9002000 116.10083008 0.0645049959 2.3825919628 0.3954710066 112.53691101
 2958.0002000 116.79294586 0.0543060005 2.3794519901 0.3973000050 110.41787720
 2958.1002000 117.16899109 0.0451220013 2.3784198761 0.4035289884 110.64599609
 2958.2002000 117.25924683 0.0393109992 2.3792219162 0.4123319983 112.59861755
 2958.3002000 116.96377563 0.0368690006 2.3810849190 0.4195939898 114.57431030
 2958.4002000 116.33879089 0.0417650007 2.3852930069 0.4309949875 116.67964172
 2958.5002000 115.50376892 0.0546290018 2.3931651115 0.4410980046 117.70602417
 2958.6002000 114.57279968 0.0718020052 2.4042689800 0.4416550100 116.37019348
 2958.7002000 113.67643738 0.0819969997 2.4166579247 0.4353690147 112.31927490
 2958.8002000 112.43585205 0.0873000026 2.4314250946 0.4268850088 107.45732117
 2958.9002000 110.51079559 0.0968459994 2.4498660564 0.4181169868 103.92076111
 2959.0002000 109.89457703 0.0999860018 2.4548459053 0.4146659970 101.71603394
 2959.1002000 110.81457520 0.0923480019 2.4403479099 0.4191850126 101.20927429
 2959.2002000 111.62448120 0.0810490027 2.4161818027 0.4294140041 103.08168030
 2959.3002000 112.01907349 0.0601760000 2.3823258877 0.4379140139 106.24346924
 2959.4002000 112.82888031 0.0357879996 2.3525149822 0.4375770092 109.02391052
 2959.5002000 115.02301025 0.0245529991 2.3476541042 0.4267019928 110.64898682
 2959.6002000 116.14123535 0.0294780005 2.3630070686 0.4111129940 112.44114685
 2959.7002000 115.29754639 0.0447710007 2.3870759010 0.3977909982 114.54205322
 2959.8002000 114.89717102 0.0656109974 2.4196410179 0.3878520131 115.03396606
 2959.9002000 114.85493469 0.0849089995 2.4516220093 0.3868789971 114.70761108
 2960.0002000 114.28092957 0.0968960002 2.4742259979 0.3923639953 114.12809753
 2960.1002000 113.18161011 0.1033340022 2.4914999008 0.3911150098 111.08055115
 2960.2002000 111.95137024 0.0994660035 2.4958870411 0.3801650107 108.25990295
 2960.3002000 111.17398834 0.0864120051 2.4862880707 0.3679060042 108.89416504
 2960.4002000 111.00030518 0.0762780011 2.4792361259 0.3654389977 110.45033264
 2960.5002000 111.14163208 0.0741799995 2.4780020714 0.3673560023 112.65098572
 2960.6002000 111.21926880 0.0761929974 2.4752600193 0.3629319966 115.54676819
 2960.7002000 111.93545532 0.0724629983 2.4631478786 0.3640899956 117.03271484
 2960.8002000 112.73640442 0.0674450025 2.4481880665 0.3720580041 116.47590637
 2960.9002000 112.36643982 0.0744639933 2.4468989372 0.3778100014 115.50300598
 2961.0002000 111.63127136 0.0898170024 2.4585518837 0.3848620057 115.06243896
 2961.1002000 111.71340942 0.1009359956 2.4682049751 0.3914979994 114.67306519
 2961.2002000 113.19800568 0.0938629955 2.4534080029 0.3922060132 112.83050537
 2961.3002000 114.00446320 0.0855370015 2.4355120659 0.3918139935 111.74610901
 2961.4002000 113.34832764 0.0826859996 2.4314441681 0.3943359852 112.18037415
 2961.5002000 113.44155884 0.0729749948 2.4400548935 0.3995809853 111.67388916
 2961.6002000 113.51699829 0.0637589991 2.4660370350 0.4050700068 111.53511047
 2961.7002000 112.89814758 0.0645199940 2.5069379807 0.4072619975 112.11514282
 2961.8002000 111.95885468 0.0776289999 2.5368559361 0.4040119946 111.21942139
 2961.9002000 111.22714233 0.0966079980 2.5486979485 0.3938519955 110.19305420
 2962.0002000 110.76226807 0.1119029969 2.5367901325 0.3778690100 110.34837341
 2962.1002000 109.08647156 0.1178340018 2.5174069405 0.3673320115 110.52400208
 2962.2002000 107.22071838 0.1131130010 2.4914340973 0.3623769879 111.24327087
 2962.3002000 106.74522400 0.0966600031 2.4610290527 0.3617720008 113.12080383
 2962.4002000 107.21102905 0.0747549981 2.4322638512 0.3614329994 115.04978943
 2962.5002000 108.32394409 0.0561689995 2.4143369198 0.3633820117 116.45901489
 2962.6002000 109.63029480 0.0550330020 2.4196321964 0.3703019917 116.54710388
 2962.7002000 111.73933411 0.0569019988 2.4277369976 0.3765189946 116.52116394
 2962.8002000 113.98072052 0.0608361997 2.4370722771 0.3812278807 116.07458496
 2962.9002000 114.82543182 0.0649815649 2.4453101158 0.3836756647 114.94077301
 2963.0002000 115.03608704 0.0678763315 2.4516062737 0.3846261799 114.85359955
 2963.1002000 115.06240082 0.0709617361 2.4555580616 0.3831175566 115.66076660
 2963.2002000 115.62758636 0.0776957646 2.4573996067 0.3782067597 115.99631500
 2963.3002000 115.38081360 0.0846311897 2.4558405876 0.3723974228 115.77700043
 2963.4002000 114.46200562 0.0904276147 2.4484910965 0.3663920164 115.26589203
 2963.5002000 114.42277527 0.0934848562 2.4344711304 0.3627499044 115.24738312
 2963.6002000 114.51785278 0.0948898047 2.4182345867 0.3658027947 114.51127625
 2963.7002000 114.72708130 0.0925620198 2.4019057751 0.3771229684 113.65464020
 2963.8002000 115.35623169 0.0830386356 2.3898472786 0.3895726204 115.41526031
 2963.9002000 115.84957886 0.0698326528 2.3812944889 0.3996268809 118.24291229
 2964.0002000 116.05114746 0.0580932014 2.3795061111 0.4033139944 121.16773987
 2964.1002000 116.26639557 0.0581497252 2.3877351284 0.3976710141 122.43009949
 2964.2002000 116.12899780 0.0591509864 2.3953311443 0.3857598007 121.94653320
 2964.3002000 115.36260986 0.0569855273 2.3983931541 0.3740302026 118.55223083
 2964.4002000 114.42494965 0.0582940429 2.4049742222 0.3755782247 112.50585175
 2964.5002000 113.90429688 0.0625332594 2.4092891216 0.3827803433 107.71517944
 2964.6002000 113.90791321 0.0630445033 2.4035630226 0.3930511475 106.72991180
 2964.7002000 113.17121124 0.0488178171 2.3898930550 0.4094098508 105.52603149
 2964.8002000 112.41319275 0.0437660702 2.3963603973 0.4225017428 105.25936890
 2964.9002000 111.71286774 0.0601985119 2.4344494343 0.4232578576 106.36827087
 2965.0002000 109.69274902 0.0641143695 2.4529795647 0.4190416932 106.47886658
 2965.1002000 107.80333710 0.0766343549 2.4707596302 0.4076103568 106.55823517
 2965.2002000 107.78565216 0.1041044518 2.4888496399 0.3934195936 107.83734131
 2965.3002000 109.01117706 0.1063066274 2.4685783386 0.3915465176 110.15394592
 2965.4002000 110.33921814 0.0942742229 2.4387793541 0.4010723233 113.16649628
 2965.5002000 110.84634399 0.0784096345 2.4251768589 0.4150291085 115.66921997
