# LAS format log file from PETREL
# Project units are specified as depth units
#==================================================================
~Version information
VERS.   2.0:
WRAP.   NO:
#==================================================================
~Well
STRT .m      48.400200000 :
STOP .m      3533.9002000 :
STEP .m     0.10000000 :
NULL .        -999.250000 :
COMP.           : COMPANY
WELL.  F06-01   : WELL
FLD.            : FIELD
LOC.            : LOCATION
SRVC.           : SERVICE COMPANY
DATE.  2023-08-04 09:51:51   : Log Export Date {yyyy-MM-dd HH:mm:ss}
PROV.           : PROVINCE
UWI.   7044   : UNIQUE WELL ID
API.            : API NUMBER
#==================================================================
~Curve
DEPT .m                   : DEPTH
DT .us/ft                 : DT
DRHO .g/cm3               : DRHO
RHOB .g/cm3               : RHOB
NPHI .m3/m3               : NPHI
GR .gAPI                  : GR
~Parameter
#==================================================================
~Ascii
# ...
 2731.0002000 99.265930176 0.0068649999 2.4528560638 0.2717899978 100.44006348
 2731.1002000 100.17971039 0.0022280000 2.4443349838 0.2689679861 98.933044434
 2731.2002000 100.22982025 -0.000360000 2.4377338886 0.2674689889 98.592254639
 2731.3002000 99.210601807 -0.002078000 2.4313578606 0.2684530020 98.576248169
 2731.4002000 97.428955078 -0.005585000 2.4222009182 0.2737450004 96.266586304
 2731.5002000 95.578178406 -0.008074000 2.4154889584 0.2804760039 94.262878418
 2731.6002000 93.930198669 -0.010457000 2.4127838612 0.2868109941 92.324386597
 2731.7002000 92.887359619 -0.014745000 2.4149069786 0.2899299860 88.967193604
 2731.8002000 92.168045044 -0.013334000 2.4264149666 0.2955240011 85.796829224
 2731.9002000 92.105270386 -0.004278000 2.4481399059 0.2984820008 83.971755981
 2732.0002000 93.208770752 0.0066970000 2.4690148830 0.2854839861 84.471557617
 2732.1002000 94.694458008 0.0225750003 2.4864408970 0.2769789994 85.906738281
 2732.2002000 96.185203552 0.0372090004 2.4913239479 0.2795209885 88.510513306
 2732.3002000 97.410049438 0.0337260030 2.4758739471 0.2807430029 92.980651855
 2732.4002000 98.029525757 0.0264129993 2.4569649696 0.2860650122 96.953079224
 2732.5002000 97.809280396 0.0214239992 2.4437770844 0.2942770123 98.571197510
 2732.6002000 97.522758484 0.0152310003 2.4341289997 0.2922919989 98.438949585
 2732.7002000 97.582557678 0.0123490002 2.4329168797 0.2861379981 97.400405884
 2732.8002000 98.181274414 0.0142130004 2.4406049252 0.2805820107 96.220184326
 2732.9002000 98.697853088 0.0132060004 2.4432151318 0.2780709863 95.836990356
 2733.0002000 99.522407532 0.0142430002 2.4522590637 0.2797400057 97.589187622
 2733.1002000 100.70674133 0.0211740006 2.4726960659 0.2852500081 101.05317688
 2733.2002000 101.34974670 0.0293339994 2.4862520695 0.2891800106 101.63281250
 2733.3002000 101.07469940 0.0346969999 2.4916899204 0.2917479873 101.07969666
 2733.4002000 99.756088257 0.0321229994 2.4863200188 0.2930200100 100.21388245
 2733.5002000 98.378234863 0.0231529996 2.4717857838 0.2931529880 97.023056030
 2733.6002000 96.894058228 0.0110679995 2.4540500641 0.2923550010 94.335357666
 2733.7002000 95.336517334 0.0013450000 2.4414241314 0.2896569967 93.966812134
 2733.8002000 93.969070435 -0.004204000 2.4343299866 0.2831479907 92.384597778
 2733.9002000 92.865585327 -0.006019000 2.4335219860 0.2731379867 90.277725220
 2734.0002000 91.802871704 -0.006292000 2.4381759167 0.2615030110 88.326477051
 2734.1002000 90.424171448 -0.006344000 2.4469139576 0.2506299913 85.903411865
 2734.2002000 89.944992065 -0.004908000 2.4557900429 0.2390780002 84.481811523
 2734.3002000 91.070205688 0.0016190000 2.4630658627 0.2282039970 85.990234375
 2734.4002000 92.547149658 0.0169680007 2.4737739563 0.2246299982 90.804122925
 2734.5002000 94.908477783 0.0460470021 2.4913220406 0.2339400053 97.731903076
 2734.6002000 98.168930054 0.0845919997 2.5126168728 0.2576059997 103.99630737
 2734.7002000 101.01666260 0.1220339984 2.5298199654 0.2958289981 108.05308533
 2734.8002000 102.79283142 0.1376779974 2.5328350067 0.3343180120 109.62794495
 2734.9002000 103.60866547 0.1239039972 2.5187690258 0.3566380143 109.86317444
 2735.0002000 104.01546478 0.0949410051 2.4920740128 0.3617030084 110.10961914
 2735.1002000 104.03002930 0.0622599982 2.4683458805 0.3546220064 111.36785889
 2735.2002000 103.76094055 0.0356380008 2.4581961632 0.3457190096 113.15435791
 2735.3002000 103.69752502 0.0223929994 2.4554169178 0.3424969912 113.21649170
 2735.4002000 103.73542786 0.0203309990 2.4583368301 0.3423939943 112.08032227
 2735.5002000 103.61099243 0.0222219992 2.4664208889 0.3402450085 111.36380005
 2735.6002000 103.46644592 0.0277249999 2.4778368473 0.3363009989 111.05180359
 2735.7002000 103.12487793 0.0337079987 2.4873611927 0.3307079971 110.96940613
 2735.8002000 102.29969025 0.0367610008 2.4918868542 0.3235850036 110.62019348
 2735.9002000 100.47103882 0.0358959995 2.4918220043 0.3164680004 107.39170837
 2736.0002000 98.524665833 0.0307800006 2.4868459702 0.3115870059 102.29281616
 2736.1002000 97.303741455 0.0219599996 2.4768600464 0.3095799983 97.678421021
 2736.2002000 95.688232422 0.0089770006 2.4595811367 0.3100430071 93.785385132
 2736.3002000 93.987457275 -0.002444000 2.4428589344 0.3107140064 91.204452515
 2736.4002000 93.130935669 -0.007517000 2.4341621399 0.3098460138 90.323974609
 2736.5002000 93.105056763 -0.007404000 2.4311439991 0.3073720038 89.838333130
 2736.6002000 93.234344482 -0.003730000 2.4333360195 0.3008739948 89.359237671
 2736.7002000 93.020507813 0.0029539999 2.4422380924 0.2882550061 89.364059448
 2736.8002000 92.798599243 0.0065380000 2.4492428303 0.2791830003 89.183624268
 2736.9002000 92.480163574 0.0057620001 2.4500977993 0.2774339914 88.307373047
 2737.0002000 91.647277832 0.0035389997 2.4467380047 0.2798660100 86.784957886
 2737.1002000 91.775405884 0.0004920000 2.4414350986 0.2799049914 87.366775513
 2737.2002000 93.022155762 -0.003405000 2.4352028370 0.2771190107 90.176239014
 2737.3002000 94.305175781 -0.007947000 2.4279379845 0.2753939927 93.251571655
 2737.4002000 96.537567139 -0.012811000 2.4213778973 0.2810010016 97.547378540
 2737.5002000 99.663787842 -0.016638000 2.4168748856 0.2973119915 102.60427856
 2737.6002000 102.15880585 -0.017486000 2.4147250652 0.3246839941 105.85246277
 2737.7002000 103.49357605 -0.019699000 2.4082460403 0.3418799937 107.26092529
 2737.8002000 104.21030426 -0.024813997 2.3963990211 0.3388609886 107.37759399
 2737.9002000 105.02885437 -0.028386999 2.3866519928 0.3265329897 105.40663147
 2738.0002000 106.05643463 -0.030580999 2.3792939186 0.3078080118 102.48466492
 2738.1002000 106.94268799 -0.031391002 2.3737461567 0.2917169929 100.63874817
 2738.2002000 107.15316772 -0.026091000 2.3749952316 0.3014599979 101.21836853
 2738.3002000 107.44872284 -0.017902000 2.3805580139 0.3296400011 103.19647217
 2738.4002000 108.53388214 -0.011271000 2.3871078491 0.3556469977 105.06045532
 2738.5002000 109.84481812 -0.001956000 2.4014980793 0.3780469894 107.49334717
 2738.6002000 110.64714050 0.0117279999 2.4261250496 0.3884199858 110.66737366
 2738.7002000 110.71691132 0.0258990005 2.4523210526 0.3835909963 113.72691345
 2738.8002000 110.53901672 0.0344000012 2.4650530815 0.3794620037 115.62544250
 2738.9002000 110.18722534 0.0320210010 2.4591808319 0.3781839907 115.31446838
 2739.0002000 109.53782654 0.0210359991 2.4455320835 0.3710379899 113.10249329
 2739.1002000 108.88900757 0.0083059995 2.4297549725 0.3611899912 110.27388000
 2739.2002000 108.62854004 0.0007780000 2.4181830883 0.3495520055 108.43081665
 2739.3002000 108.85783386 0.0012930000 2.4150810242 0.3349930048 108.37998962
 2739.4002000 109.23045349 0.0152089996 2.4246129990 0.3247300088 109.58007813
 2739.5002000 109.78999329 0.0394390002 2.4432818890 0.3241620064 110.89378357
 2739.6002000 110.99267578 0.0582379997 2.4568190575 0.3283410072 111.26670837
 2739.7002000 111.76965332 0.0760790035 2.4698750973 0.3420020044 111.05027771
 2739.8002000 111.28887939 0.0863969997 2.4759480953 0.3665150106 110.89155579
 2739.9002000 110.74265289 0.0701910034 2.4553799629 0.3912639916 111.15861511
 2740.0002000 110.92163086 0.0486399978 2.4298379421 0.4083530009 112.06101990
 2740.1002000 112.06385803 0.0453440025 2.4229450226 0.4077900052 113.40463257
 2740.2002000 112.00901031 0.0382630005 2.4111731052 0.3963089883 113.99406433
 2740.3002000 111.62318420 0.0365209989 2.4051420689 0.3783060014 113.55419922
 2740.4002000 112.10041809 0.0479959995 2.4140691757 0.3644640148 112.12638855
 2740.5002000 112.23062134 0.0530800000 2.4150791168 0.3579320014 110.60461426
 2740.6002000 111.76847076 0.0547799990 2.4137151241 0.3582060039 109.60882568
 2740.7002000 110.95705414 0.0586469993 2.4185309410 0.3603439927 109.88360596
 2740.8002000 110.93748474 0.0520810001 2.4109528065 0.3629789948 110.76388550
 2740.9002000 111.84918213 0.0397330001 2.3977739811 0.3658140004 110.95025635
 2741.0002000 112.82485962 0.0380290002 2.4011411667 0.3703770041 108.98403931
 2741.1002000 112.74961853 0.0421689972 2.4128680229 0.3818069994 108.52677917
