# LAS format log file from PETREL
# Project units are specified as depth units
#==================================================================
~Version information
VERS.   2.0:
WRAP.   NO:
#==================================================================
~Well
STRT .m      48.400200000 :
STOP .m      3533.9002000 :
STEP .m     0.10000000 :
NULL .        -999.250000 :
COMP.           : COMPANY
WELL.  F06-01   : WELL
FLD.            : FIELD
LOC.            : LOCATION
SRVC.           : SERVICE COMPANY
DATE.  2023-08-04 09:51:51   : Log Export Date {yyyy-MM-dd HH:mm:ss}
PROV.           : PROVINCE
UWI.   7044   : UNIQUE WELL ID
API.            : API NUMBER
#==================================================================
~Curve
DEPT .m                   : DEPTH
DT .us/ft                 : DT
DRHO .g/cm3               : DRHO
RHOB .g/cm3               : RHOB
NPHI .m3/m3               : NPHI
GR .gAPI                  : GR
~Parameter
#==================================================================
~Ascii
# ...
 1833.4002000 127.04870605  -999.250000  -999.250000  -999.250000 66.380577087
 1833.5002000 127.62401581  -999.250000  -999.250000  -999.250000 66.812553406
 1833.6002000 124.93725586  -999.250000  -999.250000  -999.250000 68.046646118
 1833.7002000 124.54188538  -999.250000  -999.250000  -999.250000 68.390495300
 1833.8002000 125.36995697  -999.250000  -999.250000  -999.250000 69.202613831
 1833.9002000 126.09286499  -999.250000  -999.250000  -999.250000 69.938705444
 1834.0002000 125.40257263  -999.250000  -999.250000  -999.250000 68.695686340
 1834.1002000 125.38958740  -999.250000  -999.250000  -999.250000 67.555335999
 1834.2002000 127.08493805  -999.250000  -999.250000  -999.250000 67.276504517
 1834.3002000 128.75894165  -999.250000  -999.250000  -999.250000 66.437652588
 1834.4002000 129.01612854  -999.250000  -999.250000  -999.250000 66.074035645
 1834.5002000 126.88999939  -999.250000  -999.250000  -999.250000 66.487960815
 1834.6002000 124.37178040  -999.250000  -999.250000  -999.250000 65.963157654
 1834.7002000 122.27787018  -999.250000  -999.250000  -999.250000 65.363365173
 1834.8002000 121.78584290  -999.250000  -999.250000  -999.250000 65.163619995
 1834.9002000 122.94020081  -999.250000  -999.250000  -999.250000 64.015495300
 1835.0002000 124.86580658  -999.250000  -999.250000  -999.250000 62.194282532
 1835.1002000 126.24794769  -999.250000  -999.250000  -999.250000 60.210548401
 1835.2002000 126.86585236  -999.250000  -999.250000  -999.250000 58.893100739
 1835.3002000 126.67243958  -999.250000  -999.250000  -999.250000 58.512760162
 1835.4002000 125.34521484  -999.250000  -999.250000  -999.250000 59.358200073
 1835.5002000 122.77527618  -999.250000  -999.250000  -999.250000 60.212310791
 1835.6002000 120.75865173  -999.250000  -999.250000  -999.250000 61.013320923
 1835.7002000 122.42409515  -999.250000  -999.250000  -999.250000 61.467632294
 1835.8002000 124.47941589  -999.250000  -999.250000  -999.250000 61.026496887
 1835.9002000 126.45947266  -999.250000  -999.250000  -999.250000 60.489246368
 1836.0002000 127.73941803  -999.250000  -999.250000  -999.250000 61.443775177
 1836.1002000 128.99807739  -999.250000  -999.250000  -999.250000 61.246986389
 1836.2002000 129.66320801  -999.250000  -999.250000  -999.250000 60.430480957
 1836.3002000 128.25074768  -999.250000  -999.250000  -999.250000 61.572700500
 1836.4002000 125.42157745 -0.019211575 1.7951761484 0.4784012139 63.448692322
 1836.5002000 123.11460876 -0.016604604 1.8350522518 0.4874759018 65.633560181
 1836.6002000 125.01695251 -0.011693913 1.8591448069 0.4940724075 67.057548523
 1836.7002000 125.58112335 -0.009366325 1.8715295792 0.4966714084 67.283683777
 1836.8002000 123.78417969 -0.008746618 1.8781284094 0.4942833781 66.166358948
 1836.9002000 123.01999664 -0.005258491 1.8916115761 0.4896066785 64.897323608
 1837.0002000 122.08051300 -0.002506751 1.8950375319 0.4873722494 63.811244965
 1837.1002000 121.40082550 -0.003000503 1.8700159788 0.4853180647 63.442810059
 1837.2002000 122.78691101 -0.008069926 1.8111358881 0.4770802557 63.986446381
 1837.3002000 124.16712189 -0.017671393 1.7512629032 0.4748382270 64.703567505
 1837.4002000 124.11595154 -0.028639030 1.7165406942 0.4821796417 65.215095520
 1837.5002000 123.15731812 -0.033098549 1.7181723118 0.4898203611 65.743049622
 1837.6002000 121.70067596 -0.032731373 1.7551131248 0.4993594587 66.082183838
 1837.7002000 120.54496765 -0.028515222 1.8229671717 0.5032041669 66.168601990
 1837.8002000 120.47318268 -0.023672840 1.8916074038 0.4896575511 66.344581604
 1837.9002000 120.74271393 -0.017602073 1.9575021267 0.4694262445 66.328369141
 1838.0002000 121.31198120 -0.010123480 2.0160512924 0.4522281885 65.934906006
 1838.1002000 123.10051727 -0.002433690 2.0644817352 0.4419073164 65.420555115
 1838.2002000 122.72261047 0.0056559099 2.0948107243 0.4388910234 64.173828125
 1838.3002000 118.86518860 0.0144112436 2.1007449627 0.4448480308 62.753524780
 1838.4002000 115.95937347 0.0229694415 2.0899686813 0.4587610960 63.139373779
 1838.5002000 114.04375458 0.0213196613 2.0571429729 0.4790726602 62.966110229
 1838.6002000 113.83415985 0.0085567739 2.0137584209 0.4938042760 60.949314117
 1838.7002000 116.88727570 -0.001384062 1.9862455130 0.4889459014 59.632350922
 1838.8002000 123.03742218 -0.012034349 1.9911710024 0.4719579816 58.426155090
 1838.9002000 129.22567749 -0.018834203 2.0389103889 0.4453366399 57.504333496
 1839.0002000 131.66812134 -0.008781070 2.1218650341 0.4014539123 58.845474243
 1839.1002000 128.76322937 0.0053488659 2.1738588810 0.3647127450 61.346145630
 1839.2002000 121.42590332 0.0109623959 2.1562275887 0.3541615307 63.851413727
 1839.3002000 111.19747162 0.0109660011 2.1011490822 0.3624407053 67.404891968
 1839.4002000 101.68643951 0.0035034700 2.0446186066 0.3824769557 69.290458679
 1839.5002000 96.739250183 -0.006023471 2.0199995041 0.4058326483 68.819656372
 1839.6002000 98.512016296 -0.006541491 2.0397841930 0.4297181368 69.860191345
 1839.7002000 104.30828857 0.0008246260 2.0870759487 0.4368568659 72.657371521
 1839.8002000 110.55915833 0.0105472757 2.1276144981 0.4260777831 75.321388245
 1839.9002000 118.12586975 0.0217727739 2.1376020908 0.4166374505 76.718208313
 1840.0002000 122.79085541 0.0209847987 2.0880146027 0.4099516869 77.025955200
 1840.1002000 122.16360474 0.0068551432 1.9941499233 0.4018411040 77.013366699
 1840.2002000 119.63305664 -0.004531616 1.9007983208 0.3933824599 77.081520081
 1840.3002000 118.05161285 -0.009025511 1.8279187679 0.3894399405 77.557830811
 1840.4002000 118.47049713 -0.010812216 1.7725133896 0.3915688396 78.406379700
 1840.5002000 123.02690125 -0.012179634 1.7333730459 0.3983332217 79.005172729
 1840.6002000 130.07455444 -0.014252926 1.7073289156 0.4071252048 78.533737183
 1840.7002000 137.06405640 -0.017789463 1.6868726015 0.4159551859 76.906974792
 1840.8002000 143.98011780 -0.024416370 1.6674864292 0.4235394299 74.830444336
 1840.9002000 151.38453674 -0.033550862 1.6550205946 0.4298876524 73.593566895
 1841.0002000 159.14312744 -0.042261291 1.6556862593 0.4366272688 73.810462952
 1841.1002000 162.76704407 -0.041535735 1.6830525398 0.4488008022 75.889869690
 1841.2002000 161.05464172 -0.032004543 1.7389410734 0.4619278610 78.857063293
 1841.3002000 156.05398560 -0.019504501 1.8128800392 0.4710588753 81.462348938
 1841.4002000 150.51274109 -0.003589918 1.8889399767 0.4878112376 81.357040405
 1841.5002000 144.56918335 0.0087117022 1.9507831335 0.5018949509 79.814605713
 1841.6002000 137.03091431 0.0104053169 1.9917869568 0.4977511764 79.544944763
 1841.7002000 129.63414001 0.0101462603 2.0220937729 0.4965392351 79.167884827
 1841.8002000 124.62178802 0.0127833597 2.0442817211 0.4926169217 78.469955444
 1841.9002000 123.03092957 0.0159708112 2.0534508228 0.4634172320 78.978797913
 1842.0002000 122.73352814 0.0186363347 2.0318186283 0.4535678327 77.958618164
 1842.1002000 123.14256287 0.0166439973 1.9792945385 0.4672832489 75.258911133
 1842.2002000 126.21954346 0.0054781749 1.9092481136 0.4672560394 73.916915894
 1842.3002000 132.05285645 -0.006053468 1.8622640371 0.4678683877 73.743309021
 1842.4002000 137.28742981 -0.015454601 1.8597365618 0.4734484255 73.768424988
 1842.5002000 137.33790588 -0.030944504 1.8886620998 0.4611543119 74.303588867
 1842.6002000 132.41273499 -0.034674283 1.9847269058 0.4366754889 73.852912903
 1842.7002000 124.71993256 -0.016155539 2.1304023266 0.4122613966 71.973274231
 1842.8002000 114.00067902 0.0123494854 2.2413752079 0.3878084719 70.883354187
 1842.9002000 102.08374023 0.0366247296 2.2625381947 0.3744293749 70.783576965
 1843.0002000 93.404357910 0.0453452952 2.2032573223 0.3781093061 71.162948608
 1843.1002000 93.147392273 0.0362451188 2.1209392548 0.3897163868 73.085006714
 1843.2002000 100.79553986 0.0173429102 2.0509557724 0.4046650529 75.724395752
 1843.3002000 110.15586090 0.0036866509 2.0128202438 0.4201205373 77.265655518
 1843.4002000 120.62120056 -0.001783538 2.0013704300 0.4378312826 78.358787537
 1843.5002000 131.59800720 -0.002009779 2.0109875202 0.4570697546 79.781127930
