# LAS format log file from PETREL
# Project units are specified as depth units
#==================================================================
~Version information
VERS.   2.0:
WRAP.   NO:
#==================================================================
~Well
STRT .m      48.400200000 :
STOP .m      3533.9002000 :
STEP .m     0.10000000 :
NULL .        -999.250000 :
COMP.           : COMPANY
WELL.  F06-01   : WELL
FLD.            : FIELD
LOC.            : LOCATION
SRVC.           : SERVICE COMPANY
DATE.  2023-08-04 09:51:51   : Log Export Date {yyyy-MM-dd HH:mm:ss}
PROV.           : PROVINCE
UWI.   7044   : UNIQUE WELL ID
API.            : API NUMBER
#==================================================================
~Curve
DEPT .m                   : DEPTH
DT .us/ft                 : DT
DRHO .g/cm3               : DRHO
RHOB .g/cm3               : RHOB
NPHI .m3/m3               : NPHI
GR .gAPI                  : GR
~Parameter
#==================================================================
~Ascii
# ...
 2394.4002000 126.83177948 -0.008146496 1.9251507521 0.4800221622 86.147842407
 2394.5002000 125.97331238 -0.006262886 1.9444487095 0.4841708839 86.122077942
 2394.6002000 124.98571014 -0.000330936 1.9829105139 0.4712988734 86.503814697
 2394.7002000 123.87061310 0.0105750887 2.0220429897 0.4580592215 87.784240723
 2394.8002000 122.45702362 0.0169915874 2.0557324886 0.4428192377 89.619667053
 2394.9002000 121.37539673 0.0186503455 2.0841925144 0.4343904257 91.198097229
 2395.0002000 121.91466522 0.0171485040 2.1085486412 0.4476456940 91.080505371
 2395.1002000 123.01626587 0.0146315182 2.1249125004 0.4663492739 91.072868347
 2395.2002000 124.16507721 0.0102054290 2.1190278530 0.4794339240 91.470962524
 2395.3002000 124.63603210 0.0032719362 2.0781250000 0.4721143246 92.260185242
 2395.4002000 124.96106720 -0.001888841 2.0398414135 0.4635785222 94.421363831
 2395.5002000 125.19792938 -0.004643248 2.0175461769 0.4538257420 97.481346130
 2395.6002000 125.21932983 -0.006054590 2.0201582909 0.4395542741 99.255035400
 2395.7002000 125.06097412 -0.004642415 2.0476853848 0.4312682748 101.04148865
 2395.8002000 124.97733307 -0.001009635 2.0943951607 0.4238753915 102.93341064
 2395.9002000 125.29710388 0.0026323579 2.1321632862 0.4048010707 103.70810699
 2396.0002000 124.85138702 0.0130016245 2.1648833752 0.3945652246 103.08676147
 2396.1002000 123.55380249 0.0286533423 2.1816883087 0.4015649855 100.29618835
 2396.2002000 122.99328613 0.0379007570 2.1688697338 0.4174191356 95.877174377
 2396.3002000 122.07062531 0.0450368635 2.1450057030 0.4375768304 91.343688965
 2396.4002000 120.70574951 0.0442917533 2.1153178215 0.4566419125 88.533142090
 2396.5002000 120.19640350 0.0282011051 2.0838115215 0.4676339924 88.248695374
 2396.6002000 119.29477692 0.0114447577 2.0739598274 0.4707748592 88.286842346
 2396.7002000 117.48990631 0.0042661685 2.1045143604 0.4651336670 87.600845337
 2396.8002000 115.87487793 0.0058254325 2.1620752811 0.4542658925 87.487968445
 2396.9002000 114.02133942 0.0261076987 2.2414255142 0.4385177791 87.428421021
 2397.0002000 111.69347382 0.0643387511 2.3173840046 0.4243631661 87.064117432
 2397.1002000 109.17660522 0.1023090333 2.3611969948 0.4193739891 86.712753296
 2397.2002000 107.71160126 0.1327026188 2.3682718277 0.4135797918 85.625526428
 2397.3002000 108.27743530 0.1445302069 2.3403868675 0.4062543213 84.133209229
 2397.4002000 110.32023621 0.1344091445 2.2923531532 0.4079063237 83.870880127
 2397.5002000 112.57548523 0.1100024208 2.2394790649 0.4102896154 85.540321350
 2397.6002000 113.90382385 0.0855664387 2.1980113983 0.4168654084 88.290489197
 2397.7002000 114.43685913 0.0698646903 2.1731288433 0.4432216287 90.362159729
 2397.8002000 115.46440887 0.0694254190 2.1679823399 0.4747394621 90.816322327
 2397.9002000 117.16082001 0.0800893232 2.1756784916 0.4924812615 89.884155273
 2398.0002000 117.86364746 0.0912108794 2.1862375736 0.4917947054 88.439445496
 2398.1002000 118.17546844 0.0952190012 2.1859061718 0.4813984036 88.491096497
 2398.2002000 118.96541595 0.0885327011 2.1653144360 0.4720043838 90.087638855
 2398.3002000 119.92840576 0.0715779588 2.1239743233 0.4657472670 90.753608704
 2398.4002000 120.01946259 0.0483062789 2.0689911842 0.4662295282 90.693374634
 2398.5002000 119.19441223 0.0258894153 2.0154435635 0.4730991125 90.528305054
 2398.6002000 118.71450043 0.0097081754 1.9759855270 0.4827313721 89.282920837
 2398.7002000 118.88346863 0.0010016990 1.9584785700 0.4851615727 87.827125549
 2398.8002000 119.25680542 -0.001898106 1.9618346691 0.4782199562 87.224739075
 2398.9002000 119.46408844 0.0011958999 1.9864104986 0.4687854350 87.321601868
 2399.0002000 120.35813141 0.0085786134 2.0177714825 0.4598029852 88.258003235
 2399.1002000 122.28099060 0.0159855932 2.0413713455 0.4530617297 90.129707336
 2399.2002000 124.20718384 0.0183526371 2.0521113873 0.4536943734 93.144950867
 2399.3002000 126.03799438 0.0154608972 2.0544416904 0.4575401545 95.672676086
 2399.4002000 127.78775787 0.0104190437 2.0575890541 0.4582023323 96.391098022
 2399.5002000 127.32395172 0.0056757433 2.0743980408 0.4523838162 95.124328613
 2399.6002000 125.56260681 0.0052664047 2.0996997356 0.4450253546 93.032623291
 2399.7002000 124.54977417 0.0095167449 2.1187858582 0.4411069155 91.241188049
 2399.8002000 124.36909485 0.0118676508 2.1100158691 0.4407992959 90.098037720
 2399.9002000 124.69960785 0.0113045657 2.0790810585 0.4473963976 89.785987854
 2400.0002000 125.47049713 0.0101781273 2.0440258980 0.4614149630 90.223121643
 2400.1002000 127.05355072 0.0060381428 2.0152668953 0.4715378582 89.692810059
 2400.2002000 128.83656311 -0.000100859 1.9996355772 0.4773082435 88.600730896
 2400.3002000 129.99957275 -0.005398703 1.9970436096 0.4847285748 88.499565125
 2400.4002000 130.58670044 -0.010555843 2.0018131733 0.4824013114 90.103950500
 2400.5002000 130.80499268 -0.014642915 2.0108098984 0.4699594676 92.556060791
 2400.6002000 130.69648743 -0.016101545 2.0242376328 0.4566912651 94.773582458
 2400.7002000 130.32656860 -0.014595509 2.0387322903 0.4413663149 96.775039673
 2400.8002000 129.51213074 -0.012454142 2.0575342178 0.4282491207 98.341072083
 2400.9002000 127.86364746 -0.012074378 2.0876986980 0.4245586991 98.921905518
 2401.0002000 124.11750031 0.0017831291 2.1404962540 0.4291963577 98.806190491
 2401.1002000 118.12619781 0.0357839800 2.2186069489 0.4336864948 98.130058289
 2401.2002000 110.85058594 0.0816321447 2.3163583279 0.4302784204 96.222640991
 2401.3002000 104.82083130 0.1261674613 2.3876907825 0.4223289490 93.219665527
 2401.4002000 101.22837067 0.1493508369 2.3925383091 0.4157505929 90.336120605
 2401.5002000 98.928611755 0.1315898150 2.3231124878 0.4118738770 89.142547607
 2401.6002000 97.614852905 0.0934761316 2.2191450596 0.4050827920 89.785987854
 2401.7002000 97.418655396 0.0664310306 2.1364917755 0.3983457386 90.857597351
 2401.8002000 99.205505371 0.0509964228 2.0862352848 0.4099084139 90.859268188
 2401.9002000 103.23963165 0.0451818034 2.0685844421 0.4244344532 89.826248169
 2402.0002000 108.39515686 0.0410521291 2.0636579990 0.4242511988 88.704765320
 2402.1002000 113.43377686 0.0293537062 2.0488138199 0.4368064106 87.087692261
 2402.2002000 118.22717285 0.0126736844 2.0192534924 0.4604783058 86.293167114
 2402.3002000 123.31892395 0.0000566130 1.9855017662 0.4763321579 87.786270142
 2402.4002000 128.15950012 -0.011438506 1.9566698074 0.4903450012 88.467811584
 2402.5002000 132.28530884 -0.020063378 1.9366840124 0.5003979206 87.327819824
 2402.6002000 135.75346375 -0.022853216 1.9194731712 0.4995768368 86.380355835
 2402.7002000 138.31671143 -0.024505349 1.8916927576 0.4866399467 85.140571594
 2402.8002000 139.30393982 -0.024126381 1.8650367260 0.4745920300 83.795928955
 2402.9002000 138.73405457 -0.016779354 1.8768311739 0.4887498021 83.565856934
 2403.0002000 137.41775513 -0.006796985 1.9181556702 0.5087789893 82.958267212
 2403.1002000 135.82258606 0.0039392631 1.9820450544 0.5233914256 81.444725037
 2403.2002000 133.62713623 0.0154574811 2.0416374207 0.5373350382 81.380096436
 2403.3002000 131.92747498 0.0195499156 2.0656359196 0.5366287231 81.252998352
 2403.4002000 131.51145935 0.0102822809 2.0351965427 0.5124891400 80.254173279
 2403.5002000 130.43009949 0.0007065760 2.0132279396 0.4923241436 81.380416870
 2403.6002000 128.62393188 -0.007096199 2.0116593838 0.4798784256 82.929039001
 2403.7002000 126.05403900 -0.009033069 2.0433943272 0.4822935462 82.758399963
 2403.8002000 123.26233673 -0.004387652 2.0804371834 0.4960502386 83.267280579
 2403.9002000 121.10333252 0.0021234872 2.1104958057 0.5087922215 84.549148560
 2404.0002000 120.91805267 0.0028382910 2.1100764275 0.5028339624 86.269515991
 2404.1002000 120.66779327 0.0014893510 2.0907943249 0.4961836338 87.496726990
 2404.2002000 120.79843903 -0.002136372 2.0635442734 0.4830231667 88.121582031
 2404.3002000 122.51618958 -0.007775359 2.0464501381 0.4595824480 88.018066406
 2404.4002000 125.39588928 -0.014523250 2.0124640465 0.4493801892 86.716651917
 2404.5002000 128.41915894 -0.022493029 1.9680165052 0.4522480965 84.432807922
