# LAS format log file from PETREL
# Project units are specified as depth units
#==================================================================
~Version information
VERS.   2.0:
WRAP.   NO:
#==================================================================
~Well
STRT .m      48.400200000 :
STOP .m      3533.9002000 :
STEP .m     0.10000000 :
NULL .        -999.250000 :
COMP.           : COMPANY
WELL.  F06-01   : WELL
FLD.            : FIELD
LOC.            : LOCATION
SRVC.           : SERVICE COMPANY
DATE.  2023-08-04 09:51:51   : Log Export Date {yyyy-MM-dd HH:mm:ss}
PROV.           : PROVINCE
UWI.   7044   : UNIQUE WELL ID
API.            : API NUMBER
#==================================================================
~Curve
DEPT .m                   : DEPTH
DT .us/ft                 : DT
DRHO .g/cm3               : DRHO
RHOB .g/cm3               : RHOB
NPHI .m3/m3               : NPHI
GR .gAPI                  : GR
~Parameter
#==================================================================
~Ascii
# ...
 3179.8002000 110.50074768 -0.011463282 2.1088387966 0.4241313934 84.729080200
 3179.9002000 108.20464325 -0.008079215 2.2117421627 0.4095906317 86.637474060
 3180.0002000 106.75967407 0.0073286681 2.2946853638 0.3981721997 87.232620239
 3180.1002000 106.73050690 0.0210907292 2.3305280209 0.3936624825 86.547218323
 3180.2002000 107.04740143 0.0219295993 2.3269212246 0.3964306116 85.248107910
 3180.3002000 106.05965424 0.0226478465 2.3211596012 0.4042724371 84.656173706
 3180.4002000 104.60192871 0.0230478030 2.3223054409 0.4098323286 86.007904053
 3180.5002000 104.06821442 0.0163621195 2.3212075233 0.4085040390 89.028839111
 3180.6002000 102.64741516 0.0126351537 2.3335030079 0.4049616456 91.245216370
 3180.7002000 99.878616333 0.0150038386 2.3613183498 0.4010387659 90.835739136
 3180.8002000 97.134590149 0.0172841605 2.3905174732 0.3951975405 88.109077454
 3180.9002000 95.571243286 0.0152561236 2.4169554710 0.3881770670 83.703750610
 3181.0002000 94.750473022 0.0105950078 2.4422380924 0.3808858693 80.228858948
 3181.1002000 93.340835571 0.0083078388 2.4692540169 0.3734792471 80.122055054
 3181.2002000 93.093223572 0.0165372174 2.4950127602 0.3660622537 81.946212769
 3181.3002000 94.639518738 0.0382716767 2.5112595558 0.3632982671 81.966247559
 3181.4002000 96.237640381 0.0677375272 2.5129132271 0.3705641329 77.775901794
 3181.5002000 97.344535828 0.0955695137 2.4723558426 0.3863495588 69.915031433
 3181.6002000 98.417091370 0.1032621115 2.3759009838 0.4075593054 61.745746613
 3181.7002000 100.70513153 0.0801207051 2.2445714474 0.4350863695 56.068538666
 3181.8002000 102.92484283 0.0379815921 2.1217544079 0.4460113645 56.623485565
 3181.9002000 103.77237701 0.0009620120 2.0594294071 0.4267261028 63.603034973
 3182.0002000 104.56394958 -0.025401007 2.0507535934 0.4059363902 70.447593689
 3182.1002000 105.46022797 -0.035279509 2.1087951660 0.3851722777 75.597633362
 3182.2002000 105.84980011 -0.030214328 2.2167208195 0.3644431829 79.067817688
 3182.3002000 104.48055267 -0.018223036 2.3335254192 0.3572175503 80.883850098
 3182.4002000 102.12491608 -0.005583923 2.4222021103 0.3612986505 81.941215515
 3182.5002000 100.82611847 0.0009873409 2.4629549980 0.3614107072 83.878471375
 3182.6002000 99.995544434 0.0059032673 2.4907507896 0.3561907113 85.070343018
 3182.7002000 99.488700867 0.0101223495 2.5126276016 0.3477643132 84.265998840
 3182.8002000 99.151382446 0.0124550182 2.5255699158 0.3415137529 81.740089417
 3182.9002000 98.950889587 0.0090722004 2.5218622684 0.3316486180 80.021507263
 3183.0002000 98.891654968 0.0006911880 2.5041542053 0.3191893995 79.580490112
 3183.1002000 98.940299988 -0.004016909 2.4952845573 0.3118031025 78.691390991
 3183.2002000 99.289878845 -0.005129694 2.4910845757 0.3044819534 78.554512024
 3183.3002000 99.924438477 -0.000943606 2.4954757690 0.2996763885 79.776550293
 3183.4002000 100.33529663 0.0090031084 2.5158119202 0.3071265221 81.292991638
 3183.5002000 100.63952637 0.0224396586 2.5387940407 0.3176045418 82.263008118
 3183.6002000 101.04482269 0.0339464955 2.5490813255 0.3266279399 82.682434082
 3183.7002000 101.79954529 0.0338653475 2.5381937027 0.3383099139 84.319786072
 3183.8002000 102.43988800 0.0265609771 2.5181493759 0.3465772271 85.425537109
 3183.9002000 102.48759460 0.0155550512 2.5012416840 0.3456159830 84.963920593
 3184.0002000 102.21968079 0.0055510029 2.4946157932 0.3422979712 85.789031982
 3184.1002000 101.68456268 -0.001911635 2.4988811016 0.3388782442 85.554527283
 3184.2002000 100.84799957 -0.004907054 2.5149905682 0.3380295336 81.450347900
 3184.3002000 99.798858643 -0.006067535 2.5311975479 0.3380110562 76.850227356
 3184.4002000 98.918884277 -0.003902525 2.5450851917 0.3363898993 73.062988281
 3184.5002000 98.756156921 0.0037838910 2.5546622276 0.3289822638 71.860443115
 3184.6002000 98.850967407 0.0120222801 2.5652222633 0.3185214102 71.443153381
 3184.7002000 99.296890259 0.0175584182 2.5689778328 0.3062797487 72.460525513
 3184.8002000 100.06735229 0.0143975606 2.5542852879 0.2987724841 75.278518677
 3184.9002000 100.46762085 0.0086921398 2.5425808430 0.3042743802 76.644508362
 3185.0002000 100.21933746 0.0014736691 2.5370805264 0.3208511770 77.620796204
 3185.1002000 99.228942871 -0.003596808 2.5421395302 0.3366177082 80.289604187
 3185.2002000 98.686241150 -0.005102515 2.5536284447 0.3449102044 81.736816406
 3185.3002000 98.563827515 -0.003599536 2.5684366226 0.3446608484 81.874855042
 3185.4002000 98.482154846 -0.002256029 2.5754652023 0.3400827646 81.445220947
 3185.5002000 98.889366150 -0.000966867 2.5717241764 0.3374947608 79.687644958
 3185.6002000 99.833259583 -0.000096607 2.5562415123 0.3392197788 77.585090637
 3185.7002000 100.75124359 -0.000328295 2.5374295712 0.3452468812 77.719215393
 3185.8002000 101.23479462 -0.001312042 2.5211927891 0.3527484834 77.799400330
 3185.9002000 100.92540741 -0.002932134 2.5147202015 0.3585974872 77.865890503
 3186.0002000 99.845069885 -0.004609966 2.5228853226 0.3585232794 78.854980469
 3186.1002000 98.102058411 -0.006046692 2.5416059494 0.3533027172 78.446304321
 3186.2002000 96.337432861 -0.004622299 2.5700516701 0.3409062624 77.018531799
 3186.3002000 95.716362000 0.0025215170 2.6005036831 0.3224813342 77.786506653
 3186.4002000 95.349990845 0.0111441184 2.6207034588 0.3046106100 78.979598999
 3186.5002000 95.166366577 0.0162547007 2.6189992428 0.2936627865 79.653938293
 3186.6002000 95.710800171 0.0142700179 2.6003689766 0.2914375961 79.856941223
 3186.7002000 96.940795898 0.0072221891 2.5748565197 0.2977938652 79.349365234
 3186.8002000 98.205101013 -0.000451972 2.5553157330 0.3109424710 77.798179626
 3186.9002000 98.333358765 -0.002664412 2.5513339043 0.3236538768 75.556350708
 3187.0002000 97.322761536 -0.000045899 2.5630686283 0.3307368159 73.831886292
 3187.1002000 95.486099243 0.0083427820 2.5900130272 0.3277241290 73.008232117
 3187.2002000 93.658721924 0.0223379638 2.6250097752 0.3177719116 72.101112366
 3187.3002000 92.675971985 0.0381256230 2.6629981995 0.3050830960 74.068809509
 3187.4002000 92.442573547 0.0469665378 2.6895284653 0.2941158712 79.296287537
 3187.5002000 91.701683044 0.0426500700 2.6918520927 0.2860571444 83.735954285
 3187.6002000 91.322761536 0.0288664363 2.6696200371 0.2839093804 87.930778503
 3187.7002000 92.145713806 0.0133316200 2.6317286491 0.2857873440 91.007278442
 3187.8002000 93.878494263 0.0010119301 2.5902314186 0.2852915227 90.468963623
 3187.9002000 95.089042664 -0.002521479 2.5619916916 0.2865811288 90.056198120
 3188.0002000 95.197998047 0.0001389630 2.5521154404 0.2901144028 91.565597534
 3188.1002000 95.200904846 -0.000334551 2.5491690636 0.2897271812 91.869003296
 3188.2002000 95.140380859 -0.001366898 2.5567641258 0.2907798290 92.297828674
 3188.3002000 94.977157593 -0.000658142 2.5686972141 0.2962256074 93.264793396
 3188.4002000 94.888557434 -0.001042836 2.5688674450 0.3016457260 92.518791199
 3188.5002000 94.651908875 -0.001747882 2.5570626259 0.3081724346 91.988067627
 3188.6002000 94.165046692 -0.002224572 2.5419025421 0.3163514435 92.702468872
 3188.7002000 93.599533081 -0.004196072 2.5288002491 0.3241546154 92.575080872
 3188.8002000 93.327568054 -0.005205979 2.5283174515 0.3262128830 91.051200867
 3188.9002000 93.263763428 -0.004705515 2.5390965939 0.3209638298 88.897293091
 3189.0002000 92.771102905 -0.006587333 2.5474917889 0.3103100061 86.655487061
 3189.1002000 92.361145020 -0.007961880 2.5511043072 0.2999790013 85.689956665
 3189.2002000 92.502441406 -0.006210283 2.5513312817 0.2926509678 86.863067627
 3189.3002000 92.929244995 -0.003402433 2.5422244072 0.2856928706 90.903167725
 3189.4002000 93.871719360 0.0025042521 2.5352060795 0.2843230665 97.356414795
 3189.5002000 95.395538330 0.0119974874 2.5371880531 0.2902989984 104.89788055
 3189.6002000 96.939392090 0.0195234399 2.5346775055 0.2959650159 112.07413483
 3189.7002000 98.318222046 0.0177912805 2.5225856304 0.3038822114 117.13968658
 3189.8002000 99.583488464 0.0076614651 2.5064146519 0.3174273074 119.70938110
 3189.9002000 100.15738678 0.0017616610 2.4962394238 0.3288736641 119.42656708
