# LAS format log file from PETREL
# Project units are specified as depth units
#==================================================================
~Version information
VERS.   2.0:
WRAP.   NO:
#==================================================================
~Well
STRT .m      48.400200000 :
STOP .m      3533.9002000 :
STEP .m     0.10000000 :
NULL .        -999.250000 :
COMP.           : COMPANY
WELL.  F06-01   : WELL
FLD.            : FIELD
LOC.            : LOCATION
SRVC.           : SERVICE COMPANY
DATE.  2023-08-04 09:51:51   : Log Export Date {yyyy-MM-dd HH:mm:ss}
PROV.           : PROVINCE
UWI.   7044   : UNIQUE WELL ID
API.            : API NUMBER
#==================================================================
~Curve
DEPT .m                   : DEPTH
DT .us/ft                 : DT
DRHO .g/cm3               : DRHO
RHOB .g/cm3               : RHOB
NPHI .m3/m3               : NPHI
GR .gAPI                  : GR
~Parameter
#==================================================================
~Ascii
# ...
 2282.2002000 130.37797546 -0.004087752 2.0426211357 0.4135947526 83.288574219
 2282.3002000 132.84068298 -0.003019128 2.0218656063 0.4020619988 83.219352722
 2282.4002000 134.17668152 -0.002191654 1.9833980799 0.4078243971 84.389060974
 2282.5002000 133.18363953 0.0012331400 1.9508011341 0.4172940552 85.326477051
 2282.6002000 132.48083496 -0.001370768 1.9315174818 0.4301652610 86.582542419
 2282.7002000 133.41313171 -0.007352024 1.9381058216 0.4501639903 87.206428528
 2282.8002000 135.18206787 -0.008574572 1.9732625484 0.4771400392 85.774368286
 2282.9002000 134.66680908 -0.004052068 2.0105292797 0.4966380596 84.798171997
 2283.0002000 131.73173523 0.0012833262 2.0271618366 0.5057228804 85.227775574
 2283.1002000 128.42202759 0.0031273260 2.0203459263 0.5114145875 85.902442932
 2283.2002000 126.42261505 0.0020561537 2.0065536499 0.4998931289 86.330429077
 2283.3002000 124.71743011 -0.000154574 2.0024182796 0.4741026461 86.546386719
 2283.4002000 121.20784760 -0.002821664 2.0134508610 0.4480550885 86.647819519
 2283.5002000 117.35979462 0.0003506320 2.0511434078 0.4282575846 85.457221985
 2283.6002000 115.02980042 0.0125276092 2.1053533554 0.4120543897 83.311134338
 2283.7002000 115.00180054 0.0330928341 2.1569347382 0.3955699503 81.742149353
 2283.8002000 115.64823151 0.0497556888 2.1827666759 0.3874961138 80.990592957
 2283.9002000 116.15194702 0.0561542436 2.1831233501 0.3907704055 81.046989441
 2284.0002000 117.49123383 0.0534823798 2.1699364185 0.4019765556 82.594116211
 2284.1002000 119.92386627 0.0454331189 2.1596016884 0.4140089154 84.803878784
 2284.2002000 123.04637909 0.0366825052 2.1502547264 0.4250868559 86.769065857
 2284.3002000 126.70514679 0.0305582378 2.1229887009 0.4397227168 88.601791382
 2284.4002000 129.37994385 0.0210180953 2.0730798244 0.4469825029 89.291244507
 2284.5002000 130.02420044 0.0070968596 2.0155301094 0.4434920251 88.570907593
 2284.6002000 128.62692261 -0.002833156 1.9711747169 0.4412574768 87.845031738
 2284.7002000 125.99208832 -0.005924844 1.9636448622 0.4415304363 87.416564941
 2284.8002000 123.28821564 -0.001813252 1.9944732189 0.4427166283 87.069313049
 2284.9002000 121.55538940 0.0165991168 2.0530126095 0.4512379169 87.545417786
 2285.0002000 121.21721649 0.0363275371 2.1030631065 0.4580194354 87.639328003
 2285.1002000 121.83167267 0.0411065035 2.1161370277 0.4516428113 86.055084229
 2285.2002000 123.01533508 0.0309184361 2.0931699276 0.4316590130 84.162796021
 2285.3002000 124.46723175 0.0123042623 2.0459854603 0.4154903293 83.014999390
 2285.4002000 125.81795502 -0.005348698 1.9966406822 0.4188441932 82.583290100
 2285.5002000 125.82293701 -0.014982766 1.9710830450 0.4362680912 83.542892456
 2285.6002000 123.83122253 -0.012773465 1.9782235622 0.4584835768 84.994895935
 2285.7002000 120.60699463 -0.000463660 2.0054645538 0.4760369360 85.131477356
 2285.8002000 117.48883820 0.0291427169 2.0655937195 0.4697356820 85.108047485
 2285.9002000 116.13135529 0.0695960522 2.1424012184 0.4404446781 85.934623718
 2286.0002000 116.81200409 0.1013635024 2.1946525574 0.4141695499 87.056808472
 2286.1002000 118.37492371 0.1071385592 2.1960036755 0.3968705833 88.082664490
 2286.2002000 120.08798981 0.0845812261 2.1462538242 0.3935196400 88.612525940
 2286.3002000 123.05883026 0.0599183328 2.0907969475 0.4022634625 88.724464417
 2286.4002000 125.51953888 0.0381245762 2.0401473045 0.4155813456 88.588623047
 2286.5002000 125.01918793 0.0243435279 2.0092616081 0.4241259098 88.342185974
 2286.6002000 122.23392487 0.0178838894 2.0010123253 0.4286859035 87.754089355
 2286.7002000 116.81131744 0.0151694138 2.0010430813 0.4365941882 87.405067444
 2286.8002000 110.22268677 0.0103975516 1.9889951944 0.4535660148 87.639236450
 2286.9002000 105.93390656 0.0039818380 1.9723823071 0.4679971635 86.913246155
 2287.0002000 104.45574951 -0.001666706 1.9677313566 0.4829221368 86.406196594
 2287.1002000 103.89194489 -0.001753848 1.9977109432 0.4988042414 87.871376038
 2287.2002000 102.26139832 0.0052010622 2.0502371788 0.4995954931 88.691719055
 2287.3002000 101.46848297 0.0175931938 2.1181981564 0.4817996621 89.336479187
 2287.4002000 104.90930176 0.0273085795 2.1740295887 0.4513359666 91.441429138
 2287.5002000 108.66437531 0.0277771000 2.1892857552 0.4152611792 92.835609436
 2287.6002000 112.32569122 0.0200574715 2.1614236832 0.3820015192 93.655693054
 2287.7002000 117.85540009 0.0145759536 2.1213591099 0.3649899364 95.723030090
 2287.8002000 124.56498718 0.0113773886 2.0672912598 0.3563632369 96.102836609
 2287.9002000 132.13957214 0.0083789956 1.9912601709 0.3567062914 94.052177429
 2288.0002000 139.56401062 -0.000151916 1.8927900791 0.3657568395 92.345039368
 2288.1002000 146.45442200 -0.012724838 1.7941462994 0.3791312277 89.139045715
 2288.2002000 151.13615417 -0.027395649 1.7113485336 0.3994164169 84.415550232
 2288.3002000 151.20898438 -0.037926957 1.6561931372 0.4283840358 82.630874634
 2288.4002000 148.12933350 -0.043961946 1.6339992285 0.4445217848 82.841217041
 2288.5002000 142.78364563 -0.043249454 1.6618381739 0.4436637759 84.605064392
 2288.6002000 137.60377502 -0.036419682 1.7307929993 0.4633804858 86.728736877
 2288.7002000 132.26446533 -0.026925001 1.8204486370 0.4838919640 88.072891235
 2288.8002000 128.23908997 -0.017429989 1.9109659195 0.4966594875 87.540504456
 2288.9002000 130.98666382 -0.010769310 1.9634412527 0.5194673538 87.014328003
 2289.0002000 135.41813660 -0.006126278 1.9743074179 0.5257764459 86.585449219
 2289.1002000 135.16958618 -0.003661920 1.9383859634 0.4935296476 86.577301025
 2289.2002000 134.61932373 -0.004235840 1.9032472372 0.4686627090 87.380043030
 2289.3002000 133.37626648 -0.004890690 1.8774805069 0.4453695714 88.279846191
 2289.4002000 130.83303833 -0.003380030 1.8706586361 0.4211454690 88.317436218
 2289.5002000 128.21919250 -0.005541662 1.8669654131 0.4147167802 88.699951172
 2289.6002000 127.00041962 -0.010500073 1.8579540253 0.4224454761 88.270179749
 2289.7002000 129.40075684 -0.017389214 1.8324241638 0.4364669323 85.568809509
 2289.8002000 131.88191223 -0.027749266 1.8054280281 0.4468941689 83.951049805
 2289.9002000 133.99081421 -0.040512461 1.7784658670 0.4545237422 83.167778015
 2290.0002000 134.99707031 -0.051992044 1.7597643137 0.4604671001 82.468879700
 2290.1002000 134.67121887 -0.061561868 1.7564505339 0.4649210870 83.274673462
 2290.2002000 133.19308472 -0.067762613 1.7665117979 0.4719459414 84.309059143
 2290.3002000 131.75175476 -0.068970598 1.7802984715 0.4885866940 82.585090637
 2290.4002000 130.36608887 -0.067739472 1.7969566584 0.5126937628 80.234153748
 2290.5002000 129.55975342 -0.063518457 1.8174259663 0.5372000337 78.207466125
 2290.6002000 129.73748779 -0.056430191 1.8427343369 0.5511571169 77.348167419
 2290.7002000 129.78907776 -0.047756352 1.8714625835 0.5625681877 77.454498291
 2290.8002000 129.01679993 -0.034942646 1.9031524658 0.5661648512 77.638900757
 2290.9002000 127.18675232 -0.017023861 1.9305711985 0.5556241870 76.549407959
 2291.0002000 124.44268799 -0.002890252 1.9328645468 0.5375661254 76.169303894
 2291.1002000 122.02297974 0.0005262100 1.8919240236 0.5139891505 76.931396484
 2291.2002000 121.97058105 -0.007329244 1.8164321184 0.4900878072 77.656799316
 2291.3002000 124.60587311 -0.020117406 1.7343591452 0.4712895751 78.737113953
 2291.4002000 129.64048767 -0.033022191 1.6671084166 0.4648418427 79.337959290
 2291.5002000 134.49732971 -0.041388284 1.6255578995 0.4719626904 78.199333191
 2291.6002000 135.45468140 -0.044042714 1.6113222837 0.4900018871 76.652954102
 2291.7002000 132.17304993 -0.041826449 1.6239147186 0.5113453269 75.794013977
 2291.8002000 129.12405396 -0.038489681 1.6511125565 0.5249218941 75.745635986
 2291.9002000 127.06854248 -0.033721544 1.6932986975 0.5254769325 77.864356995
 2292.0002000 125.88356018 -0.026322808 1.7521592379 0.5125209689 81.351661682
 2292.1002000 124.86880493 -0.016318019 1.8217498064 0.4944322109 83.560958862
 2292.2002000 124.32125854 -0.005262116 1.8899565935 0.4836315811 85.580619812
 2292.3002000 123.92099762 0.0031851160 1.9431996346 0.4788585305 86.813270569
