# LAS format log file from PETREL
# Project units are specified as depth units
#==================================================================
~Version information
VERS.   2.0:
WRAP.   NO:
#==================================================================
~Well
STRT .m      48.400200000 :
STOP .m      3533.9002000 :
STEP .m     0.10000000 :
NULL .        -999.250000 :
COMP.           : COMPANY
WELL.  F06-01   : WELL
FLD.            : FIELD
LOC.            : LOCATION
SRVC.           : SERVICE COMPANY
DATE.  2023-08-04 09:51:51   : Log Export Date {yyyy-MM-dd HH:mm:ss}
PROV.           : PROVINCE
UWI.   7044   : UNIQUE WELL ID
API.            : API NUMBER
#==================================================================
~Curve
DEPT .m                   : DEPTH
DT .us/ft                 : DT
DRHO .g/cm3               : DRHO
RHOB .g/cm3               : RHOB
NPHI .m3/m3               : NPHI
GR .gAPI                  : GR
~Parameter
#==================================================================
~Ascii
# ...
 3067.6002000 100.29113007 0.0029753800 2.4475398064 0.2996651530 110.69249725
 3067.7002000 100.14405060 0.0061204000 2.4507803917 0.3011100888 109.03032684
 3067.8002000 99.868667603 0.0079188282 2.4511206150 0.3110451102 107.14392853
 3067.9002000 100.03995514 0.0046421881 2.4429309368 0.3220748603 107.86515808
 3068.0002000 100.23552704 0.0028142878 2.4391043186 0.3273669183 108.09477997
 3068.1002000 100.33042908 0.0024026241 2.4388568401 0.3258422017 108.48543549
 3068.2002000 100.26770782 0.0001570120 2.4336102009 0.3225611448 111.17859650
 3068.3002000 100.13455963 -0.000862940 2.4314246178 0.3171207905 112.56404114
 3068.4002000 99.910629272 0.0002465280 2.4357924461 0.3128411174 112.40769196
 3068.5002000 99.610069275 0.0019302560 2.4447321892 0.3170888722 113.65650940
 3068.6002000 99.520294189 0.0037417521 2.4547908306 0.3227373660 113.98343658
 3068.7002000 99.679458618 0.0054033557 2.4651286602 0.3254243135 112.51896667
 3068.8002000 99.603607178 0.0068253158 2.4772934914 0.3222587407 110.92506409
 3068.9002000 99.252372742 0.0081317760 2.4895598888 0.3147969246 109.35427094
 3069.0002000 98.584266663 0.0099566914 2.5008687973 0.3034285307 107.39508057
 3069.1002000 97.893859863 0.0134998001 2.5105972290 0.2918164730 104.24312592
 3069.2002000 97.375518799 0.0174730998 2.5173926353 0.2830798924 101.90873718
 3069.3002000 97.168426514 0.0187230445 2.5172276497 0.2815081775 101.70720673
 3069.4002000 97.091384888 0.0128595689 2.5068275928 0.2874770164 101.93856812
 3069.5002000 97.336799622 0.0055153999 2.4917035103 0.2947628200 103.11128998
 3069.6002000 98.010711670 0.0010030039 2.4781880379 0.2993875444 105.68611908
 3069.7002000 98.468734741 -0.003314732 2.4719479084 0.3066837788 108.17157745
 3069.8002000 98.444213867 -0.001472468 2.4760854244 0.3135883808 109.59490967
 3069.9002000 97.766319275 0.0109272320 2.4925279617 0.3150263429 109.31979370
 3070.0002000 97.259574890 0.0200475715 2.5072183609 0.3099294901 109.72031403
 3070.1002000 96.940589905 0.0221238080 2.5104961395 0.3016949892 110.86933899
 3070.2002000 96.804222107 0.0143313278 2.4955229759 0.2931850255 111.94555664
 3070.3002000 96.750205994 0.0057244403 2.4844682217 0.2803414464 110.68292999
 3070.4002000 96.948028564 -0.001810876 2.4731702805 0.2698310018 109.39516449
 3070.5002000 97.562416077 -0.003305120 2.4624218941 0.2684264779 110.74123383
 3070.6002000 98.345634460 0.0040305154 2.4684307575 0.2647139132 111.46075439
 3070.7002000 99.223220825 0.0095897922 2.4726750851 0.2634918690 112.22116852
 3070.8002000 99.963027954 0.0029487598 2.4567959309 0.2701850832 113.19942474
 3070.9002000 100.42234039 -0.001040088 2.4475760460 0.2790853679 112.11312866
 3071.0002000 100.26063538 -0.002345820 2.4468736649 0.2918339372 109.04526520
 3071.1002000 99.595932007 -0.003010352 2.4521179199 0.3069644272 105.86696625
 3071.2002000 99.454200745 -0.000562840 2.4664535522 0.3172260225 104.06201935
 3071.3002000 99.634925842 0.0105504086 2.4954397678 0.3223565519 103.43834686
 3071.4002000 99.662048340 0.0322619826 2.5317726135 0.3252584338 103.26773834
 3071.5002000 100.02246857 0.0591931939 2.5519497395 0.3259323537 104.20634460
 3071.6002000 100.98605347 0.0913592502 2.5530619621 0.3287078440 105.56324768
 3071.7002000 102.32434082 0.1208092421 2.5425503254 0.3379718363 106.46502686
 3071.8002000 103.51956177 0.1191869900 2.5031270981 0.3522398472 108.23262787
 3071.9002000 104.27540588 0.0856486633 2.4499628544 0.3681234419 109.34799957
 3072.0002000 104.74082184 0.0455783829 2.4129569530 0.3803003728 108.46679688
 3072.1002000 105.20959473 0.0124185290 2.3971309662 0.3799874485 108.51615906
 3072.2002000 105.59731293 -0.005737616 2.4032940865 0.3675718606 108.84088898
 3072.3002000 105.77949524 -0.010890597 2.4226424694 0.3520690501 107.54217529
 3072.4002000 106.13023376 -0.007827383 2.4429736137 0.3385998607 106.99878693
 3072.5002000 106.44124603 -0.001073076 2.4602050781 0.3322443068 107.87351990
 3072.6002000 106.33940125 0.0061381478 2.4758923054 0.3341283500 109.02519226
 3072.7002000 106.29163361 0.0102406405 2.4836351871 0.3394546211 110.80609894
 3072.8002000 106.11896515 0.0091643883 2.4820277691 0.3438514173 112.55472565
 3072.9002000 105.36447906 0.0037646680 2.4757571220 0.3463032246 113.16490173
 3073.0002000 104.11522675 -0.003355492 2.4724750519 0.3489145339 111.35084534
 3073.1002000 102.81851959 -0.007607040 2.4785346985 0.3505176008 109.04486084
 3073.2002000 101.80561066 -0.006425812 2.4943654537 0.3486724496 108.88532257
 3073.3002000 101.29546356 0.0016993880 2.5149455070 0.3440077305 109.77228546
 3073.4002000 101.11967468 0.0138612883 2.5315148830 0.3387490511 111.07427216
 3073.5002000 100.98233032 0.0260681733 2.5386266708 0.3343356550 113.38212585
 3073.6002000 101.22036743 0.0295830797 2.5287904739 0.3319694102 113.54894257
 3073.7002000 101.55419159 0.0246379152 2.5080292225 0.3305187821 111.93662262
 3073.8002000 101.32691956 0.0172954090 2.4877142906 0.3280638456 111.64707184
 3073.9002000 100.81140900 0.0148078725 2.4782805443 0.3238090575 112.00473785
 3074.0002000 100.29878998 0.0188686512 2.4802539349 0.3197771311 112.60933685
 3074.1002000 99.681045532 0.0277195200 2.4895439148 0.3188267648 114.70204163
 3074.2002000 98.860946655 0.0348883532 2.4956407547 0.3204594254 116.71197510
 3074.3002000 98.071510315 0.0368432626 2.4939200878 0.3219032288 117.92454529
 3074.4002000 97.690193176 0.0341886915 2.4867148399 0.3207526505 119.75856781
 3074.5002000 97.810546875 0.0295465998 2.4797539711 0.3151454926 120.26998138
 3074.6002000 98.158943176 0.0258358270 2.4765508175 0.3076599836 118.58321381
 3074.7002000 98.400924683 0.0249943193 2.4773108959 0.3038143218 116.48461151
 3074.8002000 98.678718567 0.0250557382 2.4775898457 0.3045778573 114.11026764
 3074.9002000 99.089752197 0.0239345040 2.4743618965 0.3071855307 111.48900604
 3075.0002000 99.335449219 0.0219619032 2.4683063030 0.3089041412 110.23049164
 3075.1002000 99.217353821 0.0178763773 2.4583966732 0.3081918955 110.11991882
 3075.2002000 98.884696960 0.0113003459 2.4451520443 0.3056192994 109.96835327
 3075.3002000 98.709426880 0.0045768963 2.4332056046 0.3028889298 109.80880737
 3075.4002000 98.535148621 -0.000984772 2.4258542061 0.3010613024 109.65194702
 3075.5002000 98.082145691 -0.005629436 2.4229166508 0.2999653816 109.38839722
 3075.6002000 97.651832581 -0.008150947 2.4268569946 0.2989978790 109.23392487
 3075.7002000 97.424621582 -0.007547464 2.4376018047 0.2993206978 110.29456329
 3075.8002000 97.323951721 -0.004396644 2.4513709545 0.3024036288 113.21990967
 3075.9002000 97.508110046 0.0004983920 2.4644994736 0.3084627092 116.20035553
 3076.0002000 97.907394409 0.0054651322 2.4732372761 0.3159809113 117.58563995
 3076.1002000 98.226905823 0.0089112399 2.4761533737 0.3224770427 117.27270508
 3076.2002000 98.514320374 0.0117526446 2.4758124352 0.3261862099 115.51580811
 3076.3002000 98.959159851 0.0141832847 2.4742810726 0.3263583779 113.72435760
 3076.4002000 99.687210083 0.0150276488 2.4712460041 0.3242365122 113.64796448
 3076.5002000 100.41271210 0.0131704723 2.4691860676 0.3223306239 115.50742340
 3076.6002000 100.45860291 0.0067597162 2.4712674618 0.3231935203 117.44652557
 3076.7002000 99.312782288 -0.004975972 2.4776632786 0.3263832033 116.33983612
 3076.8002000 96.983474731 -0.015720040 2.4985222816 0.3298192620 112.37171936
 3076.9002000 94.343269348 -0.017492056 2.5394330025 0.3306686282 106.98195648
 3077.0002000 92.942237854 -0.013295881 2.5812735558 0.3294031024 101.71533966
 3077.1002000 92.675430298 -0.002233360 2.6076328754 0.3263681531 98.653930664
 3077.2002000 93.106719971 0.0121404510 2.5997710228 0.3239994645 99.749366760
 3077.3002000 94.843803406 0.0200464800 2.5690684319 0.3258087039 102.36482239
 3077.4002000 98.070457458 0.0181656815 2.5224220753 0.3305350542 106.50000763
 3077.5002000 101.87366486 0.0093593365 2.4805572033 0.3328029811 111.41281891
 3077.6002000 104.33912659 0.0037045679 2.4560358524 0.3296636343 114.74845886
 3077.7002000 105.06919098 0.0020216682 2.4489729404 0.3216043115 116.48338318
