# LAS format log file from PETREL
# Project units are specified as depth units
#==================================================================
~Version information
VERS.   2.0:
WRAP.   NO:
#==================================================================
~Well
STRT .m      48.400200000 :
STOP .m      3533.9002000 :
STEP .m     0.10000000 :
NULL .        -999.250000 :
COMP.           : COMPANY
WELL.  F06-01   : WELL
FLD.            : FIELD
LOC.            : LOCATION
SRVC.           : SERVICE COMPANY
DATE.  2023-08-04 09:51:51   : Log Export Date {yyyy-MM-dd HH:mm:ss}
PROV.           : PROVINCE
UWI.   7044   : UNIQUE WELL ID
API.            : API NUMBER
#==================================================================
~Curve
DEPT .m                   : DEPTH
DT .us/ft                 : DT
DRHO .g/cm3               : DRHO
RHOB .g/cm3               : RHOB
NPHI .m3/m3               : NPHI
GR .gAPI                  : GR
~Parameter
#==================================================================
~Ascii
# ...
 2629.0002000 118.39645386 0.0214102529 2.1118965149 0.4745281339 96.056388855
 2629.1002000 116.32466888 0.0303900279 2.1292386055 0.4878306687 97.799285889
 2629.2002000 114.63481903 0.0293040946 2.1221730709 0.5074353814 97.052215576
 2629.3002000 114.12516022 0.0216406696 2.0960662365 0.5185798407 93.825370789
 2629.4002000 114.88836670 0.0145131266 2.0726583004 0.5145500302 91.619438171
 2629.5002000 116.16654205 0.0086718407 2.0550796986 0.4910275340 89.780723572
 2629.6002000 117.12131500 0.0035561151 2.0367164612 0.4559031427 87.636253357
 2629.7002000 117.70742798 -0.000816628 2.0081105232 0.4235113859 86.282768250
 2629.8002000 118.62139893 -0.002889929 1.9676623344 0.4154380560 85.822082520
 2629.9002000 119.69327545 -0.003229662 1.9213293791 0.4315108955 86.047698975
 2630.0002000 119.40844727 -0.004670558 1.8752709627 0.4496948123 87.416763306
 2630.1002000 117.97481537 -0.008251417 1.8337795734 0.4650436640 88.935707092
 2630.2002000 116.48802948 -0.014245003 1.7982444763 0.4783956409 89.859321594
 2630.3002000 115.51514435 -0.024229012 1.7725657225 0.4843500257 90.798667908
 2630.4002000 115.56140137 -0.032081153 1.7791284323 0.4792041481 91.144386292
 2630.5002000 116.73698425 -0.032989100 1.8263896704 0.4671810269 90.944992065
 2630.6002000 119.19187927 -0.027591404 1.9102600813 0.4570851028 92.300262451
 2630.7002000 122.09539795 -0.016021576 2.0178103447 0.4474875927 94.515136719
 2630.8002000 124.67665100 -0.001829195 2.1266682148 0.4350514412 96.221969604
 2630.9002000 126.99765778 0.0026325481 2.1941165924 0.4233866632 98.004867554
 2631.0002000 127.84832764 -0.000141219 2.2255165577 0.4083070755 99.929199219
 2631.1002000 126.55205536 -0.001715427 2.2466509342 0.3868634701 101.59176636
 2631.2002000 123.92214203 0.0005567240 2.2626581192 0.3656781912 103.07073975
 2631.3002000 121.16403198 0.0097947549 2.2735280991 0.3561685085 105.10064697
 2631.4002000 118.95126343 0.0253094789 2.2796099186 0.3628293276 107.86763763
 2631.5002000 117.67008972 0.0313679501 2.2690744400 0.3894324005 109.50640106
 2631.6002000 117.25012207 0.0263510272 2.2500481606 0.4206707776 110.14029694
 2631.7002000 117.36537933 0.0194598921 2.2385773659 0.4394262433 111.02679443
 2631.8002000 118.35539246 0.0145728849 2.2407307625 0.4404759705 110.55477905
 2631.9002000 119.67897034 0.0113352360 2.2516498566 0.4340864122 108.49248505
 2632.0002000 120.47221375 0.0085318033 2.2643861771 0.4319571257 106.09328461
 2632.1002000 120.64534760 0.0065280027 2.2761833668 0.4420329332 104.49015808
 2632.2002000 120.56324005 0.0076408838 2.2895758152 0.4595594704 103.02442932
 2632.3002000 120.50797272 0.0139506841 2.3085093498 0.4755360186 100.31523895
 2632.4002000 119.94426727 0.0236472990 2.3238577843 0.4790345132 99.083641052
 2632.5002000 118.29311371 0.0306000505 2.3259487152 0.4709910452 99.569305420
 2632.6002000 115.31452942 0.0296909176 2.3126254082 0.4608231485 98.795135498
 2632.7002000 111.48324585 0.0264042877 2.2934942245 0.4547460675 97.806396484
 2632.8002000 107.94623566 0.0256077945 2.2765517235 0.4531505704 97.560333252
 2632.9002000 105.53955841 0.0248227846 2.2584211826 0.4521270096 96.705108643
 2633.0002000 104.48542023 0.0249808431 2.2429425716 0.4496494830 97.571517944
 2633.1002000 104.77980804 0.0271947831 2.2342007160 0.4449766874 101.34206390
 2633.2002000 106.99691010 0.0301560387 2.2305226326 0.4375114739 105.31938934
 2633.3002000 111.47924805 0.0298453141 2.2253234386 0.4259105921 107.23049927
 2633.4002000 116.60140228 0.0254873615 2.2154428959 0.4116113186 106.55094147
 2633.5002000 119.05138397 0.0231803041 2.2094299793 0.3992703259 103.96144104
 2633.6002000 119.18016815 0.0260701049 2.2084441185 0.3946816027 101.33828735
 2633.7002000 119.79825592 0.0310010687 2.2072811127 0.3970995843 100.93634033
 2633.8002000 120.42369843 0.0298801269 2.2049293518 0.3963967264 103.66326904
 2633.9002000 120.49546814 0.0230048802 2.2063565254 0.3950493336 107.03466797
 2634.0002000 120.25281525 0.0184105914 2.2162508965 0.4015175402 107.27701569
 2634.1002000 121.05194855 0.0163350739 2.2287039757 0.4060584605 106.95035553
 2634.2002000 122.70723724 0.0169234090 2.2330138683 0.4039061368 107.08113861
 2634.3002000 123.25379181 0.0192117114 2.2205443382 0.4006722569 106.58632660
 2634.4002000 123.41408539 0.0210601520 2.1937310696 0.4001125693 106.70536804
 2634.5002000 123.63164520 0.0199151468 2.1575071812 0.4045905173 107.92732239
 2634.6002000 123.51061249 0.0151247941 2.1248097420 0.4111064672 108.71683502
 2634.7002000 122.25620270 0.0074386890 2.1040697098 0.4176354706 108.29135132
 2634.8002000 119.87768555 -0.001087473 2.1088421345 0.4226270318 106.63064575
 2634.9002000 118.49904633 -0.006771319 2.1384994984 0.4269956052 105.80268860
 2635.0002000 117.67828369 -0.004771008 2.1903488636 0.4232297838 105.11964417
 2635.1002000 116.69777679 0.0091300867 2.2531123161 0.4053179026 103.83242035
 2635.2002000 115.35499573 0.0233587697 2.2952368259 0.3905767500 102.68115997
 2635.3002000 114.52856445 0.0398575030 2.3196516037 0.3815470338 102.09658051
 2635.4002000 115.17977905 0.0562336221 2.3275930882 0.3821673691 102.77722931
 2635.5002000 115.39212036 0.0561970510 2.3140265942 0.3884217441 104.25625610
 2635.6002000 115.63448334 0.0439812280 2.2891948223 0.3973590732 106.69833374
 2635.7002000 116.60439301 0.0328051746 2.2767114639 0.4016357362 109.82823181
 2635.8002000 117.21480560 0.0277940053 2.2746849060 0.3998897672 112.04650116
 2635.9002000 117.12477112 0.0304753110 2.2824549675 0.3941107690 112.64614868
 2636.0002000 116.30876923 0.0396558158 2.2936458588 0.3927873075 111.56995392
 2636.1002000 116.08117676 0.0509886630 2.3061397076 0.3986951113 111.79598999
 2636.2002000 116.29367065 0.0627402514 2.3196794987 0.4093762934 112.69011688
 2636.3002000 115.86156464 0.0688908547 2.3306109905 0.4147126675 111.76946259
 2636.4002000 115.23605347 0.0657456219 2.3332087994 0.4199998379 112.34938812
 2636.5002000 114.81916809 0.0610458255 2.3377697468 0.4226046205 114.09848785
 2636.6002000 115.42098999 0.0788474306 2.3712806702 0.4161260426 113.59252930
 2636.7002000 116.65207672 0.1018369645 2.4059064388 0.4146607816 114.04304504
 2636.8002000 117.71630859 0.1276188195 2.4360117912 0.4201797843 115.48737335
 2636.9002000 116.71848297 0.1570681483 2.4681823254 0.4193813205 114.32681274
 2637.0002000 115.17378998 0.1803589314 2.4936990738 0.4153531492 112.75022125
 2637.1002000 114.04050446 0.1906360984 2.5061972141 0.4103759229 111.35561371
 2637.2002000 113.64106750 0.1972555816 2.5154919624 0.4073221982 108.91801453
 2637.3002000 113.07601166 0.2044382542 2.5251951218 0.3995830119 106.36106110
 2637.4002000 112.21009064 0.2069490254 2.5246016979 0.3854416609 103.86865997
 2637.5002000 112.33773041 0.1875041425 2.4878246784 0.3762924969 100.41558838
 2637.6002000 112.49449158 0.1547631770 2.4348211288 0.3664065599 98.855316162
 2637.7002000 111.67281342 0.1181903481 2.3848598003 0.3527088761 100.98464966
 2637.8002000 110.08467102 0.0880026519 2.3443279266 0.3414798677 102.29658508
 2637.9002000 109.16536713 0.0707657412 2.3217289448 0.3374240994 103.85202026
 2638.0002000 109.23997498 0.0687478259 2.3186223507 0.3502643704 106.22382355
 2638.1002000 107.05019379 0.0631534308 2.3073608875 0.3817975819 107.44920349
 2638.2002000 105.59867859 0.0534299575 2.2886579037 0.4168258309 107.79492950
 2638.3002000 107.67363739 0.0423921719 2.2689149380 0.4344189167 107.77784729
 2638.4002000 109.69252014 0.0386687741 2.2614784241 0.4352987409 107.82068634
 2638.5002000 111.29869843 0.0434596986 2.2695405483 0.4171439409 107.29936981
 2638.6002000 112.43232727 0.0521432087 2.2879323959 0.3889589012 106.64053345
 2638.7002000 113.84416962 0.0529777892 2.2981102467 0.3744299114 108.49903870
 2638.8002000 114.41609192 0.0499402136 2.3023691177 0.3760402799 110.39373016
 2638.9002000 113.35009003 0.0485973433 2.3049187660 0.3884103596 110.14697266
 2639.0002000 112.24912262 0.0452673547 2.3028879166 0.4019149542 111.27342987
 2639.1002000 111.72542572 0.0394054875 2.2962594032 0.4142666161 111.97784424
