# LAS format log file from PETREL
# Project units are specified as depth units
#==================================================================
~Version information
VERS.   2.0:
WRAP.   NO:
#==================================================================
~Well
STRT .m      48.400200000 :
STOP .m      3533.9002000 :
STEP .m     0.10000000 :
NULL .        -999.250000 :
COMP.           : COMPANY
WELL.  F06-01   : WELL
FLD.            : FIELD
LOC.            : LOCATION
SRVC.           : SERVICE COMPANY
DATE.  2023-08-04 09:51:51   : Log Export Date {yyyy-MM-dd HH:mm:ss}
PROV.           : PROVINCE
UWI.   7044   : UNIQUE WELL ID
API.            : API NUMBER
#==================================================================
~Curve
DEPT .m                   : DEPTH
DT .us/ft                 : DT
DRHO .g/cm3               : DRHO
RHOB .g/cm3               : RHOB
NPHI .m3/m3               : NPHI
GR .gAPI                  : GR
~Parameter
#==================================================================
~Ascii
# ...
 3292.0002000 72.979408264 -0.009500181 2.4395914078 0.1521982849 58.090961456
 3292.1002000 71.282478333 -0.008164675 2.4345109463 0.1293706298 52.699775696
 3292.2002000 69.915985107 -0.006917494 2.4353322983 0.1111095026 49.465908051
 3292.3002000 69.333114624 -0.006915000 2.4410943985 0.0989832282 47.072975159
 3292.4002000 69.516113281 -0.008301222 2.4497268200 0.0942703933 44.392295837
 3292.5002000 69.308586121 -0.008915775 2.4584875107 0.0927111059 41.609371185
 3292.6002000 68.868629456 -0.008706423 2.4649341106 0.0913517177 39.598438263
 3292.7002000 68.531600952 -0.008315781 2.4668860435 0.0886973143 39.338237762
 3292.8002000 68.387649536 -0.008626376 2.4655575752 0.0874724463 40.652347565
 3292.9002000 68.500106812 -0.010247752 2.4618742466 0.0870717987 42.912689209
 3293.0002000 68.754997253 -0.012546400 2.4585716724 0.0873045325 45.042175293
 3293.1002000 68.928092957 -0.013730636 2.4581210613 0.0900135711 46.631420135
 3293.2002000 68.958312988 -0.014153158 2.4597496986 0.0932724774 46.767349243
 3293.3002000 68.796318054 -0.014581145 2.4616923332 0.0945065394 45.454345703
 3293.4002000 68.320777893 -0.014727707 2.4638776779 0.0935169905 43.761619568
 3293.5002000 67.733352661 -0.014622212 2.4657280445 0.0906178057 42.407688141
 3293.6002000 67.243942261 -0.014652938 2.4667122364 0.0873335749 41.710491180
 3293.7002000 66.735237122 -0.015260782 2.4668166637 0.0853559524 41.572807312
 3293.8002000 66.455696106 -0.016067388 2.4687180519 0.0863779411 41.813991547
 3293.9002000 66.556892395 -0.016216703 2.4751479626 0.0897422656 41.941394806
 3294.0002000 66.833656311 -0.014762915 2.4882285595 0.0925893113 41.137619019
 3294.1002000 67.291549683 -0.011955620 2.5073838234 0.0938584656 40.053630829
 3294.2002000 67.913734436 -0.008763386 2.5271384716 0.0933939368 39.567512512
 3294.3002000 68.506767273 -0.005520486 2.5380930901 0.0888720602 39.629734039
 3294.4002000 68.841140747 -0.004715600 2.5309593678 0.0849867687 39.786651611
 3294.5002000 68.884605408 -0.007124170 2.5085277557 0.0855917707 39.659679413
 3294.6002000 68.733779907 -0.009674898 2.4835290909 0.0866888016 38.884731293
 3294.7002000 68.693740845 -0.010663031 2.4669451714 0.0873736292 37.933650970
 3294.8002000 68.876510620 -0.010537256 2.4608011246 0.0889129192 37.412082672
 3294.9002000 68.720497131 -0.010130813 2.4627251625 0.0895577148 37.610561371
 3295.0002000 68.493721008 -0.010045171 2.4667091370 0.0888184831 38.239189148
 3295.1002000 68.673027039 -0.010342404 2.4685802460 0.0874976441 38.893001556
 3295.2002000 68.432945251 -0.009840008 2.4700961113 0.0843463093 39.491630554
 3295.3002000 67.519393921 -0.008616450 2.4720869064 0.0787352324 40.720264435
 3295.4002000 66.352111816 -0.007455322 2.4738724232 0.0712669492 43.206806183
 3295.5002000 66.967773438 -0.006001908 2.4800596237 0.0663178861 50.073917389
 3295.6002000 69.378578186 -0.003887232 2.4952225685 0.0678010061 60.895469666
 3295.7002000 72.265037537 -0.001106564 2.5205662251 0.0763718262 73.369392395
 3295.8002000 75.998252869 0.0006215480 2.5483734608 0.0970565826 86.740264893
 3295.9002000 80.473075867 0.0007717060 2.5716605186 0.1285350025 98.881530762
 3296.0002000 85.143310547 0.0001472520 2.5901310444 0.1668104231 107.96169281
 3296.1002000 87.840599060 -0.002485726 2.5926430225 0.2010565251 113.51419067
 3296.2002000 88.478225708 -0.005920128 2.5795900822 0.2256688178 116.14550781
 3296.3002000 88.845306396 -0.006978892 2.5613644123 0.2424374819 116.00412750
 3296.4002000 89.096786499 -0.006294376 2.5438508987 0.2485587895 113.96266174
 3296.5002000 88.850189209 -0.006174238 2.5274088383 0.2459312826 111.06876373
 3296.6002000 87.940155029 -0.007911517 2.5097751617 0.2390727401 107.24552155
 3296.7002000 87.148475647 -0.010209402 2.4942491055 0.2309981585 103.68841553
 3296.8002000 86.841506958 -0.011947527 2.4849085808 0.2233333290 101.06702423
 3296.9002000 86.232490540 -0.014079733 2.4848349094 0.2160844952 98.514030457
 3297.0002000 85.335502625 -0.016133891 2.4985823631 0.2115899920 97.257682800
 3297.1002000 84.725830078 -0.017632008 2.5219602585 0.2110231221 98.147613525
 3297.2002000 84.931945801 -0.019660940 2.5421607494 0.2131048292 100.03672791
 3297.3002000 86.127670288 -0.020854617 2.5501511097 0.2192736417 103.18688965
 3297.4002000 87.880783081 -0.019858005 2.5451149940 0.2305893451 108.07290649
 3297.5002000 89.667465210 -0.019386940 2.5289833546 0.2458993644 114.07585144
 3297.6002000 91.044273376 -0.018651471 2.5113401413 0.2612123489 119.03665161
 3297.7002000 91.794158936 -0.015304703 2.5036993027 0.2714255750 120.91999817
 3297.8002000 91.505332947 -0.012849906 2.5006222725 0.2737214267 120.35823822
 3297.9002000 89.977745056 -0.011819057 2.5018813610 0.2651821375 116.87223053
 3298.0002000 87.729507446 -0.009264115 2.5115606785 0.2478327304 110.29009247
 3298.1002000 84.611839294 -0.006923680 2.5298194885 0.2238819152 102.45926666
 3298.2002000 80.907608032 -0.006406028 2.5573599339 0.1967452914 94.710014343
 3298.3002000 77.923614502 -0.007048710 2.5895993710 0.1730603576 87.347000122
 3298.4002000 75.754898071 -0.007673750 2.6235630512 0.1544362158 82.051063538
 3298.5002000 74.848686218 -0.007229892 2.6488926411 0.1450936347 81.536712646
 3298.6002000 75.471710205 -0.006440580 2.6528842449 0.1466478407 85.632781982
 3298.7002000 77.407867432 -0.005143596 2.6368281841 0.1551180333 92.009895325
 3298.8002000 80.123611450 -0.003602084 2.6049368382 0.1670710891 97.611587524
 3298.9002000 82.604797363 -0.003144910 2.5706427097 0.1842735857 102.15341187
 3299.0002000 84.722755432 -0.004146990 2.5416457653 0.2030364573 105.47895050
 3299.1002000 85.985252380 -0.006852582 2.5314471722 0.2149990946 107.57653046
 3299.2002000 86.296501160 -0.010179345 2.5292441845 0.2217365503 109.77183533
 3299.3002000 85.863601685 -0.014006344 2.5318887234 0.2221611738 111.18050385
 3299.4002000 85.473060608 -0.017180655 2.5314190388 0.2179743946 110.22064972
 3299.5002000 85.380813599 -0.018370628 2.5273849964 0.2176905572 108.38964844
 3299.6002000 85.642089844 -0.016267221 2.5225098133 0.2221440673 106.18880463
 3299.7002000 86.083641052 -0.010784979 2.5238313675 0.2279304266 105.14606476
 3299.8002000 86.461326599 -0.006307950 2.5288779736 0.2312164456 106.01511383
 3299.9002000 86.559272766 -0.004580444 2.5377175808 0.2294225991 108.26699066
 3300.0002000 86.109764099 -0.006375396 2.5481622219 0.2219070494 108.67205048
 3300.1002000 85.345001221 -0.009326093 2.5586531162 0.2148680836 106.30146027
 3300.2002000 84.295310974 -0.012349952 2.5679123402 0.2104538232 101.89512634
 3300.3002000 83.065132141 -0.013895914 2.5750396252 0.2073252648 99.928756714
 3300.4002000 81.660476685 -0.013783231 2.5794482231 0.2038299888 99.122856140
 3300.5002000 80.420410156 -0.012077418 2.5779898167 0.1994447708 99.747779846
 3300.6002000 80.070022583 -0.010857438 2.5689222813 0.1948781312 101.89255524
 3300.7002000 79.798393250 -0.009665384 2.5596165657 0.1892791986 102.31800079
 3300.8002000 79.172973633 -0.008742844 2.5545721054 0.1823977679 98.923263550
 3300.9002000 78.395278931 -0.009183114 2.5520689487 0.1757902205 94.444435120
 3301.0002000 77.538848877 -0.010499364 2.5520048141 0.1700454950 90.698905945
 3301.1002000 76.674522400 -0.012326344 2.5546896458 0.1659841239 88.427345276
 3301.2002000 75.847038269 -0.014021610 2.5577688217 0.1632355005 85.074035645
 3301.3002000 74.821342468 -0.016013017 2.5568487644 0.1609795094 83.236503601
 3301.4002000 73.626243591 -0.017084859 2.5495185852 0.1582694203 84.562477112
 3301.5002000 73.090789795 -0.013497193 2.5451009274 0.1545933634 84.683952332
 3301.6002000 72.882057190 -0.008491018 2.5416200161 0.1489303410 85.602027893
 3301.7002000 72.925888062 -0.005110754 2.5383574963 0.1415058523 88.352111816
 3301.8002000 73.968582153 -0.001270682 2.5398919582 0.1381018013 88.152343750
 3301.9002000 75.651451111 0.0010254140 2.5429918766 0.1397237331 87.602905273
 3302.0002000 77.431510925 -0.000776380 2.5425639153 0.1476601064 89.765838623
 3302.1002000 79.071914673 -0.004492560 2.5386667252 0.1588575840 91.832412720
