# LAS format log file from PETREL
# Project units are specified as depth units
#==================================================================
~Version information
VERS.   2.0:
WRAP.   NO:
#==================================================================
~Well
STRT .m      48.400200000 :
STOP .m      3533.9002000 :
STEP .m     0.10000000 :
NULL .        -999.250000 :
COMP.           : COMPANY
WELL.  F06-01   : WELL
FLD.            : FIELD
LOC.            : LOCATION
SRVC.           : SERVICE COMPANY
DATE.  2023-08-04 09:51:51   : Log Export Date {yyyy-MM-dd HH:mm:ss}
PROV.           : PROVINCE
UWI.   7044   : UNIQUE WELL ID
API.            : API NUMBER
#==================================================================
~Curve
DEPT .m                   : DEPTH
DT .us/ft                 : DT
DRHO .g/cm3               : DRHO
RHOB .g/cm3               : RHOB
NPHI .m3/m3               : NPHI
GR .gAPI                  : GR
~Parameter
#==================================================================
~Ascii
# ...
 2843.2002000 107.03649139 0.0140305310 2.4370763302 0.3833340704 102.70899963
 2843.3002000 107.47390747 0.0254083518 2.4627783298 0.3828877807 103.39381409
 2843.4002000 107.57812500 0.0416061319 2.4827284813 0.3817216754 106.77982330
 2843.5002000 109.37790680 0.0540482923 2.4878785610 0.3786124587 109.53792572
 2843.6002000 112.00431061 0.0625799373 2.4807019234 0.3710124493 110.69642639
 2843.7002000 113.37976074 0.0707015246 2.4694550037 0.3589861989 111.43496704
 2843.8002000 113.19715118 0.0699103028 2.4458494186 0.3480626941 110.84205627
 2843.9002000 111.97774506 0.0616780482 2.4170494080 0.3432700634 108.78983307
 2844.0002000 110.53984070 0.0553771742 2.3984773159 0.3451443911 106.43041992
 2844.1002000 109.14732361 0.0481389686 2.3856673241 0.3534935117 105.16484833
 2844.2002000 107.87059784 0.0459666103 2.3821437359 0.3651303947 105.81008911
 2844.3002000 106.77347565 0.0584657677 2.3959267139 0.3749577105 107.80722046
 2844.4002000 107.28433990 0.0707538500 2.4121608734 0.3777768314 109.62051392
 2844.5002000 109.56708527 0.0714902431 2.4225008488 0.3766983747 110.23842621
 2844.6002000 111.40215302 0.0677589998 2.4363794327 0.3832516670 110.33022308
 2844.7002000 111.41077423 0.0587700382 2.4454658031 0.3807571232 109.58873749
 2844.8002000 109.33702087 0.0529133752 2.4453337193 0.3605242074 108.73993683
 2844.9002000 107.42998505 0.0676586851 2.4477682114 0.3459531963 109.85604095
 2845.0002000 107.79639435 0.0965970159 2.4493656158 0.3343682885 111.18927765
 2845.1002000 110.93550110 0.1206837296 2.4383661747 0.3258261383 110.74296570
 2845.2002000 112.08036041 0.1253665835 2.4049987793 0.3324293494 110.19868469
 2845.3002000 112.04597473 0.1089699194 2.3609154224 0.3509736359 108.74105835
 2845.4002000 112.89812469 0.0796484873 2.3280601501 0.3682788014 106.34248352
 2845.5002000 114.20498657 0.0500195213 2.2996163368 0.3762114048 106.39870453
 2845.6002000 115.20310974 0.0297310036 2.2910859585 0.3770228624 108.84207153
 2845.7002000 114.87514496 0.0283083878 2.3148672581 0.3804572225 111.27399445
 2845.8002000 114.30662537 0.0339602828 2.3359122276 0.3860346377 112.73474121
 2845.9002000 113.97628784 0.0475475267 2.3482298851 0.3939313889 111.79045105
 2846.0002000 114.33123016 0.0672650263 2.3556585312 0.4016013443 107.76862335
 2846.1002000 114.79246521 0.0824383795 2.3583822250 0.4043431282 103.93225861
 2846.2002000 114.83644104 0.0875556841 2.3548452854 0.4013729692 101.72933960
 2846.3002000 114.00871277 0.0840710700 2.3480741978 0.3978540897 101.82035065
 2846.4002000 113.43453979 0.0809923112 2.3477473259 0.3928380907 104.10324860
 2846.5002000 113.61190033 0.0795875937 2.3541414738 0.3875362277 108.39517212
 2846.6002000 113.95323944 0.0723261386 2.3516459465 0.3862659931 112.33831024
 2846.7002000 114.10276794 0.0603280663 2.3451220989 0.3868117929 116.17346191
 2846.8002000 114.21035767 0.0441428088 2.3354966640 0.3918756843 119.36093140
 2846.9002000 115.23314667 0.0299995411 2.3240308762 0.4079435468 120.72177124
 2847.0002000 116.14546204 0.0282199197 2.3248603344 0.4289688170 120.71828461
 2847.1002000 116.02372742 0.0478710532 2.3472321033 0.4478066862 119.49562073
 2847.2002000 115.41177368 0.0697763413 2.3644721508 0.4594615102 118.03321075
 2847.3002000 114.81375885 0.0840121806 2.3717918396 0.4697498679 116.53604889
 2847.4002000 114.79237366 0.0764217079 2.3632307053 0.4789592028 115.75370026
 2847.5002000 115.05324554 0.0509949923 2.3495945930 0.4709871709 116.84690094
 2847.6002000 114.82363129 0.0210349131 2.3412253857 0.4534154534 118.24526978
 2847.7002000 113.35755157 0.0042857840 2.3549249172 0.4341769814 118.18073273
 2847.8002000 112.28211212 -0.002749016 2.3882343769 0.4103752673 118.20687866
 2847.9002000 111.58449554 -0.000457316 2.4266145229 0.3904924691 116.88133240
 2848.0002000 110.91838837 0.0081235757 2.4490165710 0.3880534768 112.61598206
 2848.1002000 109.54994965 0.0139726484 2.4657304287 0.3972012103 109.36555481
 2848.2002000 107.85527039 0.0177021138 2.4763755798 0.4065555632 106.27658844
 2848.3002000 106.38278198 0.0199938565 2.4821987152 0.3984865546 101.94831848
 2848.4002000 104.53672028 0.0177032370 2.4854030609 0.3912648857 98.456306458
 2848.5002000 101.93090057 0.0138594005 2.4871132374 0.3821674287 95.853660583
 2848.6002000 98.712890625 0.0147503605 2.4903728962 0.3684449494 94.171371460
 2848.7002000 97.016128540 0.0170288645 2.4959249496 0.3629538417 94.456405640
 2848.8002000 96.933197021 0.0191395618 2.5001144409 0.3614887893 98.023216248
 2848.9002000 97.447776794 0.0187884439 2.4985134602 0.3527191877 104.57147980
 2849.0002000 98.404479980 0.0168258771 2.5005369186 0.3431941271 109.63134766
 2849.1002000 100.18425751 0.0143469237 2.5066137314 0.3348443806 112.16107941
 2849.2002000 102.60469055 0.0129704885 2.5103890896 0.3292582929 112.94522858
 2849.3002000 104.10654449 0.0100367591 2.5077178478 0.3265229166 112.25628662
 2849.4002000 104.52768707 0.0069144918 2.4973664284 0.3256674111 110.51831818
 2849.5002000 104.88460541 0.0067296918 2.4839360714 0.3233951330 109.36975861
 2849.6002000 105.29833221 0.0063007199 2.4692485332 0.3180842698 110.00373840
 2849.7002000 105.85958099 0.0126614487 2.4592487812 0.3142154515 110.76332092
 2849.8002000 106.80223846 0.0339824744 2.4586203098 0.3190953434 109.01867676
 2849.9002000 109.20249176 0.0622557960 2.4570322037 0.3310221732 108.67465973
 2850.0002000 112.83889771 0.0878108218 2.4472014904 0.3461773098 109.93125916
 2850.1002000 116.05054474 0.1023191437 2.4293515682 0.3600276411 109.83796692
 2850.2002000 118.84210205 0.1051807404 2.4046308994 0.3809133470 109.88176727
 2850.3002000 121.05471039 0.0975716040 2.3780951500 0.4040245116 110.76464081
 2850.4002000 122.59275055 0.0862025321 2.3558776379 0.4171675742 111.76531219
 2850.5002000 122.73010254 0.0799857825 2.3388161659 0.4310016632 112.52437592
 2850.6002000 121.30086517 0.0761293843 2.3242440224 0.4421823323 112.48120117
 2850.7002000 119.18171692 0.0636271462 2.3074202538 0.4385796487 111.47764587
 2850.8002000 116.95097351 0.0467465930 2.2953939438 0.4283141494 110.56053925
 2850.9002000 115.10392761 0.0327220522 2.2949147224 0.4196028113 110.19014740
 2851.0002000 113.72293091 0.0243015923 2.3049008846 0.4132294655 109.85660553
 2851.1002000 112.79978180 0.0263058152 2.3233809471 0.4122976363 110.41280365
 2851.2002000 112.66803741 0.0351086818 2.3433680534 0.4148845971 111.65394592
 2851.3002000 113.77655029 0.0424845256 2.3584189415 0.4158790410 112.42297363
 2851.4002000 115.19646454 0.0419173948 2.3625128269 0.4131788611 112.00837708
 2851.5002000 116.15848541 0.0351730771 2.3585779667 0.4085236490 111.12939453
 2851.6002000 116.72161865 0.0286690108 2.3538517952 0.4049433172 111.07598877
 2851.7002000 117.21823120 0.0274597518 2.3526985645 0.4030157030 110.38493347
 2851.8002000 117.25698090 0.0326521285 2.3554568291 0.4029801190 108.99738312
 2851.9002000 115.86774445 0.0429776162 2.3603153229 0.4057936966 108.84744263
 2852.0002000 114.08533478 0.0552986860 2.3611056805 0.4102312326 108.50208282
 2852.1002000 113.07804871 0.0649574101 2.3530123234 0.4144620597 107.24414825
 2852.2002000 113.06356812 0.0674461573 2.3335800171 0.4176452756 106.61206055
 2852.3002000 113.24443817 0.0634570643 2.3105022907 0.4189627469 107.45233154
 2852.4002000 113.25012207 0.0558474958 2.2919371128 0.4186711907 109.12841797
 2852.5002000 113.61327362 0.0451159775 2.2812187672 0.4177138507 110.46519470
 2852.6002000 114.58141327 0.0341677964 2.2834298611 0.4178504348 111.15785217
 2852.7002000 115.51801300 0.0249617957 2.2955243587 0.4176229239 111.54305267
 2852.8002000 114.95639038 0.0162687637 2.3074433804 0.4102715254 111.96226501
 2852.9002000 113.84983063 0.0209530480 2.3270194530 0.4021465182 112.44946289
 2853.0002000 113.44777679 0.0414537452 2.3559482098 0.3992186189 112.78114319
 2853.1002000 113.28121185 0.0581164099 2.3714373112 0.3951682150 112.39397430
 2853.2002000 113.04130554 0.0643422604 2.3727369308 0.3936450481 110.84254456
 2853.3002000 112.79402924 0.0638849363 2.3713467121 0.3994615972 108.34276581
