~VERSION -------------------------------------------
 VERS.                 2.0 : CWLS LOG ASCII STANDARD - VERSION 2.0
 WRAP.                  NO : ONE LINE PER DEPTH STEP
~WELL -----------------------------------------------
 WELL.                KG-D6-A : Well name
 UWI .                IN-KGD-006        : Unique Well ID
 LAT .                16.3421        : Latitude
 LON .                82.5123        : Longitude
 STRT.M               1500.00 : START DEPTH
 STOP.M               3199.95 : STOP DEPTH
 STEP.M               0.1500 : STEP
 NULL.                -9999 : NULL VALUE
~CURVE -----------------------------------------------
 DEPTH .M               : Depth
 GR    .GAPI            : Gamma Ray
 RHOB  .G/C3            : Bulk Density
 NPHI  .V/V             : Neutron Porosity
 RT    .OHMM            : Resistivity
 CALI  .IN              : Caliper
~A  DEPTH              GR        RHOB        NPHI          RT        CALI
# ...
   3184.0500      64.5611       2.3782       0.2546       8.4431       8.7220
   3184.2000      66.7875       2.3996       0.2558       8.5738       8.7455
   3184.3500      66.8894       2.4091       0.2554       9.0166       8.6694
   3184.5000      67.2219       2.4000       0.2523      10.0911       8.7500
   3184.6500      68.1130       2.4047       0.2503      10.5487       8.7143
   3184.8000      69.0095       2.4116       0.2560      10.9485       8.7256
   3184.9500      72.7997       2.4170       0.2525       9.6710       8.7861
   3185.1000      72.6152       2.4069       0.2578      10.2448       8.8277
   3185.2500      73.2223       2.3936       0.2482      10.7375       8.8036
   3185.4000      72.6167       2.4064       0.2458      10.3738       8.7893
   3185.5500      70.1141       2.4077       0.2442       9.3560       8.8619
   3185.7000      69.6194       2.4075       0.2375      10.3260       8.8950
   3185.8500      72.9756       2.4245       0.2355       9.4157       8.8850
   3186.0000      72.0503       2.4136       0.2262       8.8780       8.9192
   3186.1500      74.0867       2.4347       0.2276       8.7045       8.9156
   3186.3000      76.8454       2.4264       0.2259       8.7700       8.8998
   3186.4500      76.7232       2.4249       0.2347       8.7977       8.8241
   3186.6000      78.0390       2.4239       0.2289       8.5916       8.7923
   3186.7500      76.3484       2.4419       0.2351       8.2445       8.8747
   3186.9000      81.7008       2.4449       0.2272       8.8465       8.8065
   3187.0500      80.6684       2.4436       0.2222       7.9702       8.6900
   3187.2000      79.6498       2.4282       0.2250       8.3228       8.6044
   3187.3500      77.9876       2.4345       0.2309       7.7980       8.6750
   3187.5000      76.6766       2.4329       0.2319       6.8207       8.5980
   3187.6500      77.0017       2.4369       0.2332       6.4637       8.6504
   3187.8000      77.0985       2.4356       0.2213       6.3935       8.6531
   3187.9500      76.2499       2.4425       0.2166       7.2857       8.7327
   3188.1000      76.9635       2.4450       0.2120       6.6721       8.7032
   3188.2500      79.3062       2.4456       0.2169       6.8568       8.5609
   3188.4000      82.6598       2.4342       0.2191       6.6021       8.5817
   3188.5500      86.0413       2.4334       0.2188       6.8789       8.7008
   3188.7000      85.0662       2.4250       0.2217       6.9057       8.6443
   3188.8500      82.4169       2.4058       0.2237       7.2535       8.6111
   3189.0000      84.8750       2.4192       0.2355       7.3956       8.6298
   3189.1500      82.8787       2.4015       0.2268       8.0478       8.5306
   3189.3000      78.5696       2.4131       0.2372       8.3506       8.5997
   3189.4500      79.9421       2.4306       0.2294       8.6924       8.6849
   3189.6000      78.7957       2.4368       0.2276       8.2653       8.6784
   3189.7500      82.3828       2.4431       0.2252       7.2789       8.7093
   3189.9000      78.8227       2.4300       0.2241       7.1328       8.6899
   3190.0500      78.6955       2.4146       0.2281       7.7597       8.5475
   3190.2000      76.7276       2.4156       0.2253       6.9791       8.6261
   3190.3500      79.2023       2.4015       0.2267       6.9209       8.7266
   3190.5000      76.6306       2.3958       0.2277       6.6909       8.7244
   3190.6500      73.3853       2.3976       0.2303       6.9968       8.8128
   3190.8000      70.7206       2.4075       0.2356       6.6965       8.7783
   3190.9500      70.3195       2.4145       0.2414       6.6694       8.6916
   3191.1000      70.0675       2.4151       0.2414       6.4700       8.7232
   3191.2500      68.6851       2.4297       0.2425       6.3306       8.7674
   3191.4000      64.2146       2.4285       0.2372       6.5793       8.8478
   3191.5500      62.2995       2.4451       0.2344       6.6939       8.9439
   3191.7000      60.9308       2.4405       0.2344       6.3425       8.9414
   3191.8500      63.2438       2.4476       0.2302       6.1255       8.9475
   3192.0000      63.1211       2.4425       0.2184       5.9475       8.9422
   3192.1500      63.2177       2.4476       0.2181       5.4751       8.9162
   3192.3000      65.7053       2.4369       0.2064       5.4399       8.9163
   3192.4500      63.2223       2.4280       0.2036       5.8225       8.9090
   3192.6000      61.0976       2.4211       0.2006       6.3130       8.8677
   3192.7500      60.6668       2.4061       0.2004       6.7160       8.8695
   3192.9000      61.8035       2.4189       0.2092       6.4320       8.8508
   3193.0500      64.8906       2.4283       0.2053       7.2054       8.8357
   3193.2000      69.0085       2.4387       0.2148       7.2224       8.7950
   3193.3500      67.4660       2.4411       0.2087       8.2690       8.7253
   3193.5000      69.8155       2.4359       0.1994       9.0796       8.8199
   3193.6500      71.2333       2.4162       0.2074       9.1761       8.8168
   3193.8000      70.6806       2.4114       0.2093       8.8720       8.7512
   3193.9500      69.9673       2.3920       0.2018       9.1817       8.7652
   3194.1000      71.1060       2.3954       0.2059      10.1909       8.8077
   3194.2500      68.4620       2.3830       0.2070       9.0336       8.8562
   3194.4000      73.0585       2.3861       0.2144       9.2912       8.7991
   3194.5500      72.9487       2.3861       0.2210       9.1334       8.7904
   3194.7000      74.1905       2.3987       0.2217       9.4271       8.7597
   3194.8500      73.0980       2.4075       0.2191       9.9476       8.7840
   3195.0000      69.6035       2.4098       0.2189      10.4571       8.6422
   3195.1500      72.0807       2.3959       0.2221      10.9750       8.6573
   3195.3000      72.6652       2.4069       0.2194      10.7521       8.6719
   3195.4500      71.1952       2.4027       0.2222      10.1531       8.6173
   3195.6000      76.2175       2.4024       0.2201      11.1989       8.5950
   3195.7500      74.7324       2.4204       0.2233      11.3178       8.4584
   3195.9000      74.1890       2.4190       0.2191      11.7124       8.4960
   3196.0500      74.0462       2.4064       0.2166       9.9305       8.5414
   3196.2000      72.3784       2.3941       0.2042      10.7776       8.5999
   3196.3500      71.6169       2.4031       0.2116      10.0128       8.6822
   3196.5000      71.7278       2.4123       0.2209      10.5454       8.7362
   3196.6500      73.4497       2.4286       0.2091      10.4009       8.7092
   3196.8000      74.8207       2.4188       0.2130      11.5990       8.7800
   3196.9500      74.7005       2.4254       0.2080      10.7321       8.8672
   3197.1000      74.2548       2.4282       0.2098      10.0857       8.8377
   3197.2500      76.0917       2.4282       0.2010      11.4188       8.8886
   3197.4000      75.1218       2.4401       0.2060      11.8105       8.8910
   3197.5500      78.2667       2.4066       0.2058      12.5857       8.8446
   3197.7000      79.3666       2.4029       0.2058      12.6538       8.8391
   3197.8500      78.3942       2.3912       0.2141      12.2719       8.6947
   3198.0000      80.2713       2.4070       0.2183      11.5492       8.7002
   3198.1500      79.5099       2.4335       0.2210      11.3094       8.7048
   3198.3000      78.3666       2.4255       0.2278      14.3124       8.6732
   3198.4500      79.1614       2.4289       0.2304      19.2510       8.5992
   3198.6000      76.5323       2.4240       0.2336      22.6779       8.5954
   3198.7500      72.9631       2.2944       0.2174      20.9004       8.6352
   3198.9000      69.4300       2.1752       0.2067      18.3825       8.5796
   3199.0500      63.2091       2.0657       0.2020      17.3338       8.5651
   3199.2000      58.9314       1.9461       0.1945      14.9895       8.5774
   3199.3500      56.0861       1.8195       0.1797      13.2688       8.6592
