~VERSION -------------------------------------------
 VERS.                 2.0 : CWLS LOG ASCII STANDARD - VERSION 2.0
 WRAP.                  NO : ONE LINE PER DEPTH STEP
~WELL -----------------------------------------------
 WELL.                KG-D6-A : Well name
 UWI .                IN-KGD-006        : Unique Well ID
 LAT .                16.3421        : Latitude
 LON .                82.5123        : Longitude
 STRT.M               1500.00 : START DEPTH
 STOP.M               3199.95 : STOP DEPTH
 STEP.M               0.1500 : STEP
 NULL.                -9999 : NULL VALUE
~CURVE -----------------------------------------------
 DEPTH .M               : Depth
 GR    .GAPI            : Gamma Ray
 RHOB  .G/C3            : Bulk Density
 NPHI  .V/V             : Neutron Porosity
 RT    .OHMM            : Resistivity
 CALI  .IN              : Caliper
~A  DEPTH              GR        RHOB        NPHI          RT        CALI
# ...
   2287.9500      64.0173       2.4482       0.2022       8.3660       8.5424
   2288.1000      62.8178       2.4422       0.2010       8.7233       8.5337
   2288.2500      64.7880       2.4281       0.1988       8.8470       8.5923
   2288.4000      65.2171       2.4304       0.2018       9.2185       8.5791
   2288.5500      63.8151       2.4023       0.2029      10.3679       8.5469
   2288.7000      63.9726       2.4010       0.2118       9.4832       8.5314
   2288.8500      63.6771       2.3980       0.2001       8.7763       8.6177
   2289.0000      64.7518       2.3981       0.1914       9.4942       8.6369
   2289.1500      61.4070       2.4020       0.2086       9.0451       8.6445
   2289.3000      61.0059       2.4004       0.2198      10.1801       8.8184
   2289.4500      59.4215       2.4010       0.2166      10.6454       8.9133
   2289.6000      56.4336       2.4014       0.2207      10.0128       8.9062
   2289.7500      56.1326       2.4086       0.2138       9.8181       8.8820
   2289.9000      53.9506       2.4001       0.2125       9.7124       8.9184
   2290.0500      53.5980       2.4011       0.2034       9.7284       8.8894
   2290.2000      55.5547       2.3845       0.1970       9.2080       8.8795
   2290.3500      53.7475       2.3913       0.1984       9.0164       8.8208
   2290.5000      59.2487       2.3901       0.2150       8.4365       8.8811
   2290.6500      56.9882       2.3941       0.2210       8.0222       8.7825
   2290.8000      58.9817       2.4035       0.2215       7.5293       8.6600
   2290.9500      60.1483       2.4333       0.2150       7.4267       8.7628
   2291.1000      57.0176       2.4293       0.2147       7.2529       8.7517
   2291.2500      57.8284       2.4339       0.2237       7.1944       8.8733
   2291.4000      57.9478       2.4333       0.2307       7.0514       8.8421
   2291.5500      58.6028       2.4504       0.2270       6.2446       8.9657
   2291.7000      58.8766       2.4424       0.2153       6.1387       8.9873
   2291.8500      59.6546       2.4304       0.2149       5.9394       9.0551
   2292.0000      62.1341       2.4250       0.2202       5.4707       8.9966
   2292.1500      60.5256       2.4201       0.2111       5.8461       9.1293
   2292.3000      61.1690       2.4207       0.2042       5.1940       9.1464
   2292.4500      63.0070       2.4193       0.2129       5.2332       8.9948
   2292.6000      66.2461       2.4034       0.2203       5.8167       9.0675
   2292.7500      69.7718       2.3876       0.2282       6.0958       8.9686
   2292.9000      69.8743       2.3968       0.2270       5.7774       8.9663
   2293.0500      73.1210       2.3971       0.2311       5.6392       8.8568
   2293.2000      72.4659       2.4116       0.2342       5.9721       8.8207
   2293.3500      71.3080       2.4051       0.2382       6.4339       8.8153
   2293.5000      69.0276       2.4207       0.2302       6.5541       8.8487
   2293.6500      70.4346       2.4223       0.2379       6.4236       8.8557
   2293.8000      69.9572       2.4060       0.2445       6.7137       8.8925
   2293.9500      67.9255       2.3817       0.2585       6.7057       8.8873
   2294.1000      70.9033       2.3868       0.2626       6.6147       8.8062
   2294.2500      72.2015       2.3860       0.2579       7.2123       8.7557
   2294.4000      74.1080       2.3777       0.2528       6.5982       8.7013
   2294.5500      74.2589       2.3755       0.2575       7.2468       8.7478
   2294.7000      74.4591       2.3915       0.2549       7.4044       8.7577
   2294.8500      75.3013       2.3827       0.2517       8.3285       8.7647
   2295.0000      71.8170       2.3795       0.2443       8.7854       8.7511
   2295.1500      72.3240       2.3933       0.2458       8.5041       8.7729
   2295.3000      71.2491       2.3894       0.2472       8.8824       8.6793
   2295.4500      71.2669       2.3886       0.2491       8.6337       8.6756
   2295.6000      72.2210       2.4118       0.2511       7.8705       8.6732
   2295.7500      70.1500       2.4067       0.2472       7.9074       8.7812
   2295.9000      72.9795       2.3944       0.2391       8.1416       8.8446
   2296.0500      70.7583       2.3872       0.2387       8.0874       8.7812
   2296.2000      71.6767       2.3862       0.2465       8.3435       8.8573
   2296.3500      72.5579       2.3907       0.2474       7.7515       8.9228
   2296.5000      71.3717       2.3788       0.2462       7.9077       8.8964
   2296.6500      72.0063       2.3712       0.2414       7.9685       8.8657
   2296.8000      70.4904       2.3896       0.2386       7.5489       8.8483
   2296.9500      71.3097       2.4078       0.2303       7.3371       8.7922
   2297.1000      69.4828       2.4042       0.2319       7.7155       8.7606
   2297.2500      66.7584       2.3991       0.2263       6.9515       8.6937
   2297.4000      63.5033       2.4101       0.2312       7.4244       8.7486
   2297.5500      61.8350       2.4069       0.2253       7.2714       8.8353
   2297.7000      61.4674       2.3909       0.2272       6.8656       8.7599
   2297.8500      62.7346       2.4030       0.2402       6.5481       8.6460
   2298.0000      66.0053       2.4087       0.2472       6.3473       8.6983
   2298.1500      65.4854       2.3935       0.2459       6.1371       8.5677
   2298.3000      65.9420       2.4022       0.2437       6.5031       8.5959
   2298.4500      63.7791       2.3995       0.2286       6.5543       8.6210
   2298.6000      63.0335       2.3951       0.2284       6.7051       8.7248
   2298.7500      63.4292       2.4052       0.2273       6.2793       8.6589
   2298.9000      62.0146       2.4004       0.2399       6.7747       8.6423
   2299.0500      62.4362       2.4156       0.2412       7.3354       8.6368
   2299.2000      62.4484       2.4044       0.2399       7.8736       8.6707
   2299.3500      61.9109       2.4158       0.2345       8.5475       8.6761
   2299.5000      62.9483       2.4206       0.2381       8.5324       8.6916
   2299.6500      60.7825       2.4313       0.2241       8.1795       8.8375
   2299.8000      61.1190       2.4276       0.2191       8.2607       8.8422
   2299.9500      61.5159       2.4347       0.2240       8.5298       8.8263
   2300.1000      62.1501       2.4380       0.2252       8.3518       8.7288
   2300.2500      63.4154       2.4387       0.2239       8.4358       8.8075
   2300.4000      64.8640       2.4346       0.2249       8.8751       8.7425
   2300.5500      65.6508       2.4383       0.2299       8.9368       8.7426
   2300.7000      65.2951       2.4361       0.2315      10.1571       8.7388
   2300.8500      65.1433       2.4264       0.2232       9.9220       8.7026
   2301.0000      63.1244       2.4395       0.2208      10.1840       8.6923
   2301.1500      65.0328       2.4373       0.2195      10.2041       8.6149
   2301.3000      66.6276       2.4335       0.2202       9.7949       8.6641
   2301.4500      68.7571       2.4377       0.2363       9.6985       8.6602
   2301.6000      67.9522       2.4233       0.2271       9.7214       8.7451
   2301.7500      67.2530       2.4154       0.2238      10.2091       8.7926
   2301.9000      69.8941       2.4171       0.2187       9.8133       8.8920
   2302.0500      69.2752       2.4172       0.2165       8.7877       8.8922
   2302.2000      69.4131       2.4225       0.2178       7.7359       8.8832
   2302.3500      68.8909       2.4193       0.2134       7.5641       8.9437
   2302.5000      68.8393       2.4187       0.2152       7.8230       8.8473
   2302.6500      68.7648       2.4170       0.2219       7.4347       8.8418
   2302.8000      68.7888       2.4166       0.2250       7.5974       8.8062
   2302.9500      67.7707       2.4065       0.2251       7.8980       8.8384
   2303.1000      68.9763       2.4108       0.2243       7.7891       8.8179
   2303.2500      66.9241       2.3978       0.2301       8.1281       8.7732
