~VERSION -------------------------------------------
 VERS.                 2.0 : CWLS LOG ASCII STANDARD - VERSION 2.0
 WRAP.                  NO : ONE LINE PER DEPTH STEP
~WELL -----------------------------------------------
 WELL.                KG-D6-A : Well name
 UWI .                IN-KGD-006        : Unique Well ID
 LAT .                16.3421        : Latitude
 LON .                82.5123        : Longitude
 STRT.M               1500.00 : START DEPTH
 STOP.M               3199.95 : STOP DEPTH
 STEP.M               0.1500 : STEP
 NULL.                -9999 : NULL VALUE
~CURVE -----------------------------------------------
 DEPTH .M               : Depth
 GR    .GAPI            : Gamma Ray
 RHOB  .G/C3            : Bulk Density
 NPHI  .V/V             : Neutron Porosity
 RT    .OHMM            : Resistivity
 CALI  .IN              : Caliper
~A  DEPTH              GR        RHOB        NPHI          RT        CALI
# ...
   2056.2000      67.9632       2.4700       0.2018       6.7388       8.8084
   2056.3500      70.1939       2.4554       0.2017       7.5000       8.8420
   2056.5000      66.3109       2.4550       0.2018       7.8778       8.8945
   2056.6500      66.4966       2.4636       0.2037       8.1708       8.9493
   2056.8000      68.6790       2.4486       0.1938       7.1328       8.9064
   2056.9500      67.5813       2.4496       0.2007       7.6835       8.8213
   2057.1000      67.5007       2.4484       0.2053       7.9942       8.7278
   2057.2500      64.6207       2.4313       0.2120       7.9814       8.6722
   2057.4000      63.6741       2.4292       0.2074       7.8250       8.7420
   2057.5500      64.6521       2.4268       0.2100       8.2753       8.7722
   2057.7000      66.5801       2.4159       0.2226       8.3946       8.6013
   2057.8500      63.5530       2.4300       0.2268       8.7804       8.6227
   2058.0000      63.5651       2.4271       0.2293       7.7908       8.6417
   2058.1500      63.7536       2.4290       0.2366       8.3935       8.6050
   2058.3000      65.2741       2.4370       0.2272       8.2566       8.6958
   2058.4500      64.6784       2.4355       0.2225       8.3023       8.7311
   2058.6000      64.1013       2.4344       0.2207       9.1029       8.7243
   2058.7500      64.7624       2.4304       0.2126       8.2278       8.7426
   2058.9000      64.3722       2.4366       0.2162       8.3073       8.7154
   2059.0500      66.1056       2.4246       0.2140       7.5319       8.7397
   2059.2000      67.1062       2.4113       0.2135       7.4906       8.8185
   2059.3500      62.0951       2.3967       0.2020       7.1223       8.7695
   2059.5000      62.6427       2.4016       0.2074       6.9430       8.8232
   2059.6500      61.8058       2.3977       0.1997       6.9991       8.8488
   2059.8000      60.2278       2.4086       0.2050       7.0993       8.8418
   2059.9500      62.8422       2.4088       0.2030       6.8582       8.8602
   2060.1000      64.0291       2.4221       0.2081       7.1235       8.9055
   2060.2500      65.5826       2.4376       0.2015       6.0916       8.9077
   2060.4000      65.5943       2.4395       0.2055       5.5945       8.8962
   2060.5500      67.0830       2.4370       0.2043       5.8922       8.9176
   2060.7000      65.0961       2.4318       0.1968       5.9038       8.9713
   2060.8500      65.8702       2.4204       0.1996       5.9446       8.9621
   2061.0000      65.9681       2.4091       0.2014       6.4380       8.9187
   2061.1500      65.7605       2.4054       0.2055       6.0398       8.8918
   2061.3000      63.7440       2.3980       0.2135       6.4269       8.8776
   2061.4500      64.4572       2.3940       0.2171       6.2522       8.8491
   2061.6000      63.7460       2.4017       0.2176       5.6630       8.8651
   2061.7500      61.7594       2.3898       0.2254       6.5773       8.8159
   2061.9000      58.4687       2.3831       0.2186       6.9466       8.8631
   2062.0500      59.5392       2.3971       0.2203       7.6596       8.8885
   2062.2000      58.1580       2.3969       0.2111       7.9102       8.8691
   2062.3500      60.2462       2.4098       0.2144       8.3965       8.9333
   2062.5000      62.2605       2.3980       0.2076       8.9548       8.9273
   2062.6500      61.0944       2.3982       0.2080       8.6059       8.8327
   2062.8000      60.5889       2.4001       0.2080       8.8096       8.7881
   2062.9500      56.9658       2.3932       0.2047       9.0195       8.7934
   2063.1000      56.6393       2.3795       0.1980       8.8433       8.7580
   2063.2500      58.0000       2.3712       0.1925      10.1024       8.8767
   2063.4000      57.7213       2.3734       0.1926      11.6015       8.8291
   2063.5500      55.9978       2.3791       0.1984       9.3785       8.7807
   2063.7000      55.0721       2.3856       0.2024      10.1412       8.6978
   2063.8500      58.0043       2.3885       0.1992       9.8449       8.6309
   2064.0000      58.9987       2.3971       0.1938      10.0750       8.5529
   2064.1500      58.2839       2.3898       0.1883      10.3295       8.5966
   2064.3000      59.6247       2.3888       0.1813      10.2107       8.6143
   2064.4500      59.4230       2.3969       0.1780       9.6620       8.6003
   2064.6000      59.0746       2.3847       0.1782      10.3329       8.5883
   2064.7500      56.8143       2.4033       0.1745       9.7437       8.5517
   2064.9000      59.5399       2.3924       0.1756       9.9147       8.6000
   2065.0500      55.1470       2.3849       0.1786       8.9325       8.5954
   2065.2000      56.3597       2.3859       0.1866       8.8352       8.6165
   2065.3500      56.6336       2.3810       0.1854       9.0113       8.6181
   2065.5000      57.0572       2.3918       0.1834       8.9765       8.7452
   2065.6500      56.3353       2.4005       0.1854       8.9925       8.7780
   2065.8000      57.7863       2.4082       0.1827       8.4316       8.8055
   2065.9500      58.9866       2.4029       0.1891       8.5744       8.8097
   2066.1000      57.4486       2.4099       0.1849       7.7791       8.9410
   2066.2500      55.8861       2.4139       0.1866       7.1061       8.8318
   2066.4000      54.9320       2.4144       0.1782       6.2521       8.8037
   2066.5500      54.5955       2.3914       0.1709       6.9439       8.8160
   2066.7000      55.5418       2.4024       0.1627       6.6109       8.7684
   2066.8500      53.7825       2.3952       0.1642       6.6966       8.8697
   2067.0000      53.7570       2.3912       0.1691       6.6582       8.8175
   2067.1500      53.2279       2.3972       0.1696       6.9847       8.7458
   2067.3000      52.1134       2.3906       0.1764       7.0674       8.7082
   2067.4500      54.5492       2.3875       0.1784       7.4548       8.7297
   2067.6000      54.9827       2.3890       0.1800       7.5609       8.6248
   2067.7500      56.4800       2.3823       0.1830       7.7704       8.7577
   2067.9000      57.1524       2.3806       0.1860       7.2081       8.8969
   2068.0500      59.1623       2.3843       0.1835       7.3186       8.9233
   2068.2000      59.6505       2.3836       0.1909       7.4102       8.8976
   2068.3500      57.8734       2.3866       0.1996       7.0819       8.9318
   2068.5000      57.9641       2.3965       0.1991       6.4206       8.9244
   2068.6500      60.0801       2.4001       0.1993       6.6158       8.9712
   2068.8000      59.9609       2.3854       0.2066       7.2191       8.9947
   2068.9500      60.2533       2.3827       0.2034       7.5713       8.9859
   2069.1000      61.3747       2.3714       0.2035       7.9476       9.0193
   2069.2500      61.1644       2.3745       0.2056       7.6865       9.0678
   2069.4000      64.5186       2.3702       0.2190       8.3790       8.8955
   2069.5500      65.2830       2.3753       0.2259       8.6023       8.7943
   2069.7000      63.7625       2.3648       0.2312       9.1431       8.7932
   2069.8500      64.5611       2.3630       0.2285       9.2081       8.7667
   2070.0000      65.9081       2.3666       0.2237       9.1907       8.8208
   2070.1500      65.5426       2.3749       0.2300       8.8227       8.7690
   2070.3000      67.0397       2.3705       0.2320       9.5818       8.7002
   2070.4500      67.9200       2.3854       0.2219       9.9763       8.6720
   2070.6000      67.3710       2.3878       0.2262       9.6077       8.6350
   2070.7500      68.6150       2.3770       0.2194       9.3530       8.6026
   2070.9000      66.9146       2.3897       0.2208      10.2345       8.6885
   2071.0500      68.7830       2.3712       0.2162      10.8091       8.7663
   2071.2000      68.9321       2.3818       0.2068      11.0858       8.8108
   2071.3500      68.1236       2.3830       0.2088      10.3205       8.7758
   2071.5000      65.8704       2.3820       0.2052      10.7231       8.6691
