~VERSION -------------------------------------------
 VERS.                 2.0 : CWLS LOG ASCII STANDARD - VERSION 2.0
 WRAP.                  NO : ONE LINE PER DEPTH STEP
~WELL -----------------------------------------------
 WELL.                KG-D6-A : Well name
 UWI .                IN-KGD-006        : Unique Well ID
 LAT .                16.3421        : Latitude
 LON .                82.5123        : Longitude
 STRT.M               1500.00 : START DEPTH
 STOP.M               3199.95 : STOP DEPTH
 STEP.M               0.1500 : STEP
 NULL.                -9999 : NULL VALUE
~CURVE -----------------------------------------------
 DEPTH .M               : Depth
 GR    .GAPI            : Gamma Ray
 RHOB  .G/C3            : Bulk Density
 NPHI  .V/V             : Neutron Porosity
 RT    .OHMM            : Resistivity
 CALI  .IN              : Caliper
~A  DEPTH              GR        RHOB        NPHI          RT        CALI
# ...
   2736.0000      70.8694       2.3350       0.2184       7.3529       8.7072
   2736.1500      73.9234       2.3457       0.2378       8.0717       8.7880
   2736.3000      73.4706       2.3687       0.2337       8.6465       8.8707
   2736.4500      74.1911       2.3470       0.2252       8.2167       8.8157
   2736.6000      71.9792       2.3657       0.2116       7.8386       8.7809
   2736.7500      74.6079       2.3627       0.2074       7.6153       8.6532
   2736.9000      72.9292       2.3587       0.2184       7.2404       8.6851
   2737.0500      73.0219       2.3636       0.2154       6.8407       8.6962
   2737.2000      71.6206       2.3677       0.2234       6.8444       8.7850
   2737.3500      72.6115       2.3743       0.2209       6.5750       8.8824
   2737.5000      71.3625       2.3794       0.2184       7.1162       8.8797
   2737.6500      69.2804       2.3767       0.2204       6.6074       8.8598
   2737.8000      69.6925       2.3693       0.2168       7.1369       8.7356
   2737.9500      69.9625       2.3661       0.2223       7.3133       8.6622
   2738.1000      70.3446       2.3588       0.2247       7.0720       8.6807
   2738.2500      71.0119       2.3669       0.2197       6.7462       8.7092
   2738.4000      70.7003       2.3664       0.2219       7.0980       8.6865
   2738.5500      69.2295       2.3691       0.2173       6.9170       8.6344
   2738.7000      68.5970       2.3665       0.2150       6.8966       8.5993
   2738.8500      68.8130       2.3640       0.2105       6.7619       8.6244
   2739.0000      68.2700       2.3940       0.2204       6.6812       8.6447
   2739.1500      68.1664       2.3904       0.2063       6.9152       8.6347
   2739.3000      68.9628       2.3856       0.2062       7.5405       8.7256
   2739.4500      69.5593       2.4047       0.1997       7.4822       8.7789
   2739.6000      70.8083       2.4106       0.2033       7.4128       8.7391
   2739.7500      69.5023       2.4062       0.2126       7.9560       8.7431
   2739.9000      69.8747       2.4080       0.2076       8.0532       8.8489
   2740.0500      67.8432       2.4238       0.2097       7.9637       8.8537
   2740.2000      69.2290       2.4323       0.2023       7.4399       8.8160
   2740.3500      68.4924       2.4257       0.2122       8.0388       8.7876
   2740.5000      67.8418       2.4253       0.2187       8.1650       8.7242
   2740.6500      69.7245       2.4265       0.2174       8.6264       8.6871
   2740.8000      69.5666       2.4373       0.2270       8.8043       8.6156
   2740.9500      66.9220       2.4538       0.2217       9.1601       8.6136
   2741.1000      67.6365       2.4567       0.2201       8.8181       8.6257
   2741.2500      66.6053       2.4518       0.2209       7.9150       8.6177
   2741.4000      67.7842       2.4577       0.2215       7.5286       8.5568
   2741.5500      69.7574       2.4559       0.2137       8.1167       8.5814
   2741.7000      68.9492       2.4466       0.2159       7.7704       8.5771
   2741.8500      66.4669       2.4584       0.2152       7.6161       8.4801
   2742.0000      68.0467       2.4601       0.2174       7.6539       8.4740
   2742.1500      67.1784       2.4456       0.2190       7.7892       8.5602
   2742.3000      68.4056       2.4472       0.2213       6.8056       8.6052
   2742.4500      70.1526       2.4442       0.2289       6.6447       8.5517
   2742.6000      70.0440       2.4279       0.2291       6.6067       8.5658
   2742.7500      69.7595       2.4187       0.2220       6.2760       8.6853
   2742.9000      71.4291       2.4240       0.2262       6.9627       8.7636
   2743.0500      73.5698       2.4117       0.2229       7.3791       8.7802
   2743.2000      73.6682       2.4105       0.2243       7.0781       8.8323
   2743.3500      70.9994       2.4306       0.2175       7.1248       8.8856
   2743.5000      70.0710       2.4399       0.2297       7.2275       8.9601
   2743.6500      69.3332       2.4515       0.2222       7.2076       8.9604
   2743.8000      67.6014       2.4370       0.2167       8.0321       8.9215
   2743.9500      67.6014       2.4142       0.2176       8.1670       9.0267
   2744.1000      68.1877       2.4114       0.2254       8.6088       9.0430
   2744.2500      65.9435       2.4176       0.2317       9.2079       8.9515
   2744.4000      65.0938       2.4079       0.2335       9.7990       8.9209
   2744.5500      62.4541       2.4069       0.2514       9.4422       8.8205
   2744.7000      59.2245       2.4086       0.2535       9.3749       8.7535
   2744.8500      58.3563       2.4002       0.2553       9.5754       8.8362
   2745.0000      57.3515       2.3876       0.2433       9.4713       8.8185
   2745.1500      57.8426       2.4004       0.2504       9.6292       8.7094
   2745.3000      56.3657       2.4000       0.2507      11.0272       8.8210
   2745.4500      54.4709       2.3834       0.2524      12.3701       8.7106
   2745.6000      55.6730       2.3809       0.2465      12.9062       8.6381
   2745.7500      53.7901       2.3966       0.2500      11.9242       8.6673
   2745.9000      52.3450       2.3966       0.2576      10.7026       8.6687
   2746.0500      52.4304       2.4002       0.2537      10.7208       8.7637
   2746.2000      53.0425       2.3940       0.2488      11.2474       8.8833
   2746.3500      52.0869       2.3751       0.2457       9.9812       8.7734
   2746.5000      53.7482       2.3563       0.2280       9.5873       8.7465
   2746.6500      52.3095       2.3409       0.2261      10.3551       8.8190
   2746.8000      55.2239       2.3478       0.2294       9.6593       8.7609
   2746.9500      57.5656       2.3507       0.2248       9.7324       8.8135
   2747.1000      56.4332       2.3535       0.2152      10.6004       8.8195
   2747.2500      58.6183       2.3471       0.2146      10.7334       8.8102
   2747.4000      59.2139       2.3714       0.2063      10.9313       8.7766
   2747.5500      62.5345       2.3676       0.1958      10.4756       8.7825
   2747.7000      62.0645       2.3641       0.1951      10.9896       8.7056
   2747.8500      65.4048       2.3659       0.1971      10.4468       8.7288
   2748.0000      64.5920       2.3731       0.2003      10.5268       8.7174
   2748.1500      64.5691       2.3833       0.1969       9.4519       8.7035
   2748.3000      63.5971       2.3659       0.1975       8.0141       8.6602
   2748.4500      61.9101       2.3886       0.1968       7.6976       8.6449
   2748.6000      62.4162       2.4086       0.2106       7.4991       8.7393
   2748.7500      66.4600       2.4057       0.2166       7.6835       8.8145
   2748.9000      66.2901       2.4032       0.1982       9.1669       8.8759
   2749.0500      64.4313       2.4027       0.2016       8.8110       8.8625
   2749.2000      63.0425       2.4054       0.2013       8.9679       8.8097
   2749.3500      65.9909       2.4045       0.1979       9.7473       8.8301
   2749.5000      66.1506       2.4170       0.2055       9.7545       8.8815
   2749.6500      66.1430       2.4279       0.2161       8.1890       8.8228
   2749.8000      64.2135       2.4427       0.2060       7.5025       8.8817
   2749.9500      63.6967       2.4489       0.2043       6.8971       8.9076
   2750.1000      63.1109       2.4557       0.2088       5.7172       8.8436
   2750.2500      62.6019       2.4681       0.2081       5.6911       8.7717
   2750.4000      61.9991       2.4423       0.2115       5.5606       8.7057
   2750.5500      59.1985       2.4519       0.2177       5.5745       8.7276
   2750.7000      64.7951       2.4592       0.2192       5.4664       8.7929
   2750.8500      63.5530       2.4522       0.2196       6.0513       8.8494
   2751.0000      66.4085       2.4474       0.2251       6.0155       8.7684
   2751.1500      65.4575       2.4252       0.2183       5.7284       8.8842
   2751.3000      67.3459       2.4380       0.2213       6.1171       8.8670
