~VERSION -------------------------------------------
 VERS.                 2.0 : CWLS LOG ASCII STANDARD - VERSION 2.0
 WRAP.                  NO : ONE LINE PER DEPTH STEP
~WELL -----------------------------------------------
 WELL.                KG-D6-A : Well name
 UWI .                IN-KGD-006        : Unique Well ID
 LAT .                16.3421        : Latitude
 LON .                82.5123        : Longitude
 STRT.M               1500.00 : START DEPTH
 STOP.M               3199.95 : STOP DEPTH
 STEP.M               0.1500 : STEP
 NULL.                -9999 : NULL VALUE
~CURVE -----------------------------------------------
 DEPTH .M               : Depth
 GR    .GAPI            : Gamma Ray
 RHOB  .G/C3            : Bulk Density
 NPHI  .V/V             : Neutron Porosity
 RT    .OHMM            : Resistivity
 CALI  .IN              : Caliper
~A  DEPTH              GR        RHOB        NPHI          RT        CALI
# ...
   2844.1500      64.8651       2.3954       0.1805       8.6462       8.5051
   2844.3000      65.7271       2.4014       0.1923       8.8717       8.5909
   2844.4500      64.6153       2.4069       0.1836       9.1940       8.6298
   2844.6000      65.4866       2.4064       0.1925       9.1327       8.6035
   2844.7500      67.1632       2.4076       0.2051       8.7623       8.5701
   2844.9000      66.0828       2.4208       0.2055       9.0851       8.5740
   2845.0500      64.0669       2.4301       0.2105       8.1794       8.6134
   2845.2000      67.8156       2.4231       0.2252       8.4777       8.6389
   2845.3500      66.7579       2.4083       0.2206       8.9904       8.7378
   2845.5000      68.6851       2.4304       0.2203       9.9001       8.7875
   2845.6500      69.8468       2.4415       0.2333       9.5554       8.7620
   2845.8000      67.9979       2.4392       0.2279       9.7157       8.7630
   2845.9500      68.1638       2.4377       0.2398       9.9356       8.8777
   2846.1000      69.4070       2.4442       0.2353      10.1210       8.9029
   2846.2500      69.6480       2.4462       0.2310      10.5191       8.9340
   2846.4000      73.5429       2.4381       0.2236       9.5239       8.9916
   2846.5500      72.3781       2.4353       0.2347       8.0127       8.9163
   2846.7000      70.8083       2.4438       0.2444       8.1077       8.9556
   2846.8500      71.7355       2.4202       0.2396       8.2299       8.9102
   2847.0000      72.5288       2.4346       0.2536       8.8025       8.9134
   2847.1500      75.0849       2.4425       0.2496       9.2255       8.9422
   2847.3000      78.3041       2.4340       0.2489       9.1329       8.9812
   2847.4500      77.4105       2.4231       0.2618       8.8769       8.8823
   2847.6000      75.9497       2.4319       0.2577       9.2427       8.8629
   2847.7500      74.4425       2.4315       0.2399      10.0287       8.9020
   2847.9000      74.1942       2.4254       0.2485       9.5964       8.8471
   2848.0500      74.9216       2.4163       0.2454      10.6151       8.9143
   2848.2000      69.0216       2.4262       0.2351      10.5161       8.8282
   2848.3500      71.3099       2.4268       0.2401      10.2732       8.8667
   2848.5000      71.6310       2.4125       0.2482       9.2370       8.8263
   2848.6500      69.7150       2.3959       0.2345      11.2064       8.7725
   2848.8000      71.0809       2.4068       0.2438      11.0738       8.7487
   2848.9500      72.7517       2.4132       0.2297      11.4292       8.6829
   2849.1000      67.9746       2.4162       0.2355      10.7561       8.5947
   2849.2500      69.8989       2.4235       0.2476      10.7730       8.5219
   2849.4000      68.9443       2.4283       0.2525      11.5253       8.5323
   2849.5500      70.0317       2.4439       0.2504      11.7604       8.4817
   2849.7000      69.2934       2.4442       0.2358      11.8487       8.5832
   2849.8500      69.8635       2.4513       0.2400      11.3910       8.5206
   2850.0000      70.9777       2.4343       0.2285      10.2539       8.5803
   2850.1500      67.2144       2.4302       0.2334      10.1456       8.5971
   2850.3000      61.3144       2.4442       0.2375      10.2329       8.4928
   2850.4500      63.3460       2.4291       0.2366      10.9060       8.5484
   2850.6000      64.7866       2.4216       0.2408      10.8454       8.6482
   2850.7500      65.0358       2.4341       0.2425      10.1936       8.6723
   2850.9000      67.8190       2.4183       0.2304       9.5696       8.7341
   2851.0500      65.1048       2.4183       0.2338       9.5769       8.7143
   2851.2000      67.8253       2.4131       0.2295       9.6038       8.6731
   2851.3500      68.8624       2.4099       0.2247       9.2687       8.6628
   2851.5000      67.2581       2.4121       0.2174       9.1239       8.7028
   2851.6500      69.9638       2.4044       0.2236       7.8170       8.8153
   2851.8000      67.1304       2.3949       0.2156       7.8190       8.8484
   2851.9500      66.1681       2.3953       0.2179       7.4200       8.8523
   2852.1000      70.5677       2.3951       0.2102       8.0615       8.8108
   2852.2500      68.0081       2.3982       0.2139       8.2247       8.7620
   2852.4000      65.2608       2.3961       0.2063       8.5903       8.7492
   2852.5500      64.6402       2.3792       0.2077       8.8795       8.7949
   2852.7000      64.5882       2.3698       0.2130       8.5945       8.8143
   2852.8500      65.6762       2.3719       0.2163       7.8270       8.8846
   2853.0000      65.5784       2.3635       0.2232       8.1854       8.7530
   2853.1500      65.6413       2.3710       0.2227       8.5028       8.6552
   2853.3000      68.8756       2.3524       0.2116       8.3349       8.6841
   2853.4500      67.5418       2.3595       0.2066       8.4019       8.6544
   2853.6000      67.2273       2.3455       0.2015       8.1757       8.6324
   2853.7500      66.9833       2.3528       0.2021       9.1432       8.6675
   2853.9000      66.1874       2.3630       0.2076       9.1044       8.6356
   2854.0500      69.3253       2.3729       0.2006       9.2781       8.5520
   2854.2000      69.7475       2.3746       0.2085       9.2956       8.6186
   2854.3500      69.6347       2.3791       0.2071      10.3059       8.6506
   2854.5000      68.3406       2.3813       0.2095      11.5162       8.6439
   2854.6500      65.5967       2.3894       0.2099      10.8807       8.6973
   2854.8000      68.9418       2.3852       0.2114      11.9271       8.8136
   2854.9500      71.4303       2.3813       0.2066      12.9113       8.8859
   2855.1000      71.1337       2.3834       0.2101      12.2934       8.8574
   2855.2500      70.5925       2.3809       0.2088      12.0484       8.8920
   2855.4000      71.4343       2.3830       0.2132      12.5384       8.8276
   2855.5500      72.5811       2.3868       0.2115      13.9981       8.8011
   2855.7000      72.9009       2.3996       0.2210      14.0466       8.6877
   2855.8500      69.0256       2.3835       0.2155      14.5131       8.6104
   2856.0000      68.9958       2.4027       0.2105      14.2578       8.6819
   2856.1500      72.3358       2.3996       0.2080      12.5051       8.6466
   2856.3000      71.1333       2.3999       0.2082      11.4278       8.5582
   2856.4500      69.6841       2.4139       0.1985      10.6457       8.5446
   2856.6000      70.2497       2.4316       0.1983      11.5265       8.6861
   2856.7500      69.3162       2.4164       0.1981      10.8984       8.7022
   2856.9000      67.3757       2.4210       0.1893      11.4565       8.7643
   2857.0500      65.9391       2.4184       0.1904      11.6230       8.7731
   2857.2000      65.3393       2.4249       0.1870      11.3754       8.7141
   2857.3500      64.5007       2.4331       0.1875      11.1034       8.7730
   2857.5000      65.9552       2.4275       0.1825      10.8364       8.7383
   2857.6500      67.2808       2.4289       0.1807      10.3543       8.7334
   2857.8000      67.8826       2.4315       0.1862       8.9612       8.6974
   2857.9500      65.7847       2.4437       0.1911       7.7383       8.6253
   2858.1000      64.4097       2.4430       0.1944       8.9590       8.5545
   2858.2500      66.1426       2.4416       0.1880       9.0986       8.5502
   2858.4000      66.5153       2.4277       0.1936       8.1968       8.4881
   2858.5500      65.8430       2.4268       0.1885       7.7268       8.5297
   2858.7000      63.5798       2.4155       0.1759       8.1715       8.6317
   2858.8500      66.4998       2.4305       0.1861       9.0934       8.5062
   2859.0000      63.3691       2.4156       0.1891       8.8904       8.6168
   2859.1500      60.0679       2.4012       0.1908       8.8535       8.6117
   2859.3000      58.7466       2.4132       0.1885       9.6620       8.5569
   2859.4500      60.1874       2.4135       0.2024       9.7216       8.5891
