~VERSION -------------------------------------------
 VERS.                 2.0 : CWLS LOG ASCII STANDARD - VERSION 2.0
 WRAP.                  NO : ONE LINE PER DEPTH STEP
~WELL -----------------------------------------------
 WELL.                KG-D6-A : Well name
 UWI .                IN-KGD-006        : Unique Well ID
 LAT .                16.3421        : Latitude
 LON .                82.5123        : Longitude
 STRT.M               1500.00 : START DEPTH
 STOP.M               3199.95 : STOP DEPTH
 STEP.M               0.1500 : STEP
 NULL.                -9999 : NULL VALUE
~CURVE -----------------------------------------------
 DEPTH .M               : Depth
 GR    .GAPI            : Gamma Ray
 RHOB  .G/C3            : Bulk Density
 NPHI  .V/V             : Neutron Porosity
 RT    .OHMM            : Resistivity
 CALI  .IN              : Caliper
~A  DEPTH              GR        RHOB        NPHI          RT        CALI
# ...
   1608.1500      69.5468       2.3724       0.1963       7.5013       8.7536
   1608.3000      67.5398       2.3967       0.2011       7.4946       8.7936
   1608.4500      67.5120       2.4082       0.1990       7.9070       8.7628
   1608.6000      69.8919       2.4074       0.1991       8.1138       8.8338
   1608.7500      69.4673       2.4023       0.2123       9.0787       8.8067
   1608.9000      68.9422       2.4035       0.2174       8.8151       8.7252
   1609.0500      70.7791       2.3912       0.2211       8.2886       8.7530
   1609.2000      69.2202       2.4103       0.2245       8.2293       8.7110
   1609.3500      70.5374       2.4133       0.2181       8.2782       8.7725
   1609.5000      71.6402       2.3989       0.2154       8.7918       8.8268
   1609.6500      72.8821       2.4161       0.2176       9.0520       8.6813
   1609.8000      71.5952       2.4162       0.2172       8.6425       8.7116
   1609.9500      72.4042       2.4252       0.2224       8.2843       8.7109
   1610.1000      73.8389       2.4339       0.2153       8.4807       8.6952
   1610.2500      73.2872       2.4282       0.2106       8.8796       8.7279
   1610.4000      71.9927       2.4243       0.2064       8.2612       8.7923
   1610.5500      71.0950       2.4164       0.2028       8.9142       8.6926
   1610.7000      71.3745       2.4397       0.2071       8.7663       8.6245
   1610.8500      68.3156       2.4567       0.2097       8.8856       8.5820
   1611.0000      68.1135       2.4529       0.2160       9.4177       8.5604
   1611.1500      66.4956       2.4514       0.2224       9.3376       8.6807
   1611.3000      67.7783       2.4378       0.2214       8.8864       8.6239
   1611.4500      69.6876       2.4335       0.2197       8.2797       8.6195
   1611.6000      69.8844       2.4290       0.2145       8.2726       8.6358
   1611.7500      68.7430       2.4368       0.2035       7.8221       8.6768
   1611.9000      69.8958       2.4368       0.1956       8.1712       8.6926
   1612.0500      66.7290       2.4378       0.1953       8.2154       8.7439
   1612.2000      65.4676       2.4286       0.1954       7.8754       8.7795
   1612.3500      63.5238       2.4131       0.1939       8.6442       8.8499
   1612.5000      61.4854       2.4134       0.1996       8.2665       8.8577
   1612.6500      59.4137       2.4097       0.2051       7.8826       8.8623
   1612.8000      61.7484       2.4053       0.2073       7.9978       8.9295
   1612.9500      61.7662       2.4082       0.2003       8.2269       8.9272
   1613.1000      59.5656       2.3893       0.2066       8.1807       8.8423
   1613.2500      58.1001       2.3827       0.2096       8.2071       8.7991
   1613.4000      58.3154       2.3871       0.2171       8.3736       8.8592
   1613.5500      58.1805       2.3886       0.2219       7.8019       8.8751
   1613.7000      59.3534       2.3922       0.2293       7.0760       8.9288
   1613.8500      60.3498       2.3793       0.2342       6.8233       8.9062
   1614.0000      61.5446       2.3830       0.2389       6.0488       8.9459
   1614.1500      59.5557       2.3543       0.2384       6.4875       8.8339
   1614.3000      56.9887       2.3569       0.2289       6.5014       8.7332
   1614.4500      52.4546       2.3571       0.2304       6.5151       8.6582
   1614.6000      50.5910       2.3529       0.2366       6.8656       8.6970
   1614.7500      51.4927       2.3491       0.2445       6.8192       8.7148
   1614.9000      50.6298       2.3432       0.2515       6.4079       8.7420
   1615.0500      52.8228       2.3562       0.2474       6.0713       8.6716
   1615.2000      56.1742       2.3654       0.2382       6.2034       8.5504
   1615.3500      58.0262       2.3760       0.2439       5.9263       8.5336
   1615.5000      60.9203       2.3904       0.2417       5.7363       8.4269
   1615.6500      65.1485       2.3787       0.2323       5.9913       8.4335
   1615.8000      64.6529       2.3644       0.2250       5.9919       8.5620
   1615.9500      63.4307       2.3475       0.2365       5.9109       8.6785
   1616.1000      63.6241       2.3439       0.2320       6.2461       8.6525
   1616.2500      66.3481       2.3502       0.2354       6.0148       8.6756
   1616.4000      66.5370       2.3545       0.2327       6.1058       8.5499
   1616.5500      64.4694       2.3598       0.2293       6.3924       8.5290
   1616.7000      64.9272       2.3560       0.2227       6.3279       8.5589
   1616.8500      62.5560       2.3674       0.2176       6.6007       8.5869
   1617.0000      60.0528       2.3559       0.2140       6.6085       8.5870
   1617.1500      62.4725       2.3764       0.2087       6.1881       8.6243
   1617.3000      64.6893       2.3790       0.2115       6.1506       8.5621
   1617.4500      66.4190       2.3735       0.2070       6.3202       8.4356
   1617.6000      66.6168       2.3657       0.1994       6.6279       8.5081
   1617.7500      65.0894       2.3627       0.1960       7.0564       8.4589
   1617.9000      67.2998       2.3664       0.1909       7.4329       8.4855
   1618.0500      64.9983       2.3642       0.1934       8.6638       8.4880
   1618.2000      65.5431       2.3590       0.1989       8.7207       8.5326
   1618.3500      63.0266       2.3442       0.1952       8.3449       8.4961
   1618.5000      62.5072       2.3212       0.1958       8.5523       8.5029
   1618.6500      60.0123       2.3324       0.2000       8.2746       8.5153
   1618.8000      59.9411       2.3473       0.2067       7.7709       8.4571
   1618.9500      59.3213       2.3554       0.2003       7.2745       8.5716
   1619.1000      61.9797       2.3617       0.1999       6.4526       8.5072
   1619.2500      59.1365       2.3675       0.1915       6.6481       8.5989
   1619.4000      60.1492       2.3742       0.1920       7.0355       8.6252
   1619.5500      62.5685       2.3654       0.1890       6.9629       8.6638
   1619.7000      64.1500       2.3692       0.1865       6.9975       8.6631
   1619.8500      66.7313       2.3684       0.1836       6.7633       8.7529
   1620.0000      69.7826       2.3672       0.1817       6.8788       8.8134
   1620.1500      67.9261       2.3662       0.1988       7.3681       8.8647
   1620.3000      66.9557       2.3584       0.2054       7.5511       8.9282
   1620.4500      66.7341       2.3679       0.2026       7.5240       8.8137
   1620.6000      67.7518       2.3906       0.1993       6.8235       8.8078
   1620.7500      66.9340       2.3955       0.2029       6.3750       8.7407
   1620.9000      68.6218       2.3947       0.1982       6.4408       8.7030
   1621.0500      70.2712       2.3958       0.2059       5.8827       8.7050
   1621.2000      67.5115       2.4001       0.2022       5.8530       8.7508
   1621.3500      69.3490       2.4016       0.2044       5.9514       8.7675
   1621.5000      66.3513       2.4162       0.2054       5.9455       8.7477
   1621.6500      66.7004       2.4220       0.2064       6.6916       8.7467
   1621.8000      65.3111       2.4219       0.2121       6.9668       8.7833
   1621.9500      66.4514       2.4319       0.2018       8.0608       8.8572
   1622.1000      64.4763       2.4298       0.2079       9.0998       8.9112
   1622.2500      65.3874       2.4207       0.2117       8.8762       8.8822
   1622.4000      66.3037       2.4188       0.2141       8.6085       8.8793
   1622.5500      64.7238       2.4291       0.2139       8.4372       8.9420
   1622.7000      63.7404       2.4106       0.2197       8.4573       8.9078
   1622.8500      61.9323       2.4055       0.2179       8.8470       8.8485
   1623.0000      62.7137       2.4078       0.2114       9.4078       8.8509
   1623.1500      62.5701       2.4051       0.1939       9.3331       8.7713
   1623.3000      63.6785       2.4056       0.1940       8.9332       8.6559
   1623.4500      66.4246       2.3972       0.2026       8.7489       8.6773
