~VERSION -------------------------------------------
 VERS.                 2.0 : CWLS LOG ASCII STANDARD - VERSION 2.0
 WRAP.                  NO : ONE LINE PER DEPTH STEP
~WELL -----------------------------------------------
 WELL.                KG-D6-A : Well name
 UWI .                IN-KGD-006        : Unique Well ID
 LAT .                16.3421        : Latitude
 LON .                82.5123        : Longitude
 STRT.M               1500.00 : START DEPTH
 STOP.M               3199.95 : STOP DEPTH
 STEP.M               0.1500 : STEP
 NULL.                -9999 : NULL VALUE
~CURVE -----------------------------------------------
 DEPTH .M               : Depth
 GR    .GAPI            : Gamma Ray
 RHOB  .G/C3            : Bulk Density
 NPHI  .V/V             : Neutron Porosity
 RT    .OHMM            : Resistivity
 CALI  .IN              : Caliper
~A  DEPTH              GR        RHOB        NPHI          RT        CALI
# ...
   3075.9000      60.2507       2.3987       0.2169       7.0121       8.6455
   3076.0500      61.1576       2.3959       0.2163       7.0948       8.6663
   3076.2000      58.0355       2.3924       0.2099       7.2642       8.6215
   3076.3500      59.3572       2.3913       0.2121       6.9280       8.6171
   3076.5000      59.9022       2.3909       0.2201       7.4448       8.6030
   3076.6500      58.5901       2.3807       0.2222       6.5612       8.6215
   3076.8000      58.7114       2.3651       0.2275       6.1041       8.6422
   3076.9500      63.4928       2.3701       0.2237       5.7263       8.6327
   3077.1000      62.9927       2.3846       0.2225       6.5013       8.6946
   3077.2500      62.3290       2.3917       0.2183       6.0729       8.7041
   3077.4000      62.8474       2.3908       0.2327       6.1068       8.6684
   3077.5500      61.6234       2.3755       0.2351       6.0510       8.6393
   3077.7000      64.5875       2.3861       0.2224       6.2635       8.6493
   3077.8500      62.8821       2.3906       0.2271       6.6611       8.7333
   3078.0000      60.9388       2.3987       0.2298       7.0356       8.8964
   3078.1500      61.7642       2.3935       0.2245       7.5344       8.9530
   3078.3000      62.3635       2.3828       0.2254       7.6204       9.1078
   3078.4500      61.9621       2.3704       0.2266       6.5808       9.0946
   3078.6000      62.3164       2.3791       0.2261       7.0862       9.0582
   3078.7500      62.1676       2.3709       0.2244       6.6886       8.9870
   3078.9000      62.3269       2.3711       0.2233       6.2331       8.9726
   3079.0500      62.1969       2.3913       0.2240       5.5375       8.9770
   3079.2000      65.9318       2.3995       0.2294       5.5670       8.9935
   3079.3500      63.2524       2.4025       0.2191       6.3530       8.9228
   3079.5000      62.8262       2.4133       0.2187       6.1201       8.7597
   3079.6500      64.3167       2.4128       0.2213       6.5164       8.6628
   3079.8000      63.0405       2.3996       0.2221       6.4966       8.4798
   3079.9500      58.1532       2.3892       0.2317       6.9646       8.4682
   3080.1000      59.3656       2.3862       0.2267       6.8168       8.4403
   3080.2500      59.4406       2.3730       0.2286       7.1680       8.4582
   3080.4000      57.5731       2.3687       0.2221       7.3484       8.4664
   3080.5500      59.9631       2.3739       0.2255       6.5915       8.4599
   3080.7000      58.0535       2.3637       0.2436       7.3432       8.4596
   3080.8500      58.4613       2.3567       0.2441       6.5928       8.5068
   3081.0000      61.0276       2.3509       0.2366       7.1178       8.6499
   3081.1500      61.6201       2.3558       0.2327       6.6608       8.6021
   3081.3000      61.5802       2.3663       0.2310       6.3716       8.6207
   3081.4500      60.9067       2.3734       0.2275       6.8225       8.6091
   3081.6000      60.6272       2.3808       0.2264       5.6097       8.6714
   3081.7500      58.1747       2.3963       0.2290       6.1287       8.6775
   3081.9000      57.1383       2.4144       0.2259       5.8870       8.6661
   3082.0500      55.4624       2.3992       0.2194       6.0204       8.7316
   3082.2000      56.9138       2.3979       0.2248       5.9902       8.8012
   3082.3500      58.8233       2.3975       0.2310       5.5420       8.7722
   3082.5000      60.1934       2.3886       0.2327       5.5209       8.6628
   3082.6500      61.2996       2.4016       0.2349       5.7825       8.8302
   3082.8000      61.5418       2.4135       0.2304       6.1308       8.8188
   3082.9500      63.1449       2.4258       0.2264       6.4966       8.8609
   3083.1000      63.6193       2.4296       0.2284       6.3836       8.7736
   3083.2500      64.4383       2.4410       0.2341       6.6810       8.8456
   3083.4000      65.7677       2.4556       0.2311       6.5325       8.8636
   3083.5500      64.3033       2.4467       0.2214       7.3901       8.7904
   3083.7000      66.1584       2.4627       0.2082       6.4637       8.7236
   3083.8500      66.5838       2.4631       0.2144       6.7118       8.7558
   3084.0000      65.2258       2.4716       0.2198       6.3556       8.9113
   3084.1500      66.1992       2.4779       0.2287       6.4850       8.9152
   3084.3000      64.2153       2.4702       0.2327       7.4213       8.9899
   3084.4500      65.7877       2.4641       0.2326       8.0072       8.9956
   3084.6000      68.6491       2.4533       0.2318      10.0886       8.9950
   3084.7500      72.1935       2.4588       0.2254       9.8344       9.0197
   3084.9000      74.3565       2.4529       0.2156       9.8019       9.0241
   3085.0500      73.3147       2.4474       0.2189      11.1235       9.0879
   3085.2000      68.7320       2.4421       0.2195      10.2170       9.0560
   3085.3500      69.5766       2.4518       0.2174      11.1192       9.0262
   3085.5000      68.0702       2.4465       0.2161      11.3171       8.9292
   3085.6500      66.0141       2.4343       0.2225      12.0385       8.7579
   3085.8000      65.7068       2.4384       0.2204      12.1124       8.6677
   3085.9500      68.1997       2.4081       0.2170      12.0286       8.6093
   3086.1000      67.2897       2.4025       0.2091      11.7886       8.6301
   3086.2500      69.1678       2.4035       0.1940      11.6739       8.5797
   3086.4000      70.3017       2.3740       0.1902      11.7381       8.5616
   3086.5500      71.0655       2.3948       0.1924      12.1316       8.5542
   3086.7000      69.7240       2.3965       0.1928      12.5448       8.5263
   3086.8500      70.2941       2.4016       0.1886      12.2155       8.5642
   3087.0000      71.5056       2.3945       0.1916      12.5810       8.4721
   3087.1500      70.9740       2.3773       0.1876      11.7822       8.6399
   3087.3000      70.4753       2.3685       0.1926      11.0614       8.6606
   3087.4500      70.2524       2.3755       0.1932      10.1645       8.6778
   3087.6000      68.2303       2.3882       0.2037       8.4846       8.7767
   3087.7500      67.1599       2.3817       0.2130       8.3713       8.7668
   3087.9000      63.4813       2.3664       0.2255       8.8100       8.8034
   3088.0500      65.6254       2.3685       0.2233       8.3970       8.7592
   3088.2000      66.7975       2.3750       0.2205       9.0632       8.8629
   3088.3500      64.6716       2.3696       0.2208       8.2643       8.9035
   3088.5000      66.5997       2.3635       0.2307       8.3606       8.9694
   3088.6500      65.2885       2.3650       0.2230       7.6617       8.8823
   3088.8000      66.4729       2.3685       0.2371       7.6636       8.8368
   3088.9500      65.1308       2.3789       0.2348       7.6001       8.7729
   3089.1000      63.6148       2.3689       0.2453       7.4873       8.7320
   3089.2500      60.7419       2.3550       0.2544       7.1619       8.8236
   3089.4000      58.6410       2.3726       0.2651       7.5183       8.7986
   3089.5500      55.7589       2.3540       0.2601       6.7963       8.8194
   3089.7000      52.8463       2.3560       0.2582       6.9168       8.7162
   3089.8500      54.4560       2.3713       0.2555       7.4460       8.6162
   3090.0000      56.1099       2.3739       0.2591       6.9915       8.7213
   3090.1500      55.4783       2.3800       0.2641       7.7003       8.7138
   3090.3000      57.6939       2.3915       0.2543       8.2295       8.7911
   3090.4500      56.7143       2.3835       0.2444       8.1515       8.9269
   3090.6000      56.8225       2.3672       0.2390       8.0933       8.9147
   3090.7500      57.7208       2.3760       0.2304       8.2644       8.9291
   3090.9000      60.5641       2.3777       0.2197       8.0781       9.0047
   3091.0500      62.4635       2.3753       0.2241       7.4859       9.0243
   3091.2000      65.8741       2.3730       0.2134       7.5565       9.0203
