~VERSION -------------------------------------------
 VERS.                 2.0 : CWLS LOG ASCII STANDARD - VERSION 2.0
 WRAP.                  NO : ONE LINE PER DEPTH STEP
~WELL -----------------------------------------------
 WELL.                KG-D6-A : Well name
 UWI .                IN-KGD-006        : Unique Well ID
 LAT .                16.3421        : Latitude
 LON .                82.5123        : Longitude
 STRT.M               1500.00 : START DEPTH
 STOP.M               3199.95 : STOP DEPTH
 STEP.M               0.1500 : STEP
 NULL.                -9999 : NULL VALUE
~CURVE -----------------------------------------------
 DEPTH .M               : Depth
 GR    .GAPI            : Gamma Ray
 RHOB  .G/C3            : Bulk Density
 NPHI  .V/V             : Neutron Porosity
 RT    .OHMM            : Resistivity
 CALI  .IN              : Caliper
~A  DEPTH              GR        RHOB        NPHI          RT        CALI
# ...
   2952.3000      61.1224       2.3922       0.2328       8.6478       9.0010
   2952.4500      60.0586       2.3999       0.2255       7.8443       8.9517
   2952.6000      63.0303       2.3825       0.2268       7.4236       8.8750
   2952.7500      61.5573       2.3820       0.2319       7.8153       8.8295
   2952.9000      62.4744       2.3665       0.2336       7.7889       8.7565
   2953.0500      63.8538       2.3665       0.2324       7.2555       8.8460
   2953.2000      60.6739       2.3612       0.2282       6.2366       8.8948
   2953.3500      59.4845       2.3609       0.2316       6.7357       8.7932
   2953.5000      59.8581       2.3510       0.2324       6.7655       8.7414
   2953.6500      59.8875       2.3828       0.2391       6.6365       8.7147
   2953.8000      63.4151       2.3814       0.2430       7.2293       8.8165
   2953.9500      62.2338       2.3890       0.2427       7.7415       8.8652
   2954.1000      64.0883       2.3890       0.2473       7.4397       8.8290
   2954.2500      63.6642       2.4047       0.2484       7.1684       8.8913
   2954.4000      64.0122       2.4180       0.2468       7.4983       8.8546
   2954.5500      67.3978       2.4322       0.2599       7.6070       8.7224
   2954.7000      65.9540       2.4214       0.2633       7.0968       8.5992
   2954.8500      63.6258       2.4099       0.2625       6.5910       8.6593
   2955.0000      65.5036       2.4117       0.2615       6.5925       8.7097
   2955.1500      63.5677       2.4229       0.2563       6.1931       8.7937
   2955.3000      62.8167       2.4311       0.2565       6.3495       8.7474
   2955.4500      63.7744       2.4234       0.2546       6.8917       8.7286
   2955.6000      61.0875       2.4253       0.2441       7.6470       8.8118
   2955.7500      62.8787       2.4348       0.2506       7.4645       8.7104
   2955.9000      61.0977       2.4465       0.2539       7.6825       8.7253
   2956.0500      62.7296       2.4444       0.2458       7.8689       8.7868
   2956.2000      65.0994       2.4480       0.2499       7.7678       8.7762
   2956.3500      67.9094       2.4475       0.2493       7.7810       8.6932
   2956.5000      66.9367       2.4486       0.2536       7.7890       8.6046
   2956.6500      67.7604       2.4365       0.2492       7.8661       8.5936
   2956.8000      66.6952       2.4386       0.2402       7.9635       8.6934
   2956.9500      68.5216       2.4200       0.2330       7.1270       8.7286
   2957.1000      67.5426       2.4184       0.2198       7.9253       8.7083
   2957.2500      65.9074       2.4040       0.2260       8.1065       8.7295
   2957.4000      64.1492       2.4055       0.2257       7.8253       8.8159
   2957.5500      63.0001       2.3924       0.2134       7.1983       8.7906
   2957.7000      64.7022       2.3933       0.2108       7.4487       8.9441
   2957.8500      63.6328       2.4026       0.2117       8.5908       9.0138
   2958.0000      63.2648       2.4083       0.2092       8.0964       9.1592
   2958.1500      62.0543       2.4116       0.2110       8.5983       9.1803
   2958.3000      64.3970       2.4150       0.2108       8.1932       9.1348
   2958.4500      62.8997       2.4175       0.2081       7.9452       9.1082
   2958.6000      62.0899       2.4338       0.2158       7.1149       9.0460
   2958.7500      60.8050       2.4327       0.2015       6.8365       9.0712
   2958.9000      62.0174       2.4353       0.1965       6.5597       9.0502
   2959.0500      60.8556       2.4340       0.2008       6.8293       9.0316
   2959.2000      61.0466       2.4334       0.1899       7.2631       8.8674
   2959.3500      60.9499       2.4424       0.1928       7.2822       8.7726
   2959.5000      62.4689       2.4443       0.1881       6.9924       8.8237
   2959.6500      60.2545       2.4324       0.1916       6.8308       8.8208
   2959.8000      59.4484       2.4341       0.1980       7.1314       8.8037
   2959.9500      56.8417       2.4461       0.2055       7.5647       8.7777
   2960.1000      56.4201       2.4542       0.2177       6.8764       8.7463
   2960.2500      57.8657       2.4655       0.2227       7.1268       8.7055
   2960.4000      59.0758       2.4490       0.2280       7.4051       8.6791
   2960.5500      56.5224       2.4540       0.2249       7.1217       8.7825
   2960.7000      54.8693       2.4645       0.2178       7.8242       8.7825
   2960.8500      58.2289       2.4491       0.2240       6.9743       8.8552
   2961.0000      58.8646       2.4490       0.2146       7.3479       8.7645
   2961.1500      60.3853       2.4358       0.2240       7.6278       8.6367
   2961.3000      58.2420       2.4230       0.2250       7.0893       8.5512
   2961.4500      60.3596       2.4263       0.2307       7.5013       8.4938
   2961.6000      61.6430       2.4189       0.2219       7.8922       8.5895
   2961.7500      61.6222       2.4165       0.2345       8.3634       8.6078
   2961.9000      59.4517       2.4075       0.2362       8.5299       8.6157
   2962.0500      58.5671       2.4002       0.2330       8.1513       8.5449
   2962.2000      57.5999       2.4001       0.2370       8.0272       8.6081
   2962.3500      54.7527       2.3898       0.2318       8.1594       8.5819
   2962.5000      52.8741       2.3824       0.2253       7.9594       8.6782
   2962.6500      55.4961       2.3887       0.2245       8.8669       8.7682
   2962.8000      56.3122       2.3904       0.2260       8.0628       8.8199
   2962.9500      60.0040       2.3786       0.2172       8.0026       8.9299
   2963.1000      58.1874       2.3628       0.2081       7.9933       8.9496
   2963.2500      58.8870       2.3593       0.1982       7.8223       8.9576
   2963.4000      58.8112       2.3605       0.1906       7.6129       8.9175
   2963.5500      59.5513       2.3715       0.2053       8.3809       8.9300
   2963.7000      63.2908       2.3577       0.2040       7.7325       8.9901
   2963.8500      61.6242       2.3869       0.1961       7.4343       8.9906
   2964.0000      60.0504       2.3991       0.2030       7.3076       8.8762
   2964.1500      61.0293       2.4091       0.1986       6.7111       8.9431
   2964.3000      60.0243       2.4250       0.2094       7.1951       8.9521
   2964.4500      59.7150       2.4196       0.2045       7.0758       8.9602
   2964.6000      59.8002       2.4111       0.2132       6.2828       8.9393
   2964.7500      59.8436       2.4111       0.2059       5.7918       8.9436
   2964.9000      61.8163       2.4073       0.2114       5.6547       8.9563
   2965.0500      61.7846       2.4074       0.2202       6.1029       8.9633
   2965.2000      65.0599       2.4195       0.2192       6.3161       8.9232
   2965.3500      65.9023       2.4187       0.2148       6.3154       8.9423
   2965.5000      65.0963       2.4177       0.2264       6.5141       9.0032
   2965.6500      63.4906       2.4154       0.2334       6.4279       8.9395
   2965.8000      61.2976       2.4177       0.2259       6.9279       8.9488
   2965.9500      60.4521       2.4335       0.2394       7.1664       8.9346
   2966.1000      61.7801       2.4427       0.2452       7.7637       8.9810
   2966.2500      63.3024       2.4422       0.2608       7.2373       8.9442
   2966.4000      65.3822       2.4458       0.2550       7.0554       8.9136
   2966.5500      66.0162       2.4389       0.2461       7.7017       8.8622
   2966.7000      65.8924       2.4462       0.2467       7.3833       8.8926
   2966.8500      63.6228       2.4287       0.2518       7.6580       8.9605
   2967.0000      66.0613       2.4126       0.2548       8.0130       8.9111
   2967.1500      65.6370       2.3926       0.2522       8.4195       8.8831
   2967.3000      66.2575       2.3760       0.2393       8.6984       8.8541
   2967.4500      63.9335       2.3662       0.2475       9.3567       8.7971
   2967.6000      66.3279       2.3816       0.2401       9.7684       8.7299
