~VERSION -------------------------------------------
 VERS.                 2.0 : CWLS LOG ASCII STANDARD - VERSION 2.0
 WRAP.                  NO : ONE LINE PER DEPTH STEP
~WELL -----------------------------------------------
 WELL.                KG-D6-A : Well name
 UWI .                IN-KGD-006        : Unique Well ID
 LAT .                16.3421        : Latitude
 LON .                82.5123        : Longitude
 STRT.M               1500.00 : START DEPTH
 STOP.M               3199.95 : STOP DEPTH
 STEP.M               0.1500 : STEP
 NULL.                -9999 : NULL VALUE
~CURVE -----------------------------------------------
 DEPTH .M               : Depth
 GR    .GAPI            : Gamma Ray
 RHOB  .G/C3            : Bulk Density
 NPHI  .V/V             : Neutron Porosity
 RT    .OHMM            : Resistivity
 CALI  .IN              : Caliper
~A  DEPTH              GR        RHOB        NPHI          RT        CALI
# ...
   1948.0500      68.7124       2.4291       0.2299       9.3781       8.4860
   1948.2000      71.3544       2.4054       0.2299      10.3490       8.4833
   1948.3500      72.4336       2.3974       0.2353      10.5450       8.5063
   1948.5000      72.6066       2.4007       0.2445       9.4949       8.5367
   1948.6500      72.4538       2.4084       0.2543       9.2452       8.5361
   1948.8000      71.7603       2.3999       0.2565       9.8205       8.5814
   1948.9500      69.1593       2.4142       0.2569       9.5125       8.6140
   1949.1000      72.0046       2.4241       0.2592       9.1863       8.5488
   1949.2500      73.8940       2.4066       0.2688       9.1913       8.5235
   1949.4000      72.1070       2.4122       0.2663       8.1898       8.5051
   1949.5500      70.4098       2.4089       0.2775       8.2969       8.5206
   1949.7000      69.2523       2.3913       0.2844       8.6475       8.5161
   1949.8500      71.0307       2.3791       0.2826       8.9392       8.5275
   1950.0000      71.9685       2.3818       0.2836       8.4574       8.4910
   1950.1500      73.0274       2.3708       0.2791       9.1300       8.5670
   1950.3000      72.4406       2.3779       0.2854       9.0243       8.5877
   1950.4500      71.1997       2.3818       0.2866       8.7736       8.6292
   1950.6000      71.8367       2.3755       0.2755       7.2471       8.6785
   1950.7500      74.8455       2.3889       0.2783       7.5343       8.6947
   1950.9000      74.6293       2.3743       0.2852       7.6070       8.7199
   1951.0500      74.7329       2.3805       0.2725       7.8384       8.7951
   1951.2000      72.8686       2.3888       0.2790       6.9067       8.8076
   1951.3500      72.1130       2.3867       0.2727       6.7541       8.8387
   1951.5000      72.9128       2.3907       0.2661       6.8951       8.7929
   1951.6500      72.6640       2.3921       0.2663       6.9566       8.8583
   1951.8000      72.8398       2.4026       0.2634       7.1783       8.8385
   1951.9500      70.4267       2.3901       0.2516       7.6567       8.8716
   1952.1000      65.9692       2.3847       0.2564       7.8173       8.8594
   1952.2500      64.2134       2.3950       0.2429       8.4792       8.8688
   1952.4000      66.2570       2.3989       0.2483       8.7465       8.8726
   1952.5500      65.1279       2.3908       0.2463       8.6403       8.9070
   1952.7000      66.6451       2.3875       0.2299       9.4366       8.8299
   1952.8500      63.1023       2.3808       0.2287       8.9972       8.7983
   1953.0000      62.2238       2.3784       0.2282       8.9606       8.8415
   1953.1500      60.1655       2.3699       0.2250       8.8624       8.7318
   1953.3000      59.1204       2.3603       0.2225       8.7666       8.7858
   1953.4500      60.9325       2.3518       0.2217       8.3968       8.7009
   1953.6000      59.4781       2.3625       0.2183       8.4771       8.7586
   1953.7500      55.9939       2.3592       0.2187       9.0101       8.6838
   1953.9000      56.4837       2.3833       0.2052       8.0037       8.6692
   1954.0500      55.0978       2.3831       0.2188       7.4092       8.5484
   1954.2000      56.1667       2.3809       0.2211       7.5054       8.6697
   1954.3500      57.9497       2.3669       0.2191       7.2623       8.6584
   1954.5000      56.7846       2.3677       0.2246       6.3888       8.6666
   1954.6500      55.7404       2.3697       0.2249       6.1708       8.6621
   1954.8000      56.0370       2.3696       0.2253       5.7472       8.6068
   1954.9500      58.4806       2.3819       0.2241       5.5762       8.5918
   1955.1000      58.6492       2.3809       0.2269       5.6797       8.5920
   1955.2500      60.1968       2.3690       0.2329       5.5369       8.6114
   1955.4000      59.5446       2.3650       0.2308       5.5634       8.6438
   1955.5500      60.6193       2.3601       0.2283       5.6028       8.7045
   1955.7000      61.9192       2.3710       0.2394       4.8781       8.6327
   1955.8500      63.8677       2.3856       0.2392       5.0753       8.6249
   1956.0000      63.5442       2.3724       0.2373       5.2481       8.6333
   1956.1500      62.1639       2.3787       0.2412       6.0724       8.6675
   1956.3000      63.6258       2.4071       0.2318       5.8475       8.7399
   1956.4500      63.4913       2.4235       0.2271       5.7713       8.7795
   1956.6000      63.8038       2.4140       0.2347       5.8892       8.7337
   1956.7500      66.5810       2.4131       0.2228       5.4254       8.7699
   1956.9000      65.8135       2.4192       0.2258       5.8043       8.7964
   1957.0500      67.5752       2.4209       0.2140       6.2032       8.7359
   1957.2000      66.7526       2.4294       0.2017       6.3030       8.7963
   1957.3500      66.6740       2.4406       0.1983       6.4860       8.7855
   1957.5000      67.7240       2.4335       0.1901       7.7933       8.8256
   1957.6500      72.1234       2.4432       0.1807       8.7010       8.8827
   1957.8000      72.5301       2.4349       0.1842       9.1806       8.7446
   1957.9500      70.9143       2.4333       0.1948       8.9031       8.7422
   1958.1000      70.9150       2.4273       0.1866       8.6637       8.7828
   1958.2500      69.8544       2.4375       0.1865       8.2456       8.7948
   1958.4000      70.8951       2.4247       0.1905       7.9069       8.7612
   1958.5500      71.7238       2.4292       0.1839       7.3787       8.7761
   1958.7000      67.0722       2.4266       0.1800       7.3145       8.6795
   1958.8500      68.2025       2.4289       0.1776       7.5853       8.7327
   1959.0000      71.5229       2.4388       0.1790       7.5731       8.6896
   1959.1500      73.4237       2.4357       0.1795       6.8497       8.5974
   1959.3000      74.1721       2.4285       0.1896       7.5338       8.6197
   1959.4500      74.0981       2.4280       0.1908       7.8483       8.6483
   1959.6000      74.9240       2.4430       0.1977       7.7002       8.5800
   1959.7500      71.5714       2.4514       0.2050       7.6336       8.6218
   1959.9000      70.3594       2.4264       0.2031       7.8583       8.6431
   1960.0500      68.9426       2.4189       0.2051       7.5356       8.6417
   1960.2000      70.5646       2.4009       0.2251       6.9360       8.6827
   1960.3500      73.0669       2.3895       0.2246       6.6257       8.6939
   1960.5000      72.2570       2.3766       0.2257       5.8573       8.6089
   1960.6500      67.6252       2.3689       0.2309       5.8643       8.5447
   1960.8000      65.3556       2.3803       0.2380       5.1965       8.6464
   1960.9500      66.7285       2.3801       0.2361       5.6666       8.6062
   1961.1000      69.1521       2.3958       0.2358       5.7787       8.6586
   1961.2500      66.2586       2.3802       0.2483       6.0194       8.6549
   1961.4000      64.1286       2.4052       0.2355       6.4736       8.6369
   1961.5500      63.3688       2.4108       0.2331       6.6192       8.6219
   1961.7000      64.6697       2.4005       0.2349       7.2672       8.6496
   1961.8500      62.3182       2.3873       0.2363       6.7275       8.6165
   1962.0000      59.8581       2.3989       0.2388       6.4356       8.7227
   1962.1500      58.4069       2.4001       0.2424       6.5435       8.8280
   1962.3000      57.5388       2.3823       0.2381       6.3185       8.7426
   1962.4500      56.5169       2.3724       0.2378       6.5671       8.7423
   1962.6000      55.4375       2.3567       0.2351       7.1269       8.7143
   1962.7500      55.6682       2.3502       0.2360       7.0825       8.6271
   1962.9000      57.8027       2.3647       0.2383       6.7244       8.5850
   1963.0500      59.3606       2.3683       0.2405       7.2800       8.5986
   1963.2000      57.7408       2.3884       0.2384       7.9024       8.5668
   1963.3500      54.7111       2.3920       0.2516       8.5837       8.5168
