~VERSION -------------------------------------------
 VERS.                 2.0 : CWLS LOG ASCII STANDARD - VERSION 2.0
 WRAP.                  NO : ONE LINE PER DEPTH STEP
~WELL -----------------------------------------------
 WELL.                KG-D6-A : Well name
 UWI .                IN-KGD-006        : Unique Well ID
 LAT .                16.3421        : Latitude
 LON .                82.5123        : Longitude
 STRT.M               1500.00 : START DEPTH
 STOP.M               3199.95 : STOP DEPTH
 STEP.M               0.1500 : STEP
 NULL.                -9999 : NULL VALUE
~CURVE -----------------------------------------------
 DEPTH .M               : Depth
 GR    .GAPI            : Gamma Ray
 RHOB  .G/C3            : Bulk Density
 NPHI  .V/V             : Neutron Porosity
 RT    .OHMM            : Resistivity
 CALI  .IN              : Caliper
~A  DEPTH              GR        RHOB        NPHI          RT        CALI
   1500.0000      40.3939       1.2033       0.1061       5.8576       4.3779
   1500.1500      43.1585       1.3236       0.1242       6.1207       5.3390
   1500.3000      46.1022       1.4411       0.1313       6.7241       6.2032
   1500.4500      49.4798       1.5625       0.1426       7.4736       7.0747
   1500.6000      51.9802       1.6941       0.1533       9.0445       8.0078
   1500.7500      55.5765       1.8205       0.1658      10.1902       8.8607
   1500.9000      57.0536       1.9474       0.1809      12.0784       8.9875
   1501.0500      61.6391       2.0626       0.2042      12.3637       8.9782
   1501.2000      65.1352       2.1907       0.2215      14.3202       9.0437
   1501.3500      69.9146       2.3066       0.2301      17.7651       9.0880
   1501.5000      72.8104       2.4094       0.2326      20.9121       9.1323
   1501.6500      70.3030       2.4239       0.2271      15.6092       8.9949
   1501.8000      69.1019       2.4224       0.2269      13.9157       9.0658
   1501.9500      65.8733       2.4291       0.2239      11.5638       9.0253
   1502.1000      65.9643       2.4454       0.2252       9.3880       8.9620
   1502.2500      66.7433       2.4256       0.2318       8.5150       9.0422
   1502.4000      67.2397       2.4297       0.2355       7.8286       9.0137
   1502.5500      66.2738       2.4400       0.2283       7.2880       8.9562
   1502.7000      68.8132       2.4444       0.2276       7.5275       8.8858
   1502.8500      67.7177       2.4248       0.2247       7.2657       8.7862
   1503.0000      64.5143       2.4264       0.2233       7.8893       8.7988
   1503.1500      64.2336       2.4299       0.2161       8.4460       8.8174
   1503.3000      63.9908       2.4392       0.2227       8.4865       8.7979
   1503.4500      62.2140       2.4354       0.2177       9.0403       8.7670
   1503.6000      64.3790       2.4211       0.2165       8.5849       8.7555
   1503.7500      67.2827       2.4118       0.2119       9.4546       8.7055
   1503.9000      72.3056       2.4101       0.2169       8.4838       8.6646
   1504.0500      69.9114       2.4043       0.2038       8.9188       8.6265
   1504.2000      69.0552       2.4058       0.1966       8.8000       8.6930
   1504.3500      66.4749       2.4142       0.1999       7.8667       8.7437
   1504.5000      64.9208       2.4386       0.2082       7.2568       8.6568
   1504.6500      68.8955       2.4408       0.2188       7.2170       8.6997
   1504.8000      70.1495       2.4185       0.2225       6.8481       8.6567
   1504.9500      70.0243       2.4333       0.2189       6.5601       8.7225
   1505.1000      69.8304       2.4227       0.2152       7.0273       8.7604
   1505.2500      69.2240       2.4252       0.2118       7.0610       8.7582
   1505.4000      66.2656       2.4240       0.2247       7.9369       8.7670
   1505.5500      65.4000       2.3992       0.2357       8.0853       8.8097
   1505.7000      64.3249       2.3842       0.2307       8.6203       8.6989
   1505.8500      63.7361       2.4018       0.2358       8.3759       8.6768
   1506.0000      62.3938       2.3941       0.2436       8.7845       8.6992
   1506.1500      63.9052       2.4016       0.2459       8.0719       8.7182
   1506.3000      62.3361       2.3961       0.2393       8.2519       8.7986
   1506.4500      63.6555       2.3949       0.2453       7.4259       8.7535
   1506.6000      61.7818       2.4074       0.2578       6.7498       8.6967
   1506.7500      58.1079       2.3991       0.2565       5.8027       8.6833
   1506.9000      56.1320       2.3855       0.2450       5.7333       8.6642
   1507.0500      58.3053       2.3922       0.2433       6.1352       8.6717
   1507.2000      59.2159       2.3861       0.2417       5.8142       8.6819
   1507.3500      61.0477       2.3773       0.2399       6.1303       8.6752
   1507.5000      62.0687       2.3704       0.2383       6.0941       8.7150
   1507.6500      59.8652       2.3581       0.2377       6.1133       8.7125
   1507.8000      58.3596       2.3768       0.2340       6.1215       8.5749
   1507.9500      60.5194       2.3686       0.2303       6.7414       8.5805
   1508.1000      61.7141       2.3827       0.2409       6.9236       8.6142
   1508.2500      64.0008       2.3847       0.2425       7.0017       8.6711
   1508.4000      65.6458       2.3861       0.2395       6.7445       8.7184
   1508.5500      67.4455       2.4067       0.2342       6.4185       8.6708
   1508.7000      65.3026       2.4089       0.2439       6.4532       8.6655
   1508.8500      67.7993       2.4057       0.2450       7.5806       8.6815
   1509.0000      70.2072       2.4086       0.2424       6.9880       8.6850
   1509.1500      70.2809       2.3950       0.2431       7.6319       8.7070
   1509.3000      72.4258       2.3918       0.2535       7.8207       8.8457
   1509.4500      70.9293       2.3928       0.2569       7.5644       8.8723
   1509.6000      73.1689       2.3944       0.2470       7.5587       8.8934
   1509.7500      72.2153       2.4100       0.2444       7.9714       8.8371
   1509.9000      70.0993       2.4100       0.2458       8.4799       8.8040
   1510.0500      68.4673       2.4057       0.2491       8.0282       8.8078
   1510.2000      68.0781       2.4082       0.2509       8.0154       8.7738
   1510.3500      68.2862       2.4112       0.2492       7.4911       8.8677
   1510.5000      69.8960       2.3998       0.2537       7.6430       8.7891
   1510.6500      67.9881       2.3977       0.2577       8.0780       8.7759
   1510.8000      69.0749       2.4047       0.2698       8.5832       8.7729
   1510.9500      67.5908       2.4084       0.2825       8.0743       8.7272
   1511.1000      65.3300       2.4013       0.2701       7.5506       8.7023
   1511.2500      62.4883       2.4000       0.2591       7.0343       8.7068
   1511.4000      60.2929       2.3936       0.2438       6.7537       8.7695
   1511.5500      60.2878       2.3888       0.2426       7.2025       8.8086
   1511.7000      61.3192       2.4009       0.2405       7.3738       8.7957
   1511.8500      57.0437       2.4016       0.2342       6.7313       8.7125
   1512.0000      57.7799       2.4164       0.2303       6.7955       8.7622
   1512.1500      58.2921       2.4268       0.2334       6.8891       8.6858
   1512.3000      57.8917       2.4171       0.2202       6.3831       8.5883
   1512.4500      60.6659       2.4258       0.2092       6.8293       8.6068
   1512.6000      59.3620       2.4158       0.2151       7.8244       8.6725
   1512.7500      58.5239       2.4091       0.2247       7.8227       8.7068
   1512.9000      62.2651       2.4322       0.2267       7.8952       8.6538
   1513.0500      64.2011       2.4539       0.2245       7.7151       8.6360
   1513.2000      64.1513       2.4501       0.2256       7.5209       8.6713
   1513.3500      62.6171       2.4567       0.2273       7.2344       8.7507
   1513.5000      63.1965       2.4654       0.2273       7.6326       8.8287
   1513.6500      63.2938       2.4667       0.2234       6.8532       8.8714
   1513.8000      64.4178       2.4640       0.2164       5.9103       8.8459
   1513.9500      66.7603       2.4504       0.2128       6.2502       8.8977
   1514.1000      68.4785       2.4471       0.2166       6.0830       8.9122
   1514.2500      68.2114       2.4399       0.2244       7.0151       8.9156
   1514.4000      67.7396       2.4501       0.2320       6.7175       8.9119
   1514.5500      64.9065       2.4339       0.2383       6.7325       8.9164
   1514.7000      65.1144       2.4320       0.2408       6.6516       9.0233
   1514.8500      66.9487       2.4235       0.2456       6.2112       8.9218
   1515.0000      65.2111       2.4171       0.2401       6.8586       8.8568
   1515.1500      62.9907       2.4049       0.2265       7.4021       8.8195
   1515.3000      65.4466       2.4074       0.2377       7.1481       8.8459
