~VERSION -------------------------------------------
 VERS.                 2.0 : CWLS LOG ASCII STANDARD - VERSION 2.0
 WRAP.                  NO : ONE LINE PER DEPTH STEP
~WELL -----------------------------------------------
 WELL.                KG-D6-A : Well name
 UWI .                IN-KGD-006        : Unique Well ID
 LAT .                16.3421        : Latitude
 LON .                82.5123        : Longitude
 STRT.M               1500.00 : START DEPTH
 STOP.M               3199.95 : STOP DEPTH
 STEP.M               0.1500 : STEP
 NULL.                -9999 : NULL VALUE
~CURVE -----------------------------------------------
 DEPTH .M               : Depth
 GR    .GAPI            : Gamma Ray
 RHOB  .G/C3            : Bulk Density
 NPHI  .V/V             : Neutron Porosity
 RT    .OHMM            : Resistivity
 CALI  .IN              : Caliper
~A  DEPTH              GR        RHOB        NPHI          RT        CALI
# ...
   2627.8500      57.8763       2.4194       0.2224       8.2595       8.8974
   2628.0000      58.4145       2.4237       0.2293       9.2611       8.9176
   2628.1500      59.7764       2.4189       0.2245       9.1605       8.9071
   2628.3000      61.5698       2.4093       0.2313       8.2385       8.8893
   2628.4500      60.5230       2.4012       0.2263       7.9289       8.8920
   2628.6000      62.1763       2.3950       0.2312       7.5270       8.9304
   2628.7500      60.0418       2.3953       0.2368       7.1210       8.8876
   2628.9000      60.3308       2.3846       0.2426       6.9928       8.8926
   2629.0500      60.8055       2.3909       0.2424       7.7678       8.9867
   2629.2000      59.9399       2.3880       0.2421       8.3389       8.9175
   2629.3500      57.9609       2.3909       0.2397       8.5122       8.8401
   2629.5000      56.1827       2.3927       0.2448       9.4652       8.9005
   2629.6500      57.5999       2.3853       0.2390       8.5171       8.8648
   2629.8000      57.3262       2.3917       0.2365       8.6564       8.8134
   2629.9500      60.8155       2.3857       0.2421       8.3619       8.7659
   2630.1000      61.9791       2.3755       0.2489       8.7213       8.7499
   2630.2500      62.8214       2.3653       0.2401       8.5229       8.6825
   2630.4000      62.3570       2.3805       0.2358       8.3911       8.6285
   2630.5500      64.5408       2.3824       0.2395       8.5625       8.5551
   2630.7000      66.8016       2.3885       0.2292       9.3732       8.5616
   2630.8500      67.6607       2.3941       0.2378       9.9727       8.5132
   2631.0000      68.6150       2.3924       0.2277       8.9765       8.4459
   2631.1500      68.5326       2.3967       0.2272       9.6015       8.5808
   2631.3000      64.6159       2.3984       0.2200      10.1029       8.6490
   2631.4500      63.3625       2.3956       0.2189      10.2625       8.6347
   2631.6000      62.3135       2.3997       0.2157       9.6821       8.6659
   2631.7500      60.9834       2.3961       0.2165       9.8606       8.6296
   2631.9000      62.2835       2.4078       0.2106       9.7581       8.6537
   2632.0500      58.9900       2.4008       0.2080       8.9622       8.5882
   2632.2000      58.7130       2.3908       0.2147       9.0544       8.5326
   2632.3500      61.1627       2.3991       0.2097       8.6162       8.5245
   2632.5000      59.7231       2.3943       0.2058       7.5981       8.5370
   2632.6500      59.3084       2.3951       0.2123       8.6481       8.5284
   2632.8000      61.3362       2.3974       0.2059       9.2466       8.5335
   2632.9500      61.4723       2.4009       0.2184       8.6554       8.5612
   2633.1000      60.2473       2.4258       0.2175       9.3098       8.5486
   2633.2500      64.2269       2.4192       0.2217       9.9341       8.5525
   2633.4000      61.4443       2.4041       0.2196      10.8566       8.5735
   2633.5500      60.6164       2.4129       0.2111      11.1895       8.5735
   2633.7000      61.2273       2.3932       0.2140      10.5186       8.6530
   2633.8500      60.1376       2.3965       0.2098      10.5828       8.6450
   2634.0000      62.0968       2.3971       0.2125      11.6448       8.6704
   2634.1500      60.7170       2.4144       0.2235      11.2127       8.6185
   2634.3000      64.1263       2.4069       0.2186      10.4303       8.6788
   2634.4500      66.5707       2.4131       0.2237      10.9063       8.6458
   2634.6000      65.5955       2.4106       0.2306      10.9780       8.6422
   2634.7500      69.7612       2.4083       0.2198      11.3920       8.7793
   2634.9000      69.2287       2.4127       0.2217      10.8729       8.7427
   2635.0500      70.4891       2.4184       0.2259      11.3515       8.8252
   2635.2000      71.0776       2.4179       0.2172      11.1292       8.8193
   2635.3500      70.9895       2.4184       0.2219      10.8051       8.7912
   2635.5000      73.0200       2.4222       0.2260      11.0279       8.8777
   2635.6500      73.5933       2.4173       0.2221       9.8504       8.9078
   2635.8000      74.3072       2.4152       0.2296       8.7556       8.8330
   2635.9500      74.3816       2.4236       0.2171       8.3251       8.8367
   2636.1000      74.8180       2.4016       0.2200       7.6297       8.8765
   2636.2500      70.2380       2.4073       0.2143       7.4809       8.7809
   2636.4000      73.1379       2.4025       0.2072       6.9938       8.8562
   2636.5500      74.2354       2.3967       0.2147       6.9447       8.8800
   2636.7000      73.1431       2.4130       0.2152       6.9598       8.8784
   2636.8500      75.6413       2.4131       0.2223       7.2269       8.8990
   2637.0000      73.1167       2.4290       0.2251       6.6098       8.8774
   2637.1500      72.6107       2.4211       0.2207       6.5345       8.8558
   2637.3000      70.3211       2.4299       0.2206       6.4366       8.9622
   2637.4500      71.4198       2.4361       0.2201       5.9330       8.9075
   2637.6000      73.4601       2.4401       0.2269       6.1764       8.9026
   2637.7500      70.3029       2.4510       0.2285       6.6370       8.9150
   2637.9000      70.4145       2.4418       0.2272       6.9859       8.8829
   2638.0500      68.4874       2.4405       0.2339       6.2330       8.8693
   2638.2000      69.8103       2.4452       0.2317       6.2686       8.8329
   2638.3500      69.8038       2.4352       0.2396       6.4934       8.8664
   2638.5000      69.1208       2.4284       0.2484       6.4784       8.7954
   2638.6500      67.6020       2.4165       0.2500       7.0828       8.7850
   2638.8000      64.9429       2.4193       0.2499       7.6054       8.6967
   2638.9500      65.7981       2.4124       0.2578       8.5139       8.8261
   2639.1000      66.1486       2.4222       0.2476       8.4970       8.8002
   2639.2500      66.3093       2.4240       0.2596       8.5922       8.8656
   2639.4000      66.5416       2.4296       0.2690       9.2753       8.8434
   2639.5500      65.9241       2.4320       0.2666       9.8392       8.8444
   2639.7000      65.3705       2.4379       0.2637       9.6426       8.9017
   2639.8500      62.1281       2.4428       0.2599       9.2000       8.8453
   2640.0000      62.8418       2.4242       0.2509      10.0675       8.8342
   2640.1500      65.6950       2.4218       0.2473       9.9308       8.8183
   2640.3000      68.8394       2.4068       0.2582      10.8624       8.7582
   2640.4500      66.9291       2.3869       0.2585      11.3063       8.7001
   2640.6000      67.0855       2.3923       0.2465      10.4959       8.7226
   2640.7500      66.2122       2.3844       0.2541      10.1016       8.6428
   2640.9000      65.1074       2.3819       0.2482      10.6487       8.5929
   2641.0500      67.4184       2.3808       0.2335      11.4480       8.6239
   2641.2000      67.9550       2.3908       0.2318      10.8562       8.6130
   2641.3500      68.7596       2.4086       0.2270      10.0979       8.6645
   2641.5000      68.7193       2.4103       0.2162      10.1768       8.6636
   2641.6500      71.9358       2.4282       0.2183      10.2894       8.6763
   2641.8000      73.0676       2.4268       0.2188       9.6529       8.7659
   2641.9500      69.3891       2.4269       0.2200       9.3905       8.7601
   2642.1000      69.8922       2.4311       0.2227       9.5405       8.7370
   2642.2500      70.0894       2.4408       0.2140       8.9830       8.7677
   2642.4000      68.6762       2.4387       0.2083       7.6978       8.8287
   2642.5500      70.0057       2.4431       0.2040       7.4739       8.8106
   2642.7000      70.7242       2.4404       0.2143       7.9373       8.7774
   2642.8500      70.8698       2.4354       0.2190       7.7611       8.8776
   2643.0000      74.2797       2.4364       0.2241       7.3542       8.9532
   2643.1500      71.6095       2.4329       0.2216       7.3268       9.0005
