~VERSION -------------------------------------------
 VERS.                 2.0 : CWLS LOG ASCII STANDARD - VERSION 2.0
 WRAP.                  NO : ONE LINE PER DEPTH STEP
~WELL -----------------------------------------------
 WELL.                KG-D6-A : Well name
 UWI .                IN-KGD-006        : Unique Well ID
 LAT .                16.3421        : Latitude
 LON .                82.5123        : Longitude
 STRT.M               1500.00 : START DEPTH
 STOP.M               3199.95 : STOP DEPTH
 STEP.M               0.1500 : STEP
 NULL.                -9999 : NULL VALUE
~CURVE -----------------------------------------------
 DEPTH .M               : Depth
 GR    .GAPI            : Gamma Ray
 RHOB  .G/C3            : Bulk Density
 NPHI  .V/V             : Neutron Porosity
 RT    .OHMM            : Resistivity
 CALI  .IN              : Caliper
~A  DEPTH              GR        RHOB        NPHI          RT        CALI
# ...
   2179.8000      65.0230       2.4419       0.2309       8.8131       8.4967
   2179.9500      65.4323       2.4533       0.2319       8.3817       8.4621
   2180.1000      63.3445       2.4575       0.2412       7.0369       8.4552
   2180.2500      59.8033       2.4536       0.2322       7.0063       8.4524
   2180.4000      60.5371       2.4502       0.2383       6.7956       8.4954
   2180.5500      62.5390       2.4405       0.2380       6.6618       8.5818
   2180.7000      64.1108       2.4418       0.2427       6.6590       8.5168
   2180.8500      64.0118       2.4287       0.2427       6.5011       8.5437
   2181.0000      65.0458       2.4438       0.2414       6.6151       8.5632
   2181.1500      62.3300       2.4449       0.2417       6.4093       8.5637
   2181.3000      64.7370       2.4399       0.2362       6.1618       8.6472
   2181.4500      62.1883       2.4214       0.2367       5.7291       8.7187
   2181.6000      60.6250       2.4196       0.2430       5.7945       8.7907
   2181.7500      59.4251       2.4087       0.2432       5.9670       8.7381
   2181.9000      60.6179       2.4001       0.2523       5.6186       8.6878
   2182.0500      60.6662       2.4099       0.2536       5.2033       8.6204
   2182.2000      59.6614       2.4076       0.2514       5.3148       8.6014
   2182.3500      59.2936       2.4254       0.2473       5.2386       8.6532
   2182.5000      60.9109       2.4023       0.2439       5.3248       8.7183
   2182.6500      60.5720       2.4070       0.2481       5.4236       8.9172
   2182.8000      60.7375       2.4053       0.2576       5.4591       8.9395
   2182.9500      63.8720       2.3965       0.2509       5.6283       8.8109
   2183.1000      64.4526       2.4057       0.2494       6.3165       8.8310
   2183.2500      64.7575       2.4094       0.2444       6.5625       8.8588
   2183.4000      63.4569       2.4116       0.2306       6.2947       8.8959
   2183.5500      61.7432       2.4080       0.2245       6.0454       8.9571
   2183.7000      58.7300       2.3965       0.2300       6.6610       9.1312
   2183.8500      60.2312       2.4111       0.2304       6.8930       9.1453
   2184.0000      61.4022       2.4150       0.2359       7.0073       9.0635
   2184.1500      63.3197       2.4179       0.2386       7.2139       8.8203
   2184.3000      64.6033       2.4077       0.2385       7.5543       8.8090
   2184.4500      64.8915       2.4158       0.2318       7.6559       8.8621
   2184.6000      66.3440       2.4167       0.2262       7.7503       8.8604
   2184.7500      68.2537       2.4384       0.2255       7.4648       8.8604
   2184.9000      67.0176       2.4467       0.2164       7.4404       8.7761
   2185.0500      68.1888       2.4575       0.2177       7.6273       8.7820
   2185.2000      68.4897       2.4604       0.2118       8.0275       8.6123
   2185.3500      68.9566       2.4530       0.2066       7.7612       8.5931
   2185.5000      68.3138       2.4812       0.2060       7.7357       8.6378
   2185.6500      68.7136       2.4755       0.2076       7.3670       8.7221
   2185.8000      71.0197       2.4761       0.2005       7.5149       8.7290
   2185.9500      68.3211       2.4803       0.2092       6.7971       8.8046
   2186.1000      69.5544       2.4724       0.2045       6.5178       8.7774
   2186.2500      71.0897       2.4798       0.2114       6.8160       8.7334
   2186.4000      71.1060       2.4817       0.2138       7.0952       8.7932
   2186.5500      70.4667       2.4954       0.2232       7.2622       8.7914
   2186.7000      72.4168       2.4947       0.2180       6.5092       8.8595
   2186.8500      71.2098       2.4852       0.2100       6.5331       8.8045
   2187.0000      70.3968       2.4865       0.1999       6.3521       8.7792
   2187.1500      71.5534       2.4842       0.1969       7.2558       8.8198
   2187.3000      70.8059       2.4886       0.1936       7.4534       8.8069
   2187.4500      70.1703       2.4734       0.1929       7.3319       8.7169
   2187.6000      70.0810       2.4724       0.2038       6.8430       8.7533
   2187.7500      67.6200       2.4622       0.1975       7.2572       8.7971
   2187.9000      66.4322       2.4545       0.2008       7.8528       8.7799
   2188.0500      67.6520       2.4499       0.2056       7.9027       8.7592
   2188.2000      65.9703       2.4357       0.2078       7.6443       8.7483
   2188.3500      68.4169       2.4483       0.2146       8.1983       8.7445
   2188.5000      68.4126       2.4407       0.2086       7.6173       8.7206
   2188.6500      69.8301       2.4604       0.1998       7.6202       8.6588
   2188.8000      71.2694       2.4668       0.2037       7.4903       8.7679
   2188.9500      71.6383       2.4697       0.2075       8.2123       8.7688
   2189.1000      69.8905       2.4711       0.2115       8.1026       8.7072
   2189.2500      69.0506       2.4742       0.2166       7.9097       8.7108
   2189.4000      67.9948       2.4738       0.2252       7.3950       8.7021
   2189.5500      69.7639       2.4727       0.2264       7.2463       8.7479
   2189.7000      68.0309       2.4878       0.2278       7.8170       8.8067
   2189.8500      65.1474       2.4764       0.2369       7.7691       8.9539
   2190.0000      64.0916       2.4632       0.2350       8.5913       8.9814
   2190.1500      62.4765       2.4608       0.2344       7.5072       9.0213
   2190.3000      60.9663       2.4646       0.2394       7.3501       8.9403
   2190.4500      59.7991       2.4898       0.2374       7.9441       8.9999
   2190.6000      59.1062       2.4847       0.2206       8.9357       8.9763
   2190.7500      59.6526       2.4672       0.2239       8.4783       9.0018
   2190.9000      61.2304       2.4698       0.2294       7.3362       9.0752
   2191.0500      60.0145       2.4601       0.2119       7.4283       9.0633
   2191.2000      61.5607       2.4763       0.2199       7.4814       8.9720
   2191.3500      61.0422       2.4735       0.2200       7.4447       8.8462
   2191.5000      60.7829       2.4665       0.2300       7.8389       8.7957
   2191.6500      58.7051       2.4626       0.2270       7.9029       8.7809
   2191.8000      55.0300       2.4351       0.2309       8.3382       8.7539
   2191.9500      55.2994       2.4440       0.2195       8.3892       8.7747
   2192.1000      56.9492       2.4378       0.2179       8.7213       8.8411
   2192.2500      56.5933       2.4322       0.2170       8.1154       8.8265
   2192.4000      56.9857       2.4135       0.2093       7.8597       8.8613
   2192.5500      57.3953       2.4140       0.2137       8.6848       8.7751
   2192.7000      57.9982       2.3961       0.2134       7.9893       8.7207
   2192.8500      60.8792       2.4066       0.2081       7.7240       8.7280
   2193.0000      60.6338       2.4046       0.2196       6.9705       8.7867
   2193.1500      64.4463       2.4011       0.2223       7.0522       8.8053
   2193.3000      64.2621       2.4137       0.2146       6.8864       8.7679
   2193.4500      66.9851       2.3928       0.2194       6.8637       8.7373
   2193.6000      68.4991       2.3870       0.2269       5.8478       8.7814
   2193.7500      68.0804       2.4034       0.2228       5.7458       8.7867
   2193.9000      68.5624       2.4096       0.2243       6.1593       8.7558
   2194.0500      68.5788       2.4067       0.2376       6.2934       8.8650
   2194.2000      68.8378       2.3953       0.2250       6.0535       8.9166
   2194.3500      66.0134       2.3841       0.2280       5.8651       8.9761
   2194.5000      66.4837       2.4011       0.2268       5.7029       8.9953
   2194.6500      68.1452       2.4057       0.2394       6.0611       8.9336
   2194.8000      69.4191       2.4150       0.2283       6.1218       9.0149
   2194.9500      67.2876       2.3960       0.2366       6.1018       9.0219
   2195.1000      66.4812       2.4023       0.2334       6.2721       8.9571
