~VERSION -------------------------------------------
 VERS.                 2.0 : CWLS LOG ASCII STANDARD - VERSION 2.0
 WRAP.                  NO : ONE LINE PER DEPTH STEP
~WELL -----------------------------------------------
 WELL.                KG-D6-A : Well name
 UWI .                IN-KGD-006        : Unique Well ID
 LAT .                16.3421        : Latitude
 LON .                82.5123        : Longitude
 STRT.M               1500.00 : START DEPTH
 STOP.M               3199.95 : STOP DEPTH
 STEP.M               0.1500 : STEP
 NULL.                -9999 : NULL VALUE
~CURVE -----------------------------------------------
 DEPTH .M               : Depth
 GR    .GAPI            : Gamma Ray
 RHOB  .G/C3            : Bulk Density
 NPHI  .V/V             : Neutron Porosity
 RT    .OHMM            : Resistivity
 CALI  .IN              : Caliper
~A  DEPTH              GR        RHOB        NPHI          RT        CALI
# ...
   1731.7500      67.2455       2.3960       0.2321       8.2941       8.9724
   1731.9000      67.5494       2.3954       0.2264       9.0402       8.9009
   1732.0500      66.0997       2.3784       0.2284       9.6060       8.9282
   1732.2000      66.3735       2.3816       0.2250      10.3309       8.8239
   1732.3500      67.4875       2.3878       0.2079      10.0949       8.8046
   1732.5000      67.7733       2.3903       0.1985      10.8153       8.8979
   1732.6500      67.8980       2.3878       0.1975      11.4668       8.8538
   1732.8000      66.3525       2.3799       0.1897      11.1724       8.7231
   1732.9500      66.4168       2.3787       0.1963      11.2563       8.7177
   1733.1000      66.4108       2.3812       0.2008      11.6939       8.6182
   1733.2500      68.5887       2.3771       0.1957      10.5255       8.6637
   1733.4000      68.1768       2.3843       0.1967      10.6156       8.6937
   1733.5500      67.9363       2.3818       0.1914       9.7741       8.6815
   1733.7000      67.9293       2.3803       0.1971      10.2339       8.7202
   1733.8500      68.4669       2.3895       0.2070      10.2011       8.7925
   1734.0000      68.7657       2.3717       0.2126      11.8342       8.7203
   1734.1500      72.7833       2.3559       0.2224      12.4868       8.8076
   1734.3000      72.7512       2.3434       0.2271      12.9424       8.8285
   1734.4500      71.0685       2.3472       0.2266      12.5447       8.8440
   1734.6000      71.1607       2.3617       0.2376      12.6603       9.0033
   1734.7500      68.7000       2.3638       0.2380      11.7087       9.0291
   1734.9000      68.8409       2.3757       0.2432      11.3101       8.9949
   1735.0500      69.2371       2.3832       0.2442      10.3361       9.0397
   1735.2000      65.8344       2.3730       0.2434       9.5699       9.1075
   1735.3500      63.5593       2.3737       0.2525       9.5143       9.0578
   1735.5000      63.8147       2.3746       0.2564       8.8044       9.1608
   1735.6500      64.4912       2.3765       0.2632       9.1876       9.1000
   1735.8000      65.4272       2.3876       0.2590       9.5248       9.0718
   1735.9500      63.1902       2.3879       0.2536       8.5860       9.0006
   1736.1000      65.7296       2.3923       0.2434       8.1533       8.8412
   1736.2500      64.3664       2.3803       0.2346       8.5439       8.7603
   1736.4000      61.1715       2.3789       0.2340       8.1543       8.7123
   1736.5500      61.6362       2.3725       0.2415       8.2558       8.6257
   1736.7000      62.2543       2.3783       0.2485       7.7867       8.5116
   1736.8500      59.3218       2.3805       0.2395       8.3039       8.5782
   1737.0000      60.0075       2.4033       0.2315       7.8637       8.4737
   1737.1500      60.7028       2.4122       0.2190       7.4339       8.4526
   1737.3000      58.0281       2.4296       0.2064       7.5486       8.4364
   1737.4500      58.1025       2.4256       0.2031       7.7374       8.5869
   1737.6000      56.2226       2.4205       0.1890       8.5558       8.6562
   1737.7500      55.8628       2.4184       0.1883       9.0147       8.7074
   1737.9000      56.0412       2.4103       0.1837       8.5965       8.8073
   1738.0500      54.8956       2.4228       0.1855       9.2331       8.8739
   1738.2000      55.4188       2.4239       0.1838       9.5883       8.9246
   1738.3500      58.0730       2.4202       0.1897      10.0133       8.8566
   1738.5000      57.7255       2.4100       0.1869      11.0049       8.8051
   1738.6500      58.7267       2.4210       0.1884      10.7077       8.8250
   1738.8000      57.0738       2.4227       0.1952      10.8822       8.8532
   1738.9500      57.7121       2.4306       0.1908      12.2739       8.8834
   1739.1000      56.9929       2.4266       0.1989      11.3814       8.9065
   1739.2500      56.4476       2.4304       0.2042      11.8719       8.9383
   1739.4000      60.2096       2.4227       0.2022      11.8484       8.9289
   1739.5500      61.8652       2.4214       0.1978      12.1337       8.9063
   1739.7000      63.9613       2.4186       0.1804      12.6739       8.8748
   1739.8500      65.5169       2.4061       0.1825      10.9678       8.9286
   1740.0000      65.2300       2.3956       0.1829      11.1142       9.0175
   1740.1500      63.8893       2.3987       0.1841      10.9818       9.0196
   1740.3000      65.6649       2.3851       0.1944       9.8338       9.0474
   1740.4500      66.4065       2.3741       0.1963       9.9596       8.8861
   1740.6000      67.5281       2.3686       0.2012       8.6948       8.7937
   1740.7500      69.0369       2.3664       0.2063       9.0059       8.7110
   1740.9000      70.6961       2.3768       0.2179       9.4569       8.6949
   1741.0500      72.5867       2.3716       0.2059       9.4445       8.6757
   1741.2000      69.9015       2.3773       0.2128       8.8468       8.6969
   1741.3500      67.6677       2.3688       0.2044       8.5413       8.6458
   1741.5000      67.7416       2.3689       0.2055       7.7839       8.6082
   1741.6500      67.7946       2.3611       0.2100       7.2752       8.6686
   1741.8000      68.3913       2.3563       0.2101       7.9949       8.5857
   1741.9500      69.1622       2.3295       0.2136       7.6261       8.6857
   1742.1000      69.2401       2.3379       0.2147       8.0335       8.8034
   1742.2500      71.1231       2.3556       0.2196       7.2839       8.8372
   1742.4000      69.8210       2.3589       0.2187       7.2328       8.8040
   1742.5500      68.7040       2.3666       0.2235       7.5851       8.8352
   1742.7000      65.7832       2.3474       0.2442       7.4431       8.8071
   1742.8500      66.7476       2.3555       0.2445       7.1586       8.9003
   1743.0000      67.9723       2.3565       0.2485       6.1565       8.8524
   1743.1500      65.4881       2.3593       0.2484       6.2095       8.8579
   1743.3000      65.0467       2.3701       0.2440       7.9476       8.9302
   1743.4500      65.9240       2.3700       0.2391       7.2162       8.8838
   1743.6000      64.0231       2.3819       0.2413       7.7636       8.8039
   1743.7500      65.4611       2.3834       0.2402       7.8149       8.7624
   1743.9000      65.1130       2.3876       0.2377       8.4384       8.7220
   1744.0500      64.5810       2.3876       0.2572       8.2820       8.7765
   1744.2000      66.9726       2.3875       0.2568       8.5401       8.7589
   1744.3500      69.2590       2.3973       0.2602       8.6680       8.7471
   1744.5000      69.8799       2.4094       0.2610       9.0943       8.7186
   1744.6500      67.1242       2.4087       0.2511       9.2819       8.6367
   1744.8000      67.7172       2.4239       0.2530       8.2447       8.6952
   1744.9500      70.9057       2.4363       0.2436       8.2206       8.7934
   1745.1000      71.2551       2.4271       0.2471       9.1019       8.7555
   1745.2500      71.3569       2.4165       0.2436      10.2098       8.7961
   1745.4000      70.9591       2.4163       0.2487      10.6504       8.8794
   1745.5500      69.8215       2.4117       0.2389       9.8111       8.7730
   1745.7000      71.0082       2.4389       0.2275       9.5523       8.8907
   1745.8500      72.2127       2.4502       0.2233      10.2527       8.8353
   1746.0000      71.4816       2.4621       0.2244      10.7268       8.8353
   1746.1500      70.7850       2.4564       0.2175      10.3488       8.8589
   1746.3000      70.2396       2.4733       0.2246       8.4999       8.8067
   1746.4500      69.1260       2.4938       0.2316       8.7146       8.7362
   1746.6000      72.9052       2.4816       0.2328       8.5770       8.7606
   1746.7500      73.4962       2.4786       0.2442       8.0512       8.7339
   1746.9000      72.5550       2.4564       0.2337       7.8875       8.6627
   1747.0500      71.8250       2.4503       0.2217       7.7671       8.7137
