~VERSION -------------------------------------------
 VERS.                 2.0 : CWLS LOG ASCII STANDARD - VERSION 2.0
 WRAP.                  NO : ONE LINE PER DEPTH STEP
~WELL -----------------------------------------------
 WELL.                KG-D6-A : Well name
 UWI .                IN-KGD-006        : Unique Well ID
 LAT .                16.3421        : Latitude
 LON .                82.5123        : Longitude
 STRT.M               1500.00 : START DEPTH
 STOP.M               3199.95 : STOP DEPTH
 STEP.M               0.1500 : STEP
 NULL.                -9999 : NULL VALUE
~CURVE -----------------------------------------------
 DEPTH .M               : Depth
 GR    .GAPI            : Gamma Ray
 RHOB  .G/C3            : Bulk Density
 NPHI  .V/V             : Neutron Porosity
 RT    .OHMM            : Resistivity
 CALI  .IN              : Caliper
~A  DEPTH              GR        RHOB        NPHI          RT        CALI
# ...
   2396.1000      62.9493       2.3737       0.2420       7.4391       8.7867
   2396.2500      63.2184       2.3809       0.2318       7.8102       8.7668
   2396.4000      64.5327       2.3692       0.2397       7.9308       8.7609
   2396.5500      64.6076       2.3829       0.2352       8.6488       8.7382
   2396.7000      66.2965       2.3731       0.2293       8.4961       8.7431
   2396.8500      67.3415       2.3800       0.2259       8.2415       8.7247
   2397.0000      67.8811       2.3905       0.2237       8.6736       8.7828
   2397.1500      68.9503       2.3781       0.2265       8.9296       8.7511
   2397.3000      66.8150       2.3698       0.2221       8.8085       8.7367
   2397.4500      67.2159       2.3621       0.2275       9.5111       8.8239
   2397.6000      67.2704       2.3799       0.2379       9.7287       8.8126
   2397.7500      68.6616       2.3952       0.2333      10.3379       8.7280
   2397.9000      66.4580       2.3740       0.2425       9.8633       8.6854
   2398.0500      65.4166       2.3600       0.2411       9.6460       8.6517
   2398.2000      66.2677       2.3474       0.2300       9.0358       8.5541
   2398.3500      66.0966       2.3616       0.2260       8.4158       8.5291
   2398.5000      65.5155       2.3607       0.2271       8.4328       8.4649
   2398.6500      69.1190       2.3741       0.2395       8.1434       8.4171
   2398.8000      69.9476       2.3681       0.2405       8.5568       8.5451
   2398.9500      68.4318       2.3723       0.2465       8.2968       8.5346
   2399.1000      67.9939       2.3551       0.2354       8.8624       8.5546
   2399.2500      66.4424       2.3557       0.2320       7.9215       8.6838
   2399.4000      65.1339       2.3568       0.2347       7.4052       8.6610
   2399.5500      63.2628       2.3618       0.2285       7.1386       8.7205
   2399.7000      61.6185       2.3688       0.2327       6.7347       8.8223
   2399.8500      57.0810       2.3695       0.2368       6.7049       8.8508
   2400.0000      58.5042       2.3653       0.2301       7.1456       8.8229
   2400.1500      58.2121       2.3850       0.2269       7.1308       8.8395
   2400.3000      61.5855       2.3851       0.2326       7.1622       8.8357
   2400.4500      62.3833       2.3939       0.2257       6.8138       8.7352
   2400.6000      64.9823       2.3819       0.2196       7.6567       8.7206
   2400.7500      64.8894       2.3759       0.2189       7.8686       8.6622
   2400.9000      66.1635       2.3811       0.2111       8.0210       8.6494
   2401.0500      65.0295       2.3944       0.2156       8.4869       8.6339
   2401.2000      64.3051       2.4037       0.2201       8.7333       8.5595
   2401.3500      63.5621       2.4063       0.2190       9.5819       8.5204
   2401.5000      61.6675       2.3984       0.2155       9.7880       8.5346
   2401.6500      60.2101       2.4027       0.2046       9.4909       8.5706
   2401.8000      57.7151       2.4129       0.2067       8.7337       8.4361
   2401.9500      59.8580       2.4142       0.1923       9.2411       8.5129
   2402.1000      60.0496       2.4085       0.1932       8.8574       8.5957
   2402.2500      61.6883       2.4193       0.1927       9.2130       8.5439
   2402.4000      61.8035       2.4094       0.1796       9.3310       8.5907
   2402.5500      64.0656       2.3982       0.1790       9.0804       8.5730
   2402.7000      66.3559       2.3937       0.1866      10.0852       8.6511
   2402.8500      69.0055       2.3808       0.1953       9.7045       8.7148
   2403.0000      69.1132       2.3780       0.2013       8.5193       8.7458
   2403.1500      69.4249       2.3779       0.2097       7.8227       8.6956
   2403.3000      66.9443       2.3783       0.2143       7.3315       8.7303
   2403.4500      64.9721       2.3737       0.2154       7.3326       8.7402
   2403.6000      63.3250       2.3815       0.2149       6.6944       8.5989
   2403.7500      65.9156       2.3679       0.2254       6.6630       8.6303
   2403.9000      66.2928       2.3884       0.2287       6.6767       8.6592
   2404.0500      66.2183       2.3698       0.2262       6.9089       8.7137
   2404.2000      67.9645       2.3684       0.2296       7.0019       8.6295
   2404.3500      68.4082       2.3592       0.2326       7.1143       8.6139
   2404.5000      70.8849       2.3682       0.2333       7.2204       8.6223
   2404.6500      67.3447       2.3541       0.2361       7.3601       8.6715
   2404.8000      68.6926       2.3601       0.2274       8.0449       8.7516
   2404.9500      68.2819       2.3498       0.2440       8.0738       8.7092
   2405.1000      67.8673       2.3575       0.2447       8.3977       8.7694
   2405.2500      67.3099       2.3547       0.2495       7.7149       8.7102
   2405.4000      71.2546       2.3694       0.2582       8.0554       8.6840
   2405.5500      72.5648       2.3695       0.2534       8.0449       8.6571
   2405.7000      74.4070       2.3721       0.2459       7.7041       8.7403
   2405.8500      74.7863       2.4036       0.2281       7.5786       8.7403
   2406.0000      75.1838       2.4088       0.2276       7.3444       8.7921
   2406.1500      72.6454       2.4171       0.2210       8.0001       8.7929
   2406.3000      74.3461       2.4123       0.2130       8.0814       8.8131
   2406.4500      76.9643       2.4109       0.2158       8.1150       8.8560
   2406.6000      76.7805       2.3969       0.2145       8.1741       8.8619
   2406.7500      73.5294       2.4013       0.2067       7.9285       8.9268
   2406.9000      72.9986       2.3847       0.2056       7.3084       8.9296
   2407.0500      74.5471       2.3896       0.1999       6.9984       8.9760
   2407.2000      73.2222       2.3843       0.1953       6.9304       8.8714
   2407.3500      73.2233       2.3871       0.2017       6.7075       8.8077
   2407.5000      69.7452       2.3869       0.2055       6.8086       8.8100
   2407.6500      68.9375       2.3896       0.2081       6.9597       8.7640
   2407.8000      68.8758       2.3756       0.2203       6.3417       8.7924
   2407.9500      66.3731       2.3881       0.2129       6.4624       8.8423
   2408.1000      67.2635       2.3887       0.2145       5.6486       8.8826
   2408.2500      65.7073       2.3791       0.2142       6.3242       8.8842
   2408.4000      63.8487       2.3828       0.2182       5.7139       9.0287
   2408.5500      62.9544       2.3790       0.2229       5.7219       9.0057
   2408.7000      60.6759       2.3876       0.2250       5.6840       9.0544
   2408.8500      59.1395       2.3876       0.2321       5.9385       9.1293
   2409.0000      59.2687       2.3779       0.2314       6.4287       9.0597
   2409.1500      62.2922       2.3639       0.2299       6.7601       9.0822
   2409.3000      65.3874       2.3573       0.2347       7.0257       8.9490
   2409.4500      63.7593       2.3670       0.2336       6.9683       8.8237
   2409.6000      65.9218       2.3838       0.2384       6.9898       8.7014
   2409.7500      67.1928       2.3821       0.2462       7.8140       8.6569
   2409.9000      67.4863       2.3830       0.2538       8.8109       8.5724
   2410.0500      66.3429       2.3926       0.2602       9.2477       8.5525
   2410.2000      66.5963       2.4025       0.2542       8.8767       8.5934
   2410.3500      64.0410       2.4174       0.2509       8.1687       8.6006
   2410.5000      67.3557       2.4049       0.2374       8.1367       8.6049
   2410.6500      69.6966       2.4218       0.2401       8.0418       8.5756
   2410.8000      71.1926       2.4254       0.2359       8.8217       8.6438
   2410.9500      72.3708       2.4258       0.2319       8.4365       8.6829
   2411.1000      69.9408       2.4341       0.2272       8.9359       8.7534
   2411.2500      71.0761       2.4518       0.2273       8.8783       8.7773
   2411.4000      71.4357       2.4432       0.2262       8.9083       8.6518
