~VERSION -------------------------------------------
 VERS.                 2.0 : CWLS LOG ASCII STANDARD - VERSION 2.0
 WRAP.                  NO : ONE LINE PER DEPTH STEP
~WELL -----------------------------------------------
 WELL.                KG-D6-A : Well name
 UWI .                IN-KGD-006        : Unique Well ID
 LAT .                16.3421        : Latitude
 LON .                82.5123        : Longitude
 STRT.M               1500.00 : START DEPTH
 STOP.M               3199.95 : STOP DEPTH
 STEP.M               0.1500 : STEP
 NULL.                -9999 : NULL VALUE
~CURVE -----------------------------------------------
 DEPTH .M               : Depth
 GR    .GAPI            : Gamma Ray
 RHOB  .G/C3            : Bulk Density
 NPHI  .V/V             : Neutron Porosity
 RT    .OHMM            : Resistivity
 CALI  .IN              : Caliper
~A  DEPTH              GR        RHOB        NPHI          RT        CALI
# ...
   2504.2500      75.8325       2.3567       0.2108       5.4635       8.6160
   2504.4000      76.2255       2.3502       0.2023       5.2102       8.6513
   2504.5500      73.8170       2.3395       0.2021       5.2836       8.6477
   2504.7000      72.7698       2.3329       0.2070       5.8545       8.6733
   2504.8500      72.2709       2.3249       0.1991       6.1061       8.6690
   2505.0000      72.9965       2.3374       0.1899       6.3493       8.7861
   2505.1500      71.5125       2.3418       0.1945       6.2680       8.7584
   2505.3000      72.5128       2.3417       0.2008       5.8605       8.7831
   2505.4500      72.5242       2.3608       0.2053       5.4494       8.8400
   2505.6000      70.7438       2.3685       0.2093       5.5715       8.8883
   2505.7500      71.2197       2.3666       0.2059       5.6731       8.9642
   2505.9000      71.3114       2.3621       0.2005       5.2972       8.9270
   2506.0500      67.9716       2.3679       0.2069       5.4536       8.9685
   2506.2000      69.6438       2.3748       0.2114       5.2892       9.0381
   2506.3500      68.3612       2.3900       0.2072       5.3076       9.0803
   2506.5000      67.4862       2.4039       0.2179       6.0565       8.9499
   2506.6500      66.3656       2.4129       0.2215       5.9942       8.9750
   2506.8000      64.2137       2.4055       0.2200       6.2145       8.9577
   2506.9500      64.3111       2.4061       0.2226       6.3674       8.8950
   2507.1000      62.6479       2.4105       0.2218       6.4957       8.7930
   2507.2500      58.0398       2.4228       0.2277       6.8232       8.8541
   2507.4000      59.8594       2.4291       0.2367       6.6811       8.8568
   2507.5500      62.1016       2.4491       0.2476       7.4205       8.7615
   2507.7000      60.5367       2.4449       0.2505       7.7627       8.6260
   2507.8500      61.3881       2.4443       0.2563       7.1391       8.6466
   2508.0000      59.7584       2.4298       0.2564       7.1457       8.6811
   2508.1500      62.0975       2.4096       0.2551       7.8245       8.6998
   2508.3000      61.8146       2.4228       0.2509       8.5367       8.7773
   2508.4500      61.7287       2.4215       0.2561       7.9406       8.8103
   2508.6000      62.6534       2.4292       0.2465       8.3105       8.8497
   2508.7500      60.5133       2.4354       0.2492       7.5926       8.8709
   2508.9000      61.1365       2.4401       0.2408       7.9728       8.7774
   2509.0500      62.0348       2.4158       0.2433       7.8328       8.8890
   2509.2000      59.3882       2.4143       0.2449       8.2981       9.0056
   2509.3500      59.6859       2.3950       0.2557       8.5945       8.9655
   2509.5000      60.2651       2.3861       0.2550       7.8882       9.0170
   2509.6500      63.0689       2.3797       0.2532       7.7722       8.9871
   2509.8000      64.1984       2.3895       0.2586       7.8990       8.8334
   2509.9500      64.0432       2.3918       0.2487       7.6832       8.8245
   2510.1000      63.4135       2.3943       0.2362       7.3331       8.8559
   2510.2500      67.1072       2.3867       0.2356       7.0157       8.8501
   2510.4000      64.8341       2.3924       0.2281       7.2712       8.9364
   2510.5500      60.4505       2.3925       0.2110       6.7389       8.9078
   2510.7000      60.0896       2.3944       0.2053       6.1610       8.7837
   2510.8500      59.0656       2.3899       0.1922       6.0584       8.7251
   2511.0000      59.4287       2.3976       0.1985       5.7112       8.6983
   2511.1500      59.4317       2.4079       0.1932       5.2009       8.6203
   2511.3000      59.4328       2.3983       0.1885       4.8269       8.6849
   2511.4500      59.1755       2.4022       0.1853       5.1568       8.6080
   2511.6000      59.1388       2.4046       0.1974       4.7025       8.6534
   2511.7500      62.0190       2.3977       0.1915       4.9421       8.5542
   2511.9000      62.7447       2.4088       0.2013       4.8414       8.5394
   2512.0500      64.8648       2.4129       0.1961       5.4975       8.4980
   2512.2000      65.0045       2.4064       0.1890       4.9566       8.5166
   2512.3500      66.5006       2.4252       0.1858       4.5631       8.5488
   2512.5000      66.7329       2.4273       0.1735       4.8410       8.5266
   2512.6500      65.2150       2.4182       0.1761       5.3901       8.5776
   2512.8000      67.7374       2.4127       0.1806       5.3861       8.5498
   2512.9500      68.6947       2.4101       0.1879       5.3967       8.6292
   2513.1000      68.9186       2.4164       0.1948       5.2601       8.5561
   2513.2500      63.9329       2.4184       0.1886       5.3530       8.5029
   2513.4000      63.4708       2.4153       0.1919       5.3252       8.4213
   2513.5500      64.8074       2.4196       0.1979       5.1410       8.4156
   2513.7000      64.9346       2.4341       0.1957       4.9562       8.4564
   2513.8500      62.5101       2.4518       0.2100       5.3680       8.4844
   2514.0000      61.0525       2.4464       0.2119       5.7686       8.5277
   2514.1500      59.3830       2.4408       0.2148       5.9461       8.5038
   2514.3000      57.8215       2.4368       0.2155       6.0490       8.4966
   2514.4500      57.3335       2.4376       0.2177       6.3273       8.4750
   2514.6000      55.9369       2.4256       0.2055       8.2117       8.4655
   2514.7500      53.9094       2.4412       0.2075       8.4575       8.5349
   2514.9000      53.9790       2.4376       0.2078       8.4184       8.5981
   2515.0500      51.6927       2.4396       0.2139       7.6989       8.6719
   2515.2000      55.1579       2.4507       0.2237       8.2874       8.7057
   2515.3500      53.6523       2.4453       0.2284       8.4700       8.8170
   2515.5000      55.0973       2.4474       0.2316       8.9977       8.8109
   2515.6500      57.3039       2.4451       0.2403       8.3289       8.9380
   2515.8000      53.5282       2.4367       0.2272       7.2701       9.0015
   2515.9500      49.8654       2.4418       0.2268       7.8557       9.0588
   2516.1000      51.2914       2.4284       0.2308       7.7021       9.1025
   2516.2500      55.3837       2.4202       0.2366       7.7238       9.0762
   2516.4000      57.4478       2.4221       0.2333       8.7365       9.1127
   2516.5500      61.1684       2.4141       0.2399       9.0969       9.0408
   2516.7000      62.7787       2.4022       0.2405       9.0589       8.9815
   2516.8500      64.1854       2.4019       0.2350       9.3263       8.9530
   2517.0000      68.0096       2.4044       0.2345       8.9164       8.9283
   2517.1500      69.1702       2.3954       0.2348       8.6141       8.8298
   2517.3000      71.9379       2.3801       0.2427       8.6173       8.7816
   2517.4500      73.1960       2.3676       0.2380       8.3268       8.7564
   2517.6000      76.0138       2.3695       0.2509       6.7385       8.7222
   2517.7500      76.4783       2.3646       0.2497       6.9401       8.7411
   2517.9000      75.9174       2.3518       0.2400       6.9260       8.6699
   2518.0500      75.8051       2.3594       0.2369       7.2965       8.7675
   2518.2000      75.1341       2.3508       0.2324       7.2259       8.7954
   2518.3500      77.6731       2.3429       0.2289       7.3418       8.7351
   2518.5000      75.1232       2.3408       0.2320       6.9469       8.7987
   2518.6500      76.1391       2.3462       0.2215       7.3046       8.7584
   2518.8000      75.6660       2.3555       0.2281       7.3648       8.7532
   2518.9500      75.9318       2.3551       0.2365       7.5614       8.6862
   2519.1000      77.0125       2.3618       0.2314       8.6223       8.7353
   2519.2500      76.7855       2.3708       0.2344       8.5247       8.7743
   2519.4000      74.4496       2.3701       0.2295       7.4788       8.7857
   2519.5500      69.4844       2.3644       0.2351       6.8030       8.7413
