~VERSION -------------------------------------------
 VERS.                 2.0 : CWLS LOG ASCII STANDARD - VERSION 2.0
 WRAP.                  NO : ONE LINE PER DEPTH STEP
~WELL -----------------------------------------------
 WELL.                KG-D6-A : Well name
 UWI .                IN-KGD-006        : Unique Well ID
 LAT .                16.3421        : Latitude
 LON .                82.5123        : Longitude
 STRT.M               1500.00 : START DEPTH
 STOP.M               3199.95 : STOP DEPTH
 STEP.M               0.1500 : STEP
 NULL.                -9999 : NULL VALUE
~CURVE -----------------------------------------------
 DEPTH .M               : Depth
 GR    .GAPI            : Gamma Ray
 RHOB  .G/C3            : Bulk Density
 NPHI  .V/V             : Neutron Porosity
 RT    .OHMM            : Resistivity
 CALI  .IN              : Caliper
~A  DEPTH              GR        RHOB        NPHI          RT        CALI
# ...
   1839.9000      65.4517       2.4315       0.2715       6.4359       8.7273
   1840.0500      63.8636       2.4362       0.2605       6.6524       8.8229
   1840.2000      64.7966       2.4215       0.2595       7.1008       8.8147
   1840.3500      63.9475       2.4177       0.2528       7.0972       8.7799
   1840.5000      64.5664       2.4020       0.2450       7.5376       8.7719
   1840.6500      64.4815       2.4115       0.2351       7.8012       8.7022
   1840.8000      66.0911       2.4000       0.2353       8.1154       8.7370
   1840.9500      67.8467       2.4071       0.2324       8.6274       8.7733
   1841.1000      67.9411       2.4026       0.2342       8.0142       8.8438
   1841.2500      66.6995       2.3937       0.2392       7.8326       8.8200
   1841.4000      67.8632       2.4131       0.2310       7.0455       8.8229
   1841.5500      68.8612       2.4082       0.2336       6.4874       8.7142
   1841.7000      70.2282       2.4128       0.2330       6.4964       8.8145
   1841.8500      67.0156       2.3895       0.2269       6.0181       8.7878
   1842.0000      66.9371       2.3905       0.2261       6.2529       8.8261
   1842.1500      68.0339       2.3819       0.2237       5.7849       8.8349
   1842.3000      67.4377       2.3909       0.2157       6.5251       8.7456
   1842.4500      67.7929       2.4017       0.2154       6.0682       8.8378
   1842.6000      66.8281       2.4043       0.2166       6.4914       8.8036
   1842.7500      65.8657       2.3884       0.2229       6.8842       8.7569
   1842.9000      62.6352       2.3908       0.2225       7.2374       8.6880
   1843.0500      62.1260       2.4033       0.2324       7.1999       8.7850
   1843.2000      62.6659       2.4160       0.2258       6.5590       8.7091
   1843.3500      63.4998       2.4180       0.2294       6.6883       8.6752
   1843.5000      63.3519       2.4264       0.2260       6.6854       8.6852
   1843.6500      62.2465       2.4292       0.2311       6.3384       8.7228
   1843.8000      60.1333       2.4304       0.2331       6.9231       8.8030
   1843.9500      58.4498       2.4389       0.2367       6.6405       8.7501
   1844.1000      58.1628       2.4282       0.2305       6.9553       8.7354
   1844.2500      58.4996       2.4252       0.2189       7.0467       8.7532
   1844.4000      59.7190       2.4239       0.2319       8.2744       8.7935
   1844.5500      59.2960       2.4384       0.2230       8.7076       8.7854
   1844.7000      58.1748       2.4200       0.2259       7.9110       8.8153
   1844.8500      59.7973       2.4369       0.2270       8.3568       8.8860
   1845.0000      59.1791       2.4515       0.2313       8.0696       8.8998
   1845.1500      58.4766       2.4612       0.2378       8.6290       8.8060
   1845.3000      59.8359       2.4616       0.2397       7.7542       8.7522
   1845.4500      60.1820       2.4544       0.2264       8.1289       8.6766
   1845.6000      57.9161       2.4671       0.2130       7.7068       8.6761
   1845.7500      59.2942       2.4839       0.2122       7.3111       8.7607
   1845.9000      58.1355       2.4691       0.2065       7.5747       8.7302
   1846.0500      57.5820       2.4675       0.1973       7.6321       8.7480
   1846.2000      55.5468       2.4627       0.2004       7.8878       8.6672
   1846.3500      55.1786       2.4575       0.2030       8.1791       8.6794
   1846.5000      56.4089       2.4452       0.2097       7.7177       8.6276
   1846.6500      56.6578       2.4491       0.1989       7.3059       8.6966
   1846.8000      58.0406       2.4575       0.1942       6.4816       8.7647
   1846.9500      60.5487       2.4605       0.1914       6.0735       8.8794
   1847.1000      59.6590       2.4669       0.1858       5.9206       8.9632
   1847.2500      61.2630       2.4682       0.1859       5.9258       8.9969
   1847.4000      59.6484       2.4701       0.1868       5.1903       8.9683
   1847.5500      59.2731       2.4531       0.1927       5.1871       8.8608
   1847.7000      60.2465       2.4626       0.1949       5.6916       8.8819
   1847.8500      60.6492       2.4516       0.1937       5.8152       8.9294
   1848.0000      62.6767       2.4320       0.1914       5.6026       8.8755
   1848.1500      62.0064       2.4396       0.1869       6.0613       8.8796
   1848.3000      63.6178       2.4238       0.1817       6.5344       8.7596
   1848.4500      65.7230       2.4209       0.1887       6.2666       8.6865
   1848.6000      67.9742       2.4143       0.2042       5.9114       8.6822
   1848.7500      66.1442       2.3917       0.2029       6.7016       8.6473
   1848.9000      69.7709       2.3977       0.2056       6.7196       8.7694
   1849.0500      68.3103       2.4029       0.2108       6.8080       8.7954
   1849.2000      69.5661       2.3997       0.2159       6.6669       8.8661
   1849.3500      68.8268       2.4064       0.2111       5.9699       8.7395
   1849.5000      66.8292       2.4275       0.2050       6.4811       8.7370
   1849.6500      65.6905       2.4262       0.2104       6.6442       8.7365
   1849.8000      64.6615       2.4219       0.2089       6.4635       8.7649
   1849.9500      63.3473       2.4158       0.2147       6.8442       8.8459
   1850.1000      63.8003       2.4141       0.2318       7.2027       8.7410
   1850.2500      62.1348       2.4158       0.2425       7.7648       8.7112
   1850.4000      63.6691       2.4119       0.2449       8.3985       8.6843
   1850.5500      65.1083       2.4170       0.2433       8.9077       8.7196
   1850.7000      65.1699       2.4187       0.2442       8.9456       8.6640
   1850.8500      67.5833       2.4200       0.2468       9.4746       8.6695
   1851.0000      64.9644       2.4429       0.2467       9.7561       8.6928
   1851.1500      66.0891       2.4397       0.2469       9.3108       8.7557
   1851.3000      63.9927       2.4473       0.2548       8.5192       8.8470
   1851.4500      60.7555       2.4395       0.2593       9.7214       8.7780
   1851.6000      58.3989       2.4338       0.2565      10.2042       8.8194
   1851.7500      58.8563       2.4452       0.2522       9.2880       8.7854
   1851.9000      56.9026       2.4443       0.2560       8.6084       8.7394
   1852.0500      58.4633       2.4332       0.2448       8.2677       8.7829
   1852.2000      58.1376       2.4339       0.2342       7.6157       8.8346
   1852.3500      58.1556       2.4277       0.2344       8.3202       8.8592
   1852.5000      59.5690       2.4117       0.2458       8.0730       8.9116
   1852.6500      59.4527       2.4149       0.2534       8.8341       8.9487
   1852.8000      61.0876       2.4200       0.2586       9.6607       8.9169
   1852.9500      60.6435       2.4286       0.2529       9.7393       8.9498
   1853.1000      61.1018       2.4396       0.2435       8.8260       8.9122
   1853.2500      62.0859       2.4309       0.2377       8.5570       8.9524
   1853.4000      61.1656       2.4185       0.2234       8.3566       8.9631
   1853.5500      60.4786       2.4193       0.2237       8.6702       8.9539
   1853.7000      60.0885       2.4129       0.2263       8.6579       8.9373
   1853.8500      59.5433       2.4132       0.2265       8.5129       8.9635
   1854.0000      61.7340       2.3978       0.2311       8.1649       8.9215
   1854.1500      61.4894       2.4008       0.2227       7.9090       8.8296
   1854.3000      61.2887       2.3978       0.2124       8.3945       8.8356
   1854.4500      61.8543       2.4075       0.2100       7.3627       8.9086
   1854.6000      64.4010       2.4277       0.2047       8.2336       9.0251
   1854.7500      64.1280       2.4199       0.2038       8.0059       8.9889
   1854.9000      65.3045       2.4273       0.1991       7.4999       9.0532
   1855.0500      64.9559       2.4374       0.2036       7.0216       8.9969
   1855.2000      65.2321       2.4486       0.2087       7.4345       9.0559
