~VERSION -------------------------------------------
 VERS.                 2.0 : CWLS LOG ASCII STANDARD - VERSION 2.0
 WRAP.                  NO : ONE LINE PER DEPTH STEP
~WELL -----------------------------------------------
 WELL.                MUMBAI-1 : Well name
 UWI .                IN-MUM-001        : Unique Well ID
 LAT .                19.5431        : Latitude
 LON .                71.3241        : Longitude
 STRT.M               1200.00 : START DEPTH
 STOP.M               2799.90 : STOP DEPTH
 STEP.M               0.1500 : STEP
 NULL.                -9999 : NULL VALUE
~CURVE -----------------------------------------------
 DEPTH .M               : Depth
 GR    .GAPI            : Gamma Ray
 RHOB  .G/C3            : Bulk Density
 NPHI  .V/V             : Neutron Porosity
 RT    .OHMM            : Resistivity
 CALI  .IN              : Caliper
~A  DEPTH              GR        RHOB        NPHI          RT        CALI
# ...
   2683.2000      24.1957       2.4278       0.2149     492.5834       8.4759
   2683.3500      25.1946       2.4372       0.2111     408.8312       8.4904
   2683.5000      25.4258       2.4578       0.2091     316.2100       8.5395
   2683.6500      25.3607       2.4679       0.2095     239.6573       8.4186
   2683.8000      24.9872       2.4689       0.2192     214.3391       8.4240
   2683.9500      26.0663       2.4903       0.2231     210.4811       8.4863
   2684.1000      27.1363       2.4897       0.2297     192.2938       8.4279
   2684.2500      28.0560       2.4962       0.2307     211.7189       8.3536
   2684.4000      28.0250       2.5177       0.2356     201.1745       8.3405
   2684.5500      27.2252       2.5169       0.2335     232.2395       8.3333
   2684.7000      27.0870       2.5149       0.2413     243.8259       8.3801
   2684.8500      26.7160       2.5173       0.2381     277.3360       8.4280
   2685.0000      26.0547       2.5061       0.2320     338.8612       8.4386
   2685.1500      24.7277       2.5081       0.2354     347.3342       8.5229
   2685.3000      25.1349       2.4986       0.2397     361.8703       8.5562
   2685.4500      25.3698       2.4873       0.2453     364.6300       8.5041
   2685.6000      25.6321       2.4861       0.2505     346.9545       8.6006
   2685.7500      24.5352       2.4611       0.2478     370.5043       8.6736
   2685.9000      24.8280       2.4717       0.2518     364.8186       8.6320
   2686.0500      24.2777       2.4773       0.2495     523.7490       8.7003
   2686.2000      23.7476       2.4778       0.2512     629.0386       8.6437
   2686.3500      24.2739       2.4834       0.2539     835.4470       8.5522
   2686.5000      23.8582       2.4673       0.2518     989.4038       8.5268
   2686.6500      24.2314       2.4787       0.2479    1205.0363       8.5623
   2686.8000      25.1863       2.4783       0.2492    1392.6626       8.5597
   2686.9500      24.6440       2.4725       0.2546    1427.7766       8.5495
   2687.1000      24.6764       2.4732       0.2527    1527.3521       8.4531
   2687.2500      23.4729       2.4691       0.2531    1460.9035       8.5053
   2687.4000      24.6374       2.4661       0.2506    1676.6135       8.5908
   2687.5500      25.4359       2.4684       0.2561    1369.2765       8.5500
   2687.7000      26.7668       2.4690       0.2574    1322.2497       8.5595
   2687.8500      26.1643       2.4696       0.2601    1226.9244       8.5595
   2688.0000      25.9362       2.4703       0.2590    1205.0621       8.6194
   2688.1500      27.7446       2.4686       0.2580    1269.4049       8.5278
   2688.3000      26.8637       2.4697       0.2510    1179.9854       8.5426
   2688.4500      26.2349       2.4658       0.2474    1143.2680       8.5766
   2688.6000      26.0840       2.4596       0.2448    1134.7140       8.6334
   2688.7500      26.4029       2.4668       0.2441    1096.5653       8.5081
   2688.9000      27.6327       2.4449       0.2461    1078.9545       8.5357
   2689.0500      26.9775       2.4305       0.2448    1014.3945       8.5011
   2689.2000      27.0451       2.4218       0.2444    1085.6588       8.4709
   2689.3500      26.2733       2.4314       0.2473     966.0997       8.5371
   2689.5000      26.5583       2.4309       0.2542     927.3072       8.4660
   2689.6500      26.2806       2.4207       0.2547     917.3731       8.5135
   2689.8000      26.3988       2.4309       0.2506     997.5754       8.4480
   2689.9500      26.1976       2.4265       0.2502     889.6017       8.4676
   2690.1000      25.6622       2.4258       0.2485     895.0381       8.4122
   2690.2500      24.9547       2.4178       0.2505     931.4621       8.4890
   2690.4000      24.4367       2.4109       0.2489     825.2257       8.4752
   2690.5500      24.7428       2.4238       0.2465     944.3756       8.4920
   2690.7000      24.4516       2.4168       0.2426    1004.2247       8.4906
   2690.8500      25.5062       2.4081       0.2345     976.4371       8.4335
   2691.0000      25.7807       2.4273       0.2365     976.8529       8.4579
   2691.1500      24.6209       2.4308       0.2395     876.1031       8.3824
   2691.3000      24.8745       2.4238       0.2432     923.7225       8.4312
   2691.4500      25.1727       2.4389       0.2465    1021.9277       8.4240
   2691.6000      24.4704       2.4401       0.2556     912.1897       8.4362
   2691.7500      25.3839       2.4295       0.2570     943.9241       8.3884
   2691.9000      24.2958       2.4237       0.2577     900.8278       8.3287
   2692.0500      23.6534       2.4395       0.2660     825.0221       8.3025
   2692.2000      23.4853       2.4457       0.2689     886.8568       8.2972
   2692.3500      24.2468       2.4388       0.2611    1022.9809       8.3281
   2692.5000      24.7516       2.4473       0.2586     977.7513       8.3217
   2692.6500      25.5640       2.4526       0.2570    1020.9741       8.3390
   2692.8000      24.7357       2.4520       0.2551     999.9382       8.3300
   2692.9500      24.0096       2.4450       0.2511    1253.8522       8.3210
   2693.1000      24.9206       2.4398       0.2518    1281.0461       8.3465
   2693.2500      25.4869       2.4370       0.2440    1351.7220       8.3356
   2693.4000      25.0763       2.4448       0.2405    1296.2492       8.2961
   2693.5500      25.3986       2.4458       0.2371    1315.7404       8.3552
   2693.7000      25.0591       2.4449       0.2375    1278.8271       8.4069
   2693.8500      24.6767       2.4486       0.2389    1353.8731       8.4040
   2694.0000      24.4025       2.4475       0.2390    1423.3156       8.4382
   2694.1500      25.0759       2.4525       0.2329    1528.3235       8.5183
   2694.3000      25.1545       2.4615       0.2265    1447.8844       8.5498
   2694.4500      25.9587       2.4581       0.2242    1323.4565       8.5705
   2694.6000      25.4813       2.4525       0.2099    1427.7466       8.5851
   2694.7500      24.8987       2.4700       0.2052    1186.8128       8.5980
   2694.9000      24.5635       2.4722       0.2026    1283.5866       8.6018
   2695.0500      25.4643       2.4683       0.2006    1343.0556       8.5388
   2695.2000      25.2541       2.4752       0.1937    1201.4436       8.5737
   2695.3500      24.4504       2.4729       0.1929    1252.7928       8.6328
   2695.5000      24.8227       2.4761       0.1947    1323.2595       8.5597
   2695.6500      24.8703       2.4715       0.1926    1330.7897       8.4622
   2695.8000      26.0473       2.4692       0.1921    1264.9715       8.4244
   2695.9500      25.6971       2.4845       0.1861    1220.5000       8.3756
   2696.1000      25.1493       2.4923       0.1864    1220.5000       8.3855
   2696.2500      24.8419       2.4865       0.1873    1178.4706       8.4231
   2696.4000      25.3999       2.4977       0.1884    1225.2546       8.4193
   2696.5500      24.3330       2.4720       0.1916    1232.4151       8.4358
   2696.7000      23.8164       2.4644       0.1862    1315.3432       8.4125
   2696.8500      23.7584       2.4693       0.1908    1281.2282       8.4041
   2697.0000      25.7649       2.4534       0.1975    1336.2938       8.3862
   2697.1500      26.1443       2.4504       0.1953    1144.4688       8.4295
   2697.3000      26.2807       2.4412       0.2031    1223.5308       8.3892
   2697.4500      25.9986       2.4381       0.2018    1216.7575       8.3928
   2697.6000      26.0691       2.4517       0.2061    1125.6843       8.3634
   2697.7500      27.2121       2.4451       0.2090    1276.1673       8.3440
   2697.9000      29.2057       2.4616       0.2084    1067.7787       8.3770
   2698.0500      28.3049       2.4600       0.2081    1198.8741       8.4149
   2698.2000      28.1948       2.4509       0.2124    1301.7514       8.4360
   2698.3500      28.2780       2.4447       0.2117    1263.2085       8.4154
   2698.5000      28.3163       2.4413       0.2065    1335.0026       8.4682
