~VERSION -------------------------------------------
 VERS.                 2.0 : CWLS LOG ASCII STANDARD - VERSION 2.0
 WRAP.                  NO : ONE LINE PER DEPTH STEP
~WELL -----------------------------------------------
 WELL.                MUMBAI-1 : Well name
 UWI .                IN-MUM-001        : Unique Well ID
 LAT .                19.5431        : Latitude
 LON .                71.3241        : Longitude
 STRT.M               1200.00 : START DEPTH
 STOP.M               2799.90 : STOP DEPTH
 STEP.M               0.1500 : STEP
 NULL.                -9999 : NULL VALUE
~CURVE -----------------------------------------------
 DEPTH .M               : Depth
 GR    .GAPI            : Gamma Ray
 RHOB  .G/C3            : Bulk Density
 NPHI  .V/V             : Neutron Porosity
 RT    .OHMM            : Resistivity
 CALI  .IN              : Caliper
~A  DEPTH              GR        RHOB        NPHI          RT        CALI
# ...
   1524.4500      25.3459       2.4208       0.2607    1377.0228       8.8128
   1524.6000      24.7997       2.4235       0.2565    1267.3607       8.7793
   1524.7500      25.0328       2.4286       0.2600    1282.4069       8.7661
   1524.9000      23.1363       2.4247       0.2635    1256.7619       8.7653
   1525.0500      23.6768       2.4114       0.2526    1155.4400       8.8001
   1525.2000      23.4417       2.4177       0.2525    1133.5928       8.8369
   1525.3500      23.3578       2.4352       0.2488    1035.9230       8.8521
   1525.5000      24.0036       2.4400       0.2453    1104.3300       8.8140
   1525.6500      22.9685       2.4366       0.2419    1237.5915       8.6955
   1525.8000      23.1385       2.4314       0.2387    1259.8228       8.6235
   1525.9500      21.9666       2.4376       0.2406    1052.9843       8.6248
   1526.1000      21.9150       2.4401       0.2445    1090.1312       8.5517
   1526.2500      23.1628       2.4348       0.2400    1169.1008       8.4738
   1526.4000      22.4055       2.4396       0.2355    1138.7275       8.4046
   1526.5500      22.4925       2.4407       0.2385    1110.6773       8.3524
   1526.7000      22.6076       2.4384       0.2315     983.9790       8.4113
   1526.8500      23.0324       2.4384       0.2295    1024.2214       8.3687
   1527.0000      23.2205       2.4524       0.2313     942.1189       8.3440
   1527.1500      24.1513       2.4568       0.2341     952.9782       8.3785
   1527.3000      24.0832       2.4491       0.2287     808.5996       8.3616
   1527.4500      23.2847       2.4465       0.2318     732.3109       8.3424
   1527.6000      22.4140       2.4436       0.2241     768.4905       8.4638
   1527.7500      21.5274       2.4446       0.2222     780.2998       8.4806
   1527.9000      22.2729       2.4415       0.2227     736.2828       8.5570
   1528.0500      22.3985       2.4578       0.2299     828.9132       8.5570
   1528.2000      22.2317       2.4498       0.2391     747.4098       8.5067
   1528.3500      23.2222       2.4450       0.2345     802.2961       8.4309
   1528.5000      22.5283       2.4427       0.2366     813.4464       8.4584
   1528.6500      23.2432       2.4349       0.2282     731.6897       8.4144
   1528.8000      23.1208       2.4337       0.2332     696.8523       8.4914
   1528.9500      23.6525       2.4278       0.2273     795.0759       8.5001
   1529.1000      23.7808       2.4279       0.2170     824.1118       8.3985
   1529.2500      23.3087       2.4167       0.2151     833.8870       8.4163
   1529.4000      23.8863       2.4212       0.2177     814.9958       8.4482
   1529.5500      23.9771       2.4220       0.2183     767.2304       8.4482
   1529.7000      25.1134       2.4243       0.2201     769.8948       8.4333
   1529.8500      24.6947       2.4195       0.2161     756.0512       8.5618
   1530.0000      23.8155       2.4210       0.2154     746.3142       8.5690
   1530.1500      22.4117       2.4183       0.2110     785.2582       8.6709
   1530.3000      21.9891       2.4266       0.2143    1039.4280       8.6427
   1530.4500      21.9102       2.4281       0.2168     982.0200       8.6376
   1530.6000      22.9465       2.4243       0.2252     999.0996       8.6178
   1530.7500      23.3569       2.4261       0.2333     966.2929       8.5833
   1530.9000      23.5278       2.4355       0.2402    1075.7644       8.4917
   1531.0500      24.4507       2.4189       0.2338     980.3039       8.4917
   1531.2000      24.7703       2.4234       0.2329    1152.6685       8.4341
   1531.3500      23.5671       2.4256       0.2444    1142.9332       8.3022
   1531.5000      24.9767       2.4157       0.2438    1015.0109       8.2364
   1531.6500      24.6714       2.4258       0.2505    1084.8702       8.1901
   1531.8000      23.9762       2.4232       0.2513    1067.3116       8.1413
   1531.9500      24.1452       2.4238       0.2526    1132.6523       8.1735
   1532.1000      23.8222       2.4273       0.2548     981.7494       8.2103
   1532.2500      22.6997       2.4304       0.2561     957.3495       8.2103
   1532.4000      22.6191       2.4252       0.2510     906.5058       8.2353
   1532.5500      23.4769       2.4120       0.2527     933.4788       8.2985
   1532.7000      23.2515       2.4069       0.2574    1002.7268       8.3285
   1532.8500      22.3259       2.4130       0.2547    1089.8921       8.4166
   1533.0000      23.5964       2.4065       0.2538    1025.6915       8.4664
   1533.1500      23.7853       2.4277       0.2565    1090.1753       8.4594
   1533.3000      22.8432       2.4235       0.2577     968.7698       8.5592
   1533.4500      23.2688       2.4369       0.2467    1117.5830       8.5114
   1533.6000      23.4914       2.4404       0.2460    1248.6694       8.5168
   1533.7500      24.0830       2.4329       0.2416    1289.2572       8.5168
   1533.9000      24.2041       2.4213       0.2322    1181.7071       8.4750
   1534.0500      24.0364       2.4394       0.2355    1129.4430       8.4346
   1534.2000      24.7353       2.4504       0.2336    1177.6761       8.4528
   1534.3500      25.1028       2.4557       0.2267     814.4315       8.4082
   1534.5000      24.8156       2.4667       0.2263     709.8777       8.3862
   1534.6500      24.0695       2.4691       0.2213     596.5516       8.3505
   1534.8000      24.8711       2.4783       0.2190     524.9178       8.2964
   1534.9500      24.0384       2.4792       0.2177     481.9258       8.3025
   1535.1000      24.5110       2.4846       0.2203     464.3199       8.3418
   1535.2500      25.3033       2.4877       0.2272     422.4896       8.3913
   1535.4000      25.8438       2.4960       0.2361     463.0677       8.4455
   1535.5500      24.4309       2.4992       0.2311     431.0285       8.4940
   1535.7000      23.9708       2.5140       0.2293     445.3892       8.5111
   1535.8500      24.4857       2.5036       0.2293     362.4935       8.5388
   1536.0000      23.5484       2.5112       0.2324     385.4934       8.5455
   1536.1500      24.9531       2.5047       0.2379     304.9355       8.5847
   1536.3000      26.5286       2.4961       0.2449     294.6967       8.5921
   1536.4500      26.7580       2.4892       0.2610     289.0886       8.5926
   1536.6000      25.8834       2.4953       0.2605     265.2523       8.5257
   1536.7500      26.1331       2.4865       0.2563     267.5690       8.5071
   1536.9000      25.6402       2.4839       0.2654     238.2036       8.4528
   1537.0500      25.7873       2.4764       0.2663     288.9143       8.4338
   1537.2000      24.6768       2.4621       0.2707     281.3239       8.4588
   1537.3500      24.7617       2.4445       0.2725     418.2300       8.4639
   1537.5000      24.2100       2.4295       0.2800     485.3078       8.5143
   1537.6500      24.2007       2.4367       0.2849     605.4701       8.4994
   1537.8000      24.3982       2.4387       0.2802     770.3949       8.4866
   1537.9500      24.8413       2.4451       0.2841     844.9447       8.4878
   1538.1000      25.0851       2.4421       0.2876     914.4340       8.5653
   1538.2500      24.6601       2.4437       0.2840    1057.5811       8.5725
   1538.4000      23.6763       2.4397       0.2838     976.6797       8.6941
   1538.5500      24.8195       2.4426       0.2909    1168.0466       8.7013
   1538.7000      24.9817       2.4384       0.2841    1205.6263       8.6552
   1538.8500      25.8305       2.4504       0.2895    1311.9762       8.5812
   1539.0000      27.1861       2.4424       0.2898    1269.3702       8.5612
   1539.1500      26.6847       2.4485       0.2826    1621.3823       8.5578
   1539.3000      25.4951       2.4458       0.2743    1748.8490       8.6416
   1539.4500      25.8174       2.4410       0.2665    1539.6804       8.6259
   1539.6000      25.8472       2.4423       0.2669    1559.2736       8.5344
   1539.7500      24.1147       2.4413       0.2686    1415.3553       8.5346
