~VERSION -------------------------------------------
 VERS.                 2.0 : CWLS LOG ASCII STANDARD - VERSION 2.0
 WRAP.                  NO : ONE LINE PER DEPTH STEP
~WELL -----------------------------------------------
 WELL.                MUMBAI-1 : Well name
 UWI .                IN-MUM-001        : Unique Well ID
 LAT .                19.5431        : Latitude
 LON .                71.3241        : Longitude
 STRT.M               1200.00 : START DEPTH
 STOP.M               2799.90 : STOP DEPTH
 STEP.M               0.1500 : STEP
 NULL.                -9999 : NULL VALUE
~CURVE -----------------------------------------------
 DEPTH .M               : Depth
 GR    .GAPI            : Gamma Ray
 RHOB  .G/C3            : Bulk Density
 NPHI  .V/V             : Neutron Porosity
 RT    .OHMM            : Resistivity
 CALI  .IN              : Caliper
~A  DEPTH              GR        RHOB        NPHI          RT        CALI
# ...
   2049.7500      24.6297       2.4745       0.2454    1386.3894       8.4164
   2049.9000      24.0950       2.4831       0.2459    1328.9309       8.4390
   2050.0500      23.9085       2.4724       0.2517    1233.3704       8.4455
   2050.2000      23.1622       2.4897       0.2542    1126.4749       8.4817
   2050.3500      21.7528       2.4900       0.2525    1137.6434       8.3659
   2050.5000      20.3912       2.4953       0.2524    1349.4840       8.4279
   2050.6500      21.7703       2.4990       0.2461    1385.2826       8.4166
   2050.8000      22.5384       2.4991       0.2382    1253.6594       8.4913
   2050.9500      22.8849       2.4956       0.2379    1075.1156       8.4979
   2051.1000      22.2273       2.4836       0.2326    1102.6798       8.6320
   2051.2500      21.8683       2.4685       0.2228    1067.0580       8.5877
   2051.4000      22.5602       2.4615       0.2244    1041.6028       8.5247
   2051.5500      23.4466       2.4544       0.2191    1011.1212       8.5174
   2051.7000      23.9229       2.4584       0.2105     974.4815       8.5945
   2051.8500      23.9126       2.4449       0.2159     835.0782       8.6107
   2052.0000      23.5839       2.4588       0.2153     898.7728       8.5935
   2052.1500      24.1426       2.4621       0.2186     844.4022       8.5599
   2052.3000      24.8532       2.4392       0.2173     759.4571       8.5791
   2052.4500      25.2152       2.4393       0.2167     726.1406       8.6014
   2052.6000      24.6075       2.4570       0.2231     641.7711       8.4811
   2052.7500      24.0265       2.4466       0.2157     788.7043       8.4780
   2052.9000      25.0245       2.4358       0.2101     798.1149       8.5539
   2053.0500      25.1295       2.4457       0.2052     875.6148       8.5489
   2053.2000      24.5118       2.4292       0.2013    1014.3098       8.4977
   2053.3500      25.3618       2.4219       0.1994     962.1288       8.5373
   2053.5000      26.5305       2.4241       0.2033     939.9882       8.5350
   2053.6500      26.8223       2.4135       0.2109     860.9268       8.5794
   2053.8000      26.8050       2.4060       0.2116     967.3404       8.5395
   2053.9500      25.6192       2.4121       0.2129    1021.3789       8.5136
   2054.1000      26.7629       2.4307       0.2152     982.3746       8.6022
   2054.2500      27.9616       2.4342       0.2303    1052.6489       8.6768
   2054.4000      26.8043       2.4269       0.2288     955.5961       8.6362
   2054.5500      26.3296       2.4339       0.2370    1010.8103       8.6915
   2054.7000      24.7570       2.4318       0.2388    1075.6357       8.6368
   2054.8500      24.0811       2.4344       0.2356    1077.1797       8.5929
   2055.0000      24.0949       2.4294       0.2365     916.9749       8.5553
   2055.1500      23.2847       2.4395       0.2453     904.7203       8.5516
   2055.3000      23.6162       2.4440       0.2406     957.8604       8.5134
   2055.4500      22.5501       2.4291       0.2374     980.9419       8.4936
   2055.6000      23.1586       2.4135       0.2338     950.2689       8.3912
   2055.7500      24.6284       2.4040       0.2420     876.4264       8.3622
   2055.9000      23.7782       2.4152       0.2439     854.7088       8.3225
   2056.0500      24.4723       2.4235       0.2493     782.0879       8.3161
   2056.2000      25.3965       2.4320       0.2597     738.1157       8.3811
   2056.3500      25.0430       2.4403       0.2593     653.3729       8.3707
   2056.5000      24.2602       2.4407       0.2589     633.2146       8.3396
   2056.6500      23.6849       2.4367       0.2603     678.5279       8.3487
   2056.8000      23.3524       2.4528       0.2659     608.0745       8.4011
   2056.9500      23.8899       2.4444       0.2635     663.8367       8.3582
   2057.1000      23.0693       2.4369       0.2618     766.2229       8.4622
   2057.2500      22.9651       2.4533       0.2539     728.0519       8.4476
   2057.4000      23.8076       2.4558       0.2609     726.1808       8.5751
   2057.5500      23.6389       2.4501       0.2643     759.0743       8.5606
   2057.7000      25.1123       2.4473       0.2643     750.2030       8.6074
   2057.8500      24.7517       2.4421       0.2642     801.2614       8.6471
   2058.0000      24.5008       2.4498       0.2632     897.5775       8.6673
   2058.1500      24.8464       2.4419       0.2560     959.9052       8.7532
   2058.3000      24.3383       2.4348       0.2599    1113.8313       8.7591
   2058.4500      24.2280       2.4484       0.2540    1107.5300       8.8046
   2058.6000      23.4625       2.4416       0.2555    1319.8875       8.7006
   2058.7500      22.2593       2.4459       0.2479    1384.2939       8.6803
   2058.9000      22.5711       2.4546       0.2513    1335.9139       8.6097
   2059.0500      22.1781       2.4613       0.2497    1291.9487       8.5760
   2059.2000      22.2313       2.4549       0.2383    1409.1983       8.4738
   2059.3500      21.2767       2.4483       0.2425    1590.2805       8.4233
   2059.5000      22.0981       2.4411       0.2416    1660.5666       8.4971
   2059.6500      21.0025       2.4571       0.2381    1600.7412       8.3597
   2059.8000      21.3890       2.4455       0.2355    1553.0009       8.3668
   2059.9500      21.7681       2.4460       0.2356    1478.7872       8.4127
   2060.1000      21.6758       2.4528       0.2382    1453.7761       8.4188
   2060.2500      21.8083       2.4503       0.2369    1389.2753       8.4991
   2060.4000      22.8420       2.4454       0.2334    1493.3622       8.4768
   2060.5500      23.0430       2.4639       0.2193    1319.3630       8.4649
   2060.7000      23.9388       2.4701       0.2177    1400.1613       8.4540
   2060.8500      25.3066       2.4686       0.2139    1334.7614       8.4621
   2061.0000      25.5323       2.4561       0.2130    1126.0543       8.4355
   2061.1500      27.0191       2.4490       0.2083    1057.3087       8.4960
   2061.3000      26.4673       2.4575       0.2077     904.1723       8.4942
   2061.4500      26.5798       2.4507       0.2178     808.9896       8.5007
   2061.6000      27.3848       2.4595       0.2152     746.4454       8.5279
   2061.7500      28.9207       2.4698       0.2115     666.6019       8.4758
   2061.9000      27.9949       2.4622       0.2140     581.0784       8.5537
   2062.0500      27.5425       2.4482       0.2114     537.6191       8.6181
   2062.2000      27.1160       2.4591       0.2210     421.3917       8.6495
   2062.3500      28.0745       2.4526       0.2214     445.9203       8.7062
   2062.5000      27.5694       2.4566       0.2230     470.8735       8.7412
   2062.6500      28.6044       2.4477       0.2275     568.1032       8.7172
   2062.8000      28.5140       2.4479       0.2352     602.5569       8.6812
   2062.9500      29.4588       2.4483       0.2302     636.0813       8.6019
   2063.1000      31.2062       2.4455       0.2270     610.2686       8.6123
   2063.2500      30.6749       2.4348       0.2235     630.5629       8.6170
   2063.4000      30.2514       2.4364       0.2306     620.4938       8.5811
   2063.5500      30.7818       2.4355       0.2394     620.7700       8.5416
   2063.7000      29.9355       2.4328       0.2434     579.0053       8.5082
   2063.8500      29.9755       2.4322       0.2410     624.1621       8.5104
   2064.0000      29.9852       2.4389       0.2481     736.6764       8.4270
   2064.1500      27.5731       2.4285       0.2539     792.1421       8.4333
   2064.3000      28.9152       2.4205       0.2537     890.2883       8.4224
   2064.4500      28.8177       2.4093       0.2553     941.1893       8.4351
   2064.6000      28.8682       2.4299       0.2670     967.0622       8.4475
   2064.7500      27.5687       2.4204       0.2736    1174.1014       8.4294
   2064.9000      28.6992       2.4142       0.2722    1311.6580       8.4078
   2065.0500      29.3554       2.4198       0.2783    1279.5748       8.3911
