~VERSION -------------------------------------------
 VERS.                 2.0 : CWLS LOG ASCII STANDARD - VERSION 2.0
 WRAP.                  NO : ONE LINE PER DEPTH STEP
~WELL -----------------------------------------------
 WELL.                MUMBAI-1 : Well name
 UWI .                IN-MUM-001        : Unique Well ID
 LAT .                19.5431        : Latitude
 LON .                71.3241        : Longitude
 STRT.M               1200.00 : START DEPTH
 STOP.M               2799.90 : STOP DEPTH
 STEP.M               0.1500 : STEP
 NULL.                -9999 : NULL VALUE
~CURVE -----------------------------------------------
 DEPTH .M               : Depth
 GR    .GAPI            : Gamma Ray
 RHOB  .G/C3            : Bulk Density
 NPHI  .V/V             : Neutron Porosity
 RT    .OHMM            : Resistivity
 CALI  .IN              : Caliper
~A  DEPTH              GR        RHOB        NPHI          RT        CALI
# ...
   1416.3000      25.7709       2.4583       0.2206     858.1731       8.5819
   1416.4500      25.8174       2.4426       0.2154     797.4845       8.5879
   1416.6000      26.5770       2.4342       0.2203     774.4417       8.5965
   1416.7500      26.7428       2.4253       0.2201     780.4871       8.5760
   1416.9000      26.3837       2.4291       0.2217     733.4936       8.5179
   1417.0500      25.2064       2.4160       0.2168     692.3502       8.5115
   1417.2000      25.0752       2.4308       0.2213     751.6211       8.5939
   1417.3500      25.1051       2.4354       0.2308     746.1546       8.6431
   1417.5000      24.9436       2.4146       0.2355     770.5083       8.6296
   1417.6500      24.2561       2.4235       0.2303     695.4737       8.6168
   1417.8000      22.8988       2.4309       0.2292     733.1262       8.6167
   1417.9500      21.6838       2.4408       0.2242     655.1524       8.5931
   1418.1000      21.2353       2.4407       0.2199     673.8047       8.6709
   1418.2500      20.8934       2.4363       0.2290     782.4828       8.6918
   1418.4000      20.8916       2.4357       0.2322     788.1644       8.7081
   1418.5500      19.0976       2.4408       0.2344     734.3982       8.6779
   1418.7000      20.1731       2.4332       0.2351     778.0540       8.5634
   1418.8500      20.4813       2.4364       0.2355     709.3224       8.5657
   1419.0000      20.2532       2.4242       0.2292     733.0111       8.5839
   1419.1500      20.4881       2.4263       0.2303     632.1051       8.5681
   1419.3000      19.1446       2.4270       0.2283     660.4084       8.6417
   1419.4500      17.8697       2.4314       0.2305     721.5832       8.5684
   1419.6000      16.5385       2.4322       0.2291     821.5521       8.4703
   1419.7500      16.2145       2.4343       0.2394     945.3235       8.4377
   1419.9000      17.7288       2.4269       0.2454     993.5724       8.4265
   1420.0500      18.7509       2.4116       0.2498    1026.8146       8.4545
   1420.2000      19.7325       2.4071       0.2475     870.5913       8.5645
   1420.3500      18.6630       2.4038       0.2459     826.6347       8.5497
   1420.5000      18.4056       2.4085       0.2404     808.9494       8.5224
   1420.6500      18.3923       2.3969       0.2356     955.2336       8.5823
   1420.8000      19.6133       2.3898       0.2349    1011.9480       8.5130
   1420.9500      20.7311       2.3860       0.2355    1073.5604       8.5361
   1421.1000      20.5214       2.3770       0.2437    1180.5590       8.5543
   1421.2500      21.0522       2.3587       0.2327    1085.9079       8.5711
   1421.4000      21.8089       2.3553       0.2295    1022.1718       8.5774
   1421.5500      21.4924       2.3577       0.2240    1079.3910       8.5972
   1421.7000      19.9628       2.3548       0.2252    1111.7899       8.5974
   1421.8500      19.9506       2.3629       0.2226    1376.9043       8.5713
   1422.0000      21.4841       2.3711       0.2274    1477.3316       8.6827
   1422.1500      21.8146       2.3758       0.2237    1511.4953       8.6026
   1422.3000      23.2782       2.3766       0.2276    1488.9491       8.6218
   1422.4500      24.0380       2.3849       0.2342    1547.8309       8.6439
   1422.6000      24.7599       2.3915       0.2407    1349.8489       8.6111
   1422.7500      24.0439       2.3948       0.2437    1242.6509       8.6065
   1422.9000      24.1366       2.3977       0.2397    1240.4304       8.5734
   1423.0500      24.3690       2.4149       0.2447    1450.0178       8.5164
   1423.2000      23.7627       2.4165       0.2446    1581.3358       8.5132
   1423.3500      24.1162       2.4062       0.2391    1563.9773       8.4830
   1423.5000      24.9208       2.4270       0.2395    1224.1764       8.3789
   1423.6500      25.5450       2.4339       0.2412    1025.5590       8.4028
   1423.8000      26.1808       2.4366       0.2422     797.4582       8.4919
   1423.9500      25.2457       2.4400       0.2457     841.1551       8.4467
   1424.1000      24.5364       2.4369       0.2417     824.7911       8.5192
   1424.2500      23.4243       2.4441       0.2395     735.0188       8.4718
   1424.4000      21.9449       2.4605       0.2418     749.9649       8.5021
   1424.5500      22.2220       2.4664       0.2363     808.2447       8.5129
   1424.7000      22.2921       2.4834       0.2388     732.6187       8.4791
   1424.8500      22.7426       2.4687       0.2470     590.5514       8.4882
   1425.0000      22.2238       2.4794       0.2446     565.8216       8.4573
   1425.1500      22.4542       2.4716       0.2479     628.7542       8.4769
   1425.3000      22.6578       2.4884       0.2465     674.0417       8.4254
   1425.4500      22.9867       2.4880       0.2462     583.9463       8.5416
   1425.6000      23.5107       2.4819       0.2377     602.5515       8.4690
   1425.7500      23.7713       2.4657       0.2341     580.5282       8.4648
   1425.9000      23.1425       2.4774       0.2251     554.1355       8.4836
   1426.0500      22.7826       2.4697       0.2280     498.8611       8.4289
   1426.2000      23.0535       2.4751       0.2305     536.8043       8.3886
   1426.3500      22.4112       2.4807       0.2352     566.2912       8.4032
   1426.5000      21.2637       2.4688       0.2365     739.2962       8.4363
   1426.6500      20.0722       2.4609       0.2386     762.1123       8.4738
   1426.8000      18.1468       2.4586       0.2439     829.4487       8.4153
   1426.9500      19.7881       2.4466       0.2477     774.5961       8.3484
   1427.1000      20.8620       2.4516       0.2536     711.8651       8.3668
   1427.2500      21.4932       2.4505       0.2590     868.5818       8.3575
   1427.4000      22.5887       2.4427       0.2606     867.9331       8.3168
   1427.5500      23.1395       2.4367       0.2598     766.2154       8.3902
   1427.7000      24.4138       2.4232       0.2518     762.0590       8.4166
   1427.8500      23.8873       2.4366       0.2410     885.1783       8.4327
   1428.0000      21.9143       2.4205       0.2409     936.6427       8.4537
   1428.1500      21.2620       2.4152       0.2369     951.3295       8.4538
   1428.3000      20.5902       2.4029       0.2305     910.1145       8.5011
   1428.4500      22.2667       2.4119       0.2236     982.4727       8.4974
   1428.6000      21.8959       2.4246       0.2248     954.2871       8.5622
   1428.7500      21.6207       2.4391       0.2248    1051.6345       8.6014
   1428.9000      21.3756       2.4356       0.2316    1110.4257       8.5739
   1429.0500      21.0548       2.4457       0.2208     943.8466       8.6024
   1429.2000      20.3631       2.4450       0.2216     800.6711       8.6207
   1429.3500      21.2665       2.4436       0.2163     797.1364       8.5656
   1429.5000      22.1896       2.4494       0.2159     796.8847       8.5041
   1429.6500      23.3408       2.4577       0.2128     879.8462       8.4808
   1429.8000      23.7597       2.4641       0.2064     973.3779       8.4632
   1429.9500      22.1369       2.4800       0.2013     958.4523       8.5210
   1430.1000      22.3596       2.4782       0.1974    1029.3961       8.5288
   1430.2500      23.1894       2.4908       0.2011    1029.3961       8.5396
   1430.4000      22.6252       2.5000       0.2004     964.0407       8.6196
   1430.5500      22.6078       2.4890       0.2047     972.7718       8.5776
   1430.7000      22.2206       2.4838       0.2137    1061.4446       8.5651
   1430.8500      23.3196       2.4783       0.2218    1071.6068       8.5905
   1431.0000      23.6953       2.4744       0.2195     989.2374       8.7015
   1431.1500      24.7297       2.4792       0.2175     886.7946       8.6720
   1431.3000      23.7803       2.4714       0.2175     895.7396       8.6408
   1431.4500      22.6745       2.4699       0.2213     861.2582       8.6119
   1431.6000      22.4735       2.4466       0.2304     934.7627       8.5345
