~VERSION -------------------------------------------
 VERS.                 2.0 : CWLS LOG ASCII STANDARD - VERSION 2.0
 WRAP.                  NO : ONE LINE PER DEPTH STEP
~WELL -----------------------------------------------
 WELL.                MUMBAI-1 : Well name
 UWI .                IN-MUM-001        : Unique Well ID
 LAT .                19.5431        : Latitude
 LON .                71.3241        : Longitude
 STRT.M               1200.00 : START DEPTH
 STOP.M               2799.90 : STOP DEPTH
 STEP.M               0.1500 : STEP
 NULL.                -9999 : NULL VALUE
~CURVE -----------------------------------------------
 DEPTH .M               : Depth
 GR    .GAPI            : Gamma Ray
 RHOB  .G/C3            : Bulk Density
 NPHI  .V/V             : Neutron Porosity
 RT    .OHMM            : Resistivity
 CALI  .IN              : Caliper
~A  DEPTH              GR        RHOB        NPHI          RT        CALI
# ...
   1833.4500      25.2940       2.4902       0.2475     844.0336       8.6125
   1833.6000      26.1543       2.4777       0.2478     738.3770       8.6069
   1833.7500      25.8893       2.4849       0.2515     760.3469       8.7185
   1833.9000      25.3393       2.4885       0.2490     670.5882       8.6697
   1834.0500      24.8129       2.4981       0.2394     575.8123       8.6342
   1834.2000      24.3989       2.4851       0.2380     634.5154       8.7143
   1834.3500      25.0357       2.4897       0.2354     459.9934       8.7114
   1834.5000      25.1585       2.4848       0.2334     389.6781       8.7315
   1834.6500      24.3418       2.4911       0.2349     326.2456       8.6677
   1834.8000      24.5621       2.5006       0.2419     318.0426       8.6409
   1834.9500      24.8594       2.5032       0.2425     319.3776       8.6186
   1835.1000      24.1495       2.4964       0.2438     309.1711       8.6014
   1835.2500      24.9349       2.5085       0.2395     297.8650       8.5322
   1835.4000      27.1716       2.5015       0.2395     319.0197       8.5940
   1835.5500      27.8585       2.4949       0.2370     244.6539       8.6267
   1835.7000      28.6781       2.5162       0.2388     192.2675       8.5466
   1835.8500      30.3469       2.4924       0.2389     165.6929       8.5240
   1836.0000      30.3779       2.4781       0.2391     124.0705       8.5144
   1836.1500      29.9840       2.4738       0.2441     106.1220       8.5383
   1836.3000      29.8865       2.4710       0.2422      91.6837       8.5862
   1836.4500      29.2859       2.4657       0.2398     117.1368       8.5832
   1836.6000      28.8086       2.4696       0.2467     133.8669       8.5942
   1836.7500      29.0593       2.4733       0.2486     111.6287       8.6165
   1836.9000      31.4130       2.4854       0.2520     119.4565       8.5595
   1837.0500      31.6065       2.4862       0.2548     129.9754       8.4948
   1837.2000      30.1926       2.4852       0.2531     131.2191       8.5820
   1837.3500      30.4842       2.4946       0.2591     177.0728       8.6175
   1837.5000      30.0514       2.4926       0.2611     231.1589       8.6643
   1837.6500      30.5515       2.4761       0.2537     272.8560       8.6646
   1837.8000      29.8523       2.4724       0.2558     239.1528       8.6168
   1837.9500      28.1913       2.4655       0.2531     260.0044       8.6544
   1838.1000      27.5052       2.4708       0.2481     269.9779       8.6625
   1838.2500      26.9908       2.4696       0.2503     283.2673       8.6151
   1838.4000      25.5761       2.4796       0.2493     283.2673       8.5805
   1838.5500      26.0343       2.4734       0.2493     353.4941       8.5671
   1838.7000      26.6537       2.4577       0.2432     432.2049       8.4798
   1838.8500      25.7890       2.4824       0.2470     538.8844       8.4636
   1839.0000      25.3722       2.4946       0.2456     718.3397       8.3709
   1839.1500      25.1599       2.4917       0.2409     882.6671       8.3601
   1839.3000      26.1394       2.4912       0.2473    1130.5102       8.3288
   1839.4500      25.8370       2.4755       0.2424    1158.2709       8.3035
   1839.6000      25.5361       2.4742       0.2429    1183.5467       8.2708
   1839.7500      24.7337       2.4713       0.2362    1299.3077       8.3323
   1839.9000      23.1100       2.4603       0.2375    1285.6924       8.3747
   1840.0500      23.5935       2.4612       0.2368    1571.5975       8.5125
   1840.2000      24.9134       2.4637       0.2382    1722.0729       8.5735
   1840.3500      23.7388       2.4533       0.2356    1488.2463       8.5274
   1840.5000      23.8843       2.4522       0.2322    1401.1214       8.5274
   1840.6500      24.6111       2.4602       0.2329    1343.1302       8.4828
   1840.8000      24.9218       2.4639       0.2263    1571.9382       8.5752
   1840.9500      25.0613       2.4461       0.2312    1380.9810       8.5446
   1841.1000      26.0054       2.4626       0.2313    1369.2237       8.5446
   1841.2500      26.7020       2.4526       0.2270    1338.0629       8.5402
   1841.4000      26.5265       2.4497       0.2355    1113.4872       8.4978
   1841.5500      25.6277       2.4586       0.2373    1136.7036       8.3662
   1841.7000      24.1235       2.4576       0.2395    1133.8623       8.3679
   1841.8500      24.8435       2.4409       0.2382    1080.6300       8.3766
   1842.0000      24.1910       2.4237       0.2326    1119.8028       8.4257
   1842.1500      24.5338       2.4312       0.2363     990.2201       8.4732
   1842.3000      23.5713       2.4262       0.2405     841.9307       8.4384
   1842.4500      22.7225       2.4411       0.2510     877.6409       8.4604
   1842.6000      22.8683       2.4456       0.2505     880.6793       8.5139
   1842.7500      22.8683       2.4436       0.2567     908.8123       8.4692
   1842.9000      21.7769       2.4573       0.2514     971.4641       8.5368
   1843.0500      20.9352       2.4588       0.2523     930.1262       8.6192
   1843.2000      20.1377       2.4604       0.2567     842.4954       8.6104
   1843.3500      20.6211       2.4568       0.2566     967.4502       8.6115
   1843.5000      20.2731       2.4677       0.2624     990.9440       8.6269
   1843.6500      19.5209       2.4533       0.2647    1013.1563       8.6038
   1843.8000      20.8933       2.4458       0.2595     862.7124       8.6651
   1843.9500      20.1446       2.4594       0.2578     982.0053       8.6091
   1844.1000      21.1234       2.4605       0.2590    1103.8498       8.6132
   1844.2500      21.3446       2.4650       0.2665    1208.8475       8.6063
   1844.4000      21.4229       2.4530       0.2625    1321.9847       8.6571
   1844.5500      22.2329       2.4430       0.2684    1217.9287       8.5723
   1844.7000      22.1291       2.4453       0.2767    1105.7357       8.5505
   1844.8500      21.6802       2.4588       0.2686    1215.6145       8.5602
   1845.0000      22.3888       2.4828       0.2699    1046.9079       8.5127
   1845.1500      22.1049       2.4733       0.2720    1213.9103       8.4699
   1845.3000      22.3350       2.4753       0.2666    1515.1398       8.4052
   1845.4500      22.3171       2.4673       0.2651    1511.1290       8.4563
   1845.6000      22.3324       2.4553       0.2667    1550.6279       8.4879
   1845.7500      23.6357       2.4657       0.2694    1481.7019       8.4824
   1845.9000      24.0219       2.4456       0.2774    1272.2032       8.4601
   1846.0500      25.8018       2.4396       0.2742    1140.5973       8.5530
   1846.2000      25.5362       2.4311       0.2623    1066.4866       8.6429
   1846.3500      25.0221       2.4435       0.2581    1007.0418       8.6092
   1846.5000      25.1896       2.4440       0.2482     906.1991       8.7094
   1846.6500      25.2508       2.4642       0.2466     981.5933       8.7546
   1846.8000      23.3234       2.4552       0.2509     973.3754       8.8165
   1846.9500      23.9561       2.4691       0.2456     973.3754       8.7896
   1847.1000      23.2209       2.4565       0.2504     975.1893       8.7516
   1847.2500      23.1960       2.4609       0.2541     898.2804       8.7629
   1847.4000      23.7141       2.4686       0.2492     933.9109       8.6670
   1847.5500      22.2097       2.4703       0.2399    1002.0800       8.5930
   1847.7000      22.3350       2.4768       0.2284    1092.0157       8.4712
   1847.8500      21.2985       2.4738       0.2351    1064.4330       8.4663
   1848.0000      21.6355       2.4680       0.2447    1098.7137       8.3491
   1848.1500      21.9935       2.4777       0.2401    1130.9917       8.3650
   1848.3000      22.2073       2.4692       0.2437     896.7075       8.2987
   1848.4500      22.5597       2.4752       0.2386     744.9052       8.3201
   1848.6000      22.9803       2.4815       0.2333     730.9372       8.3150
   1848.7500      23.4006       2.4673       0.2263     712.2350       8.3348
