~VERSION -------------------------------------------
 VERS.                 2.0 : CWLS LOG ASCII STANDARD - VERSION 2.0
 WRAP.                  NO : ONE LINE PER DEPTH STEP
~WELL -----------------------------------------------
 WELL.                MUMBAI-1 : Well name
 UWI .                IN-MUM-001        : Unique Well ID
 LAT .                19.5431        : Latitude
 LON .                71.3241        : Longitude
 STRT.M               1200.00 : START DEPTH
 STOP.M               2799.90 : STOP DEPTH
 STEP.M               0.1500 : STEP
 NULL.                -9999 : NULL VALUE
~CURVE -----------------------------------------------
 DEPTH .M               : Depth
 GR    .GAPI            : Gamma Ray
 RHOB  .G/C3            : Bulk Density
 NPHI  .V/V             : Neutron Porosity
 RT    .OHMM            : Resistivity
 CALI  .IN              : Caliper
~A  DEPTH              GR        RHOB        NPHI          RT        CALI
# ...
   1725.3000      25.1897       2.4501       0.2521     832.5247       8.5396
   1725.4500      24.4461       2.4423       0.2484     852.5054       8.5396
   1725.6000      24.5276       2.4409       0.2458     919.1953       8.5256
   1725.7500      23.6459       2.4288       0.2425    1044.7481       8.5669
   1725.9000      23.4530       2.4250       0.2382    1062.8452       8.5571
   1726.0500      22.8051       2.4228       0.2329    1103.9982       8.6275
   1726.2000      23.2649       2.4292       0.2392    1128.3743       8.6547
   1726.3500      24.1418       2.4343       0.2374    1195.0143       8.6369
   1726.5000      24.2960       2.4441       0.2450    1111.7567       8.7047
   1726.6500      23.3434       2.4281       0.2484    1081.0369       8.6149
   1726.8000      23.9327       2.4197       0.2455    1081.8932       8.5222
   1726.9500      23.6058       2.4185       0.2422    1059.0418       8.5915
   1727.1000      24.5550       2.4248       0.2440    1031.6314       8.5286
   1727.2500      24.8279       2.4265       0.2520    1086.9296       8.4982
   1727.4000      24.8528       2.4385       0.2568     981.1235       8.5584
   1727.5500      24.5348       2.4368       0.2620     871.5639       8.4751
   1727.7000      23.5281       2.4398       0.2581    1029.5101       8.4548
   1727.8500      22.7019       2.4346       0.2570     972.2709       8.4074
   1728.0000      22.9984       2.4244       0.2540     972.7948       8.4743
   1728.1500      23.2100       2.4080       0.2451     981.1223       8.4900
   1728.3000      23.6402       2.4016       0.2348    1035.6005       8.4773
   1728.4500      24.6346       2.3987       0.2326    1244.7560       8.4789
   1728.6000      25.5079       2.3897       0.2335    1211.0037       8.5601
   1728.7500      25.7668       2.4032       0.2357    1139.9899       8.5752
   1728.9000      26.3372       2.4047       0.2364    1203.1406       8.4638
   1729.0500      27.4521       2.4096       0.2459    1013.9886       8.4754
   1729.2000      27.7217       2.3915       0.2334     945.9563       8.5107
   1729.3500      26.3628       2.3843       0.2332     910.5349       8.4698
   1729.5000      27.2286       2.3978       0.2335     885.8410       8.4114
   1729.6500      27.7647       2.4209       0.2335     956.3213       8.4474
   1729.8000      27.6292       2.4404       0.2383     937.1520       8.5275
   1729.9500      27.3225       2.4504       0.2403     942.2391       8.5034
   1730.1000      26.2789       2.4559       0.2368    1060.7901       8.4694
   1730.2500      26.0856       2.4647       0.2361     930.8160       8.4569
   1730.4000      26.9682       2.4621       0.2304     897.3315       8.4648
   1730.5500      25.8593       2.4624       0.2367     976.8971       8.4265
   1730.7000      26.9159       2.4481       0.2514     916.8390       8.4542
   1730.8500      27.4255       2.4524       0.2446    1049.9489       8.5295
   1731.0000      28.5378       2.4565       0.2516     908.1905       8.4812
   1731.1500      28.7572       2.4682       0.2553     634.8358       8.4482
   1731.3000      29.1481       2.4686       0.2654     638.5807       8.3992
   1731.4500      28.7107       2.4887       0.2691     599.0913       8.4388
   1731.6000      27.6506       2.4985       0.2702     492.4794       8.3917
   1731.7500      27.1772       2.4800       0.2720     373.4206       8.4108
   1731.9000      27.4787       2.4730       0.2673     278.1126       8.4292
   1732.0500      28.2707       2.4689       0.2609     251.8378       8.5241
   1732.2000      27.5279       2.4962       0.2681     219.3396       8.5095
   1732.3500      28.4124       2.5088       0.2714     162.7081       8.5164
   1732.5000      29.1538       2.5006       0.2740     139.1778       8.5519
   1732.6500      28.2806       2.4860       0.2767     104.4732       8.6046
   1732.8000      28.5082       2.4776       0.2747      80.9046       8.5999
   1732.9500      30.4623       2.4901       0.2705      69.7031       8.5940
   1733.1000      31.2755       2.4850       0.2623      55.8339       8.6619
   1733.2500      32.0258       2.4792       0.2628      66.7697       8.6703
   1733.4000      31.4763       2.4707       0.2696      71.5860       8.6424
   1733.5500      32.1069       2.4631       0.2661      76.0098       8.5829
   1733.7000      31.4965       2.4580       0.2614      79.5460       8.5654
   1733.8500      32.0396       2.4700       0.2654      76.4908       8.4834
   1734.0000      31.8174       2.4843       0.2592      90.6372       8.4615
   1734.1500      31.5085       2.4851       0.2622     131.5205       8.4285
   1734.3000      29.5568       2.4784       0.2525     119.6161       8.3881
   1734.4500      30.0072       2.4637       0.2520     126.1587       8.3653
   1734.6000      29.4985       2.4698       0.2504     151.0945       8.3365
   1734.7500      29.0379       2.4721       0.2395     176.1356       8.3309
   1734.9000      28.4526       2.4669       0.2406     253.9646       8.4198
   1735.0500      26.9256       2.4690       0.2420     322.1720       8.4033
   1735.2000      26.6424       2.4481       0.2452     388.6050       8.3645
   1735.3500      26.5972       2.4259       0.2438     465.7814       8.3832
   1735.5000      24.7772       2.4100       0.2350     547.2395       8.4429
   1735.6500      25.9374       2.4050       0.2295     757.4637       8.4732
   1735.8000      25.6864       2.4142       0.2255    1029.7883       8.5440
   1735.9500      24.7424       2.3886       0.2310    1108.8286       8.6101
   1736.1000      24.4125       2.3913       0.2355    1343.7451       8.5709
   1736.2500      23.9836       2.3872       0.2319    1343.7451       8.5024
   1736.4000      23.2315       2.3868       0.2232    1278.3465       8.4922
   1736.5500      21.8039       2.3949       0.2195    1331.0578       8.5400
   1736.7000      22.2951       2.4023       0.2165    1359.8179       8.5727
   1736.8500      22.0127       2.3981       0.2106    1213.4343       8.5815
   1737.0000      21.7702       2.3794       0.2118    1360.7417       8.4994
   1737.1500      20.9366       2.3899       0.2076    1333.7611       8.4865
   1737.3000      21.5926       2.3822       0.2079    1363.1904       8.4157
   1737.4500      21.3444       2.3845       0.2030    1324.5110       8.3207
   1737.6000      20.8461       2.3895       0.2041    1167.6082       8.3603
   1737.7500      21.4157       2.3973       0.2116    1193.5214       8.5117
   1737.9000      20.7704       2.4151       0.2139    1205.9577       8.5310
   1738.0500      21.9917       2.4169       0.2147    1285.1573       8.5647
   1738.2000      21.9244       2.4268       0.2140    1277.5955       8.6111
   1738.3500      21.9117       2.4416       0.2127    1402.2333       8.6087
   1738.5000      22.7331       2.4434       0.2207    1401.9293       8.6697
   1738.6500      23.0842       2.4406       0.2223    1443.7744       8.7039
   1738.8000      22.5666       2.4269       0.2287    1381.1051       8.7304
   1738.9500      21.9965       2.4257       0.2354    1451.1514       8.8018
   1739.1000      21.5262       2.4349       0.2313    1417.6458       8.8577
   1739.2500      20.7855       2.4425       0.2339    1257.4883       8.7916
   1739.4000      21.4168       2.4400       0.2410    1352.4534       8.7125
   1739.5500      21.9911       2.4545       0.2400    1352.4534       8.7053
   1739.7000      21.3261       2.4608       0.2443    1264.8379       8.6343
   1739.8500      22.2117       2.4737       0.2483    1514.1691       8.6495
   1740.0000      22.3239       2.4829       0.2494    1523.0624       8.6536
   1740.1500      23.4054       2.4810       0.2456    1367.4134       8.5706
   1740.3000      23.8595       2.4897       0.2503    1519.8488       8.5942
   1740.4500      22.9061       2.5000       0.2558    1603.1350       8.5214
   1740.6000      23.3723       2.4780       0.2567    1679.2756       8.4259
