~VERSION -------------------------------------------
 VERS.                 2.0 : CWLS LOG ASCII STANDARD - VERSION 2.0
 WRAP.                  NO : ONE LINE PER DEPTH STEP
~WELL -----------------------------------------------
 WELL.                MUMBAI-1 : Well name
 UWI .                IN-MUM-001        : Unique Well ID
 LAT .                19.5431        : Latitude
 LON .                71.3241        : Longitude
 STRT.M               1200.00 : START DEPTH
 STOP.M               2799.90 : STOP DEPTH
 STEP.M               0.1500 : STEP
 NULL.                -9999 : NULL VALUE
~CURVE -----------------------------------------------
 DEPTH .M               : Depth
 GR    .GAPI            : Gamma Ray
 RHOB  .G/C3            : Bulk Density
 NPHI  .V/V             : Neutron Porosity
 RT    .OHMM            : Resistivity
 CALI  .IN              : Caliper
~A  DEPTH              GR        RHOB        NPHI          RT        CALI
   1200.0000      13.7052       1.2467       0.1378      29.2742       4.1301
   1200.1500      15.0779       1.3729       0.1485      40.4377       4.9751
   1200.3000      17.7979       1.4914       0.1634      55.5385       5.8019
   1200.4500      19.3160       1.6174       0.1803      81.4360       6.6552
   1200.6000      20.0808       1.7466       0.1943     126.1295       7.4552
   1200.7500      21.1724       1.8663       0.2017     162.9574       8.3036
   1200.9000      22.5264       1.9807       0.2167     196.5330       8.2783
   1201.0500      23.1775       2.1003       0.2276     261.4949       8.2688
   1201.2000      23.5096       2.2317       0.2394     314.8554       8.2312
   1201.3500      24.9419       2.3459       0.2494     452.9568       8.2799
   1201.5000      26.8349       2.4748       0.2585     606.0589       8.3075
   1201.6500      26.6670       2.4739       0.2585     762.5401       8.2631
   1201.8000      25.6215       2.4731       0.2522     984.6426       8.2409
   1201.9500      25.6215       2.4750       0.2540     894.9859       8.2552
   1202.1000      25.2584       2.4761       0.2529     912.0436       8.3539
   1202.2500      25.6124       2.4859       0.2584     867.8606       8.3302
   1202.4000      24.7482       2.4934       0.2641     886.5184       8.4729
   1202.5500      25.5812       2.4942       0.2567     839.1791       8.4939
   1202.7000      25.3102       2.4933       0.2576     716.2642       8.5110
   1202.8500      25.6514       2.4777       0.2564     722.3657       8.4451
   1203.0000      25.3164       2.4665       0.2493     722.3657       8.4914
   1203.1500      25.4053       2.4657       0.2547     770.8217       8.5667
   1203.3000      23.9769       2.4619       0.2566     859.4060       8.6765
   1203.4500      23.2861       2.4622       0.2561     771.4669       8.6310
   1203.6000      24.4784       2.4537       0.2531     709.4988       8.5742
   1203.7500      24.5098       2.4414       0.2545     774.5924       8.6054
   1203.9000      23.8884       2.4468       0.2510     942.1268       8.5569
   1204.0500      25.0357       2.4544       0.2514     987.3798       8.4991
   1204.2000      25.5058       2.4489       0.2547    1270.0954       8.4897
   1204.3500      25.1540       2.4505       0.2614    1207.4800       8.4860
   1204.5000      24.5771       2.4347       0.2623    1359.0736       8.4398
   1204.6500      24.2446       2.4479       0.2602    1350.1293       8.3804
   1204.8000      24.1588       2.4543       0.2604    1495.6425       8.2940
   1204.9500      24.8929       2.4587       0.2554    1627.7624       8.3348
   1205.1000      25.3725       2.4577       0.2566    1549.1858       8.2930
   1205.2500      25.3365       2.4378       0.2534    1649.3610       8.3364
   1205.4000      26.7482       2.4185       0.2467    1781.8331       8.2923
   1205.5500      24.9914       2.4011       0.2583    1626.1221       8.3622
   1205.7000      25.9264       2.4054       0.2551    1782.2051       8.3802
   1205.8500      25.5091       2.3977       0.2535    1554.5075       8.4666
   1206.0000      24.5903       2.4082       0.2497    1424.8430       8.4632
   1206.1500      24.7594       2.4202       0.2458    1284.2026       8.5280
   1206.3000      24.7793       2.4276       0.2418    1298.9146       8.6270
   1206.4500      25.2509       2.4186       0.2426    1528.4090       8.6345
   1206.6000      23.9842       2.4269       0.2356    1527.4376       8.6345
   1206.7500      24.2494       2.4493       0.2382    1549.2030       8.6336
   1206.9000      24.9354       2.4360       0.2395    1533.3420       8.5836
   1207.0500      23.7533       2.4431       0.2438    1516.8802       8.5811
   1207.2000      23.9261       2.4382       0.2396    1467.6833       8.6216
   1207.3500      24.4519       2.4421       0.2397    1371.2173       8.5351
   1207.5000      24.5887       2.4480       0.2393    1109.9037       8.6054
   1207.6500      23.5932       2.4346       0.2428    1130.1489       8.5978
   1207.8000      23.8353       2.4311       0.2497    1101.2523       8.5582
   1207.9500      24.1761       2.4316       0.2521    1159.2699       8.5542
   1208.1000      23.5569       2.4313       0.2475    1177.5492       8.6003
   1208.2500      22.9003       2.4348       0.2511    1040.6864       8.5699
   1208.4000      21.3724       2.4446       0.2458     903.8144       8.6695
   1208.5500      23.5226       2.4647       0.2347     965.5577       8.6559
   1208.7000      21.6374       2.4646       0.2339    1049.6832       8.6736
   1208.8500      22.2441       2.4706       0.2321    1097.6556       8.7119
   1209.0000      24.0430       2.4550       0.2423    1089.9562       8.6360
   1209.1500      23.2623       2.4468       0.2435    1137.7668       8.6476
   1209.3000      23.4233       2.4536       0.2406    1037.0380       8.5875
   1209.4500      24.5111       2.4554       0.2310    1037.0380       8.6360
   1209.6000      24.1384       2.4474       0.2374    1034.3325       8.6914
   1209.7500      24.0626       2.4551       0.2466     891.4083       8.7210
   1209.9000      23.3904       2.4743       0.2484     833.7253       8.6214
   1210.0500      23.1731       2.4549       0.2391     919.0237       8.6593
   1210.2000      23.1114       2.4591       0.2454     921.8590       8.6650
   1210.3500      21.7550       2.4511       0.2410    1096.1178       8.7151
   1210.5000      22.1655       2.4493       0.2380    1180.2220       8.8121
   1210.6500      22.7549       2.4531       0.2387    1264.5185       8.7723
   1210.8000      23.3817       2.4470       0.2338    1210.2971       8.8433
   1210.9500      22.3069       2.4427       0.2362    1113.9576       8.8429
   1211.1000      23.0788       2.4466       0.2443    1122.8214       8.7915
   1211.2500      22.4494       2.4564       0.2367    1283.2268       8.7254
   1211.4000      24.0916       2.4496       0.2436    1320.5073       8.7349
   1211.5500      23.1117       2.4319       0.2462    1314.9206       8.6446
   1211.7000      24.1157       2.4215       0.2486    1266.5014       8.6032
   1211.8500      23.1409       2.4193       0.2472    1146.6582       8.6245
   1212.0000      21.7618       2.4081       0.2453    1079.1812       8.5383
   1212.1500      22.2757       2.3861       0.2419    1113.9912       8.5190
   1212.3000      22.1583       2.3804       0.2451    1208.1316       8.4206
   1212.4500      21.2576       2.3856       0.2414    1161.4666       8.3569
   1212.6000      22.5471       2.3891       0.2493    1111.7352       8.3986
   1212.7500      22.1095       2.3867       0.2431    1283.5717       8.4241
   1212.9000      22.9837       2.3725       0.2453    1382.0848       8.5219
   1213.0500      24.0596       2.3748       0.2527    1338.7483       8.5898
   1213.2000      24.0234       2.3696       0.2477    1263.8370       8.5704
   1213.3500      24.1115       2.3809       0.2467    1183.1147       8.4837
   1213.5000      22.9687       2.3905       0.2571    1290.8342       8.5600
   1213.6500      23.7651       2.3960       0.2530    1200.7845       8.6168
   1213.8000      23.9157       2.3993       0.2563    1286.1610       8.6247
   1213.9500      25.3757       2.3957       0.2535    1397.3934       8.5737
   1214.1000      24.7447       2.3981       0.2522    1499.5249       8.5299
   1214.2500      25.8895       2.3916       0.2567    1420.7899       8.5504
   1214.4000      24.7846       2.3825       0.2455    1589.7656       8.5385
   1214.5500      23.7708       2.3851       0.2541    1590.8073       8.4691
   1214.7000      23.3417       2.4002       0.2561    1676.8864       8.5148
   1214.8500      24.3052       2.4091       0.2544    1828.2160       8.5426
   1215.0000      25.7993       2.4356       0.2571    2020.5003       8.4763
   1215.1500      25.2013       2.4515       0.2611    1901.5633       8.4221
   1215.3000      24.4750       2.4429       0.2616    1923.6980       8.4545
