~VERSION -------------------------------------------
 VERS.                 2.0 : CWLS LOG ASCII STANDARD - VERSION 2.0
 WRAP.                  NO : ONE LINE PER DEPTH STEP
~WELL -----------------------------------------------
 WELL.                MUMBAI-1 : Well name
 UWI .                IN-MUM-001        : Unique Well ID
 LAT .                19.5431        : Latitude
 LON .                71.3241        : Longitude
 STRT.M               1200.00 : START DEPTH
 STOP.M               2799.90 : STOP DEPTH
 STEP.M               0.1500 : STEP
 NULL.                -9999 : NULL VALUE
~CURVE -----------------------------------------------
 DEPTH .M               : Depth
 GR    .GAPI            : Gamma Ray
 RHOB  .G/C3            : Bulk Density
 NPHI  .V/V             : Neutron Porosity
 RT    .OHMM            : Resistivity
 CALI  .IN              : Caliper
~A  DEPTH              GR        RHOB        NPHI          RT        CALI
# ...
   2791.3500      21.5409       2.4734       0.2291    1091.3404       8.4975
   2791.5000      21.8304       2.4605       0.2268    1218.4481       8.4397
   2791.6500      21.9932       2.4507       0.2300    1170.0640       8.4614
   2791.8000      22.7295       2.4425       0.2305    1145.0687       8.4475
   2791.9500      23.7688       2.4374       0.2323    1262.6095       8.4631
   2792.1000      23.5782       2.4402       0.2336    1369.2561       8.3846
   2792.2500      23.3445       2.4413       0.2304    1265.5043       8.4124
   2792.4000      23.5048       2.4537       0.2327    1088.8822       8.4634
   2792.5500      25.3772       2.4435       0.2357    1028.7451       8.4024
   2792.7000      25.7291       2.4376       0.2409    1053.8606       8.3829
   2792.8500      25.1924       2.4294       0.2433    1070.0250       8.4064
   2793.0000      25.1087       2.4413       0.2428    1040.7728       8.3813
   2793.1500      25.4659       2.4323       0.2379     880.4586       8.4263
   2793.3000      23.8046       2.4260       0.2328     739.3019       8.4515
   2793.4500      25.0345       2.4259       0.2249     826.6776       8.4267
   2793.6000      24.0705       2.4272       0.2296     839.0293       8.5184
   2793.7500      25.7717       2.4396       0.2295     869.3348       8.5445
   2793.9000      25.8884       2.4226       0.2291     987.6679       8.5486
   2794.0500      26.7825       2.4283       0.2264     982.2374       8.5900
   2794.2000      27.2036       2.4305       0.2239     960.5341       8.6253
   2794.3500      27.1646       2.4222       0.2180     927.2565       8.6041
   2794.5000      27.7091       2.4222       0.2242     838.7908       8.6065
   2794.6500      27.8576       2.4300       0.2269     874.0618       8.4968
   2794.8000      27.7784       2.4464       0.2345     997.6667       8.4698
   2794.9500      28.1963       2.4512       0.2388     831.6857       8.4949
   2795.1000      29.5835       2.4404       0.2402     700.4531       8.4628
   2795.2500      29.8886       2.4385       0.2359     742.4791       8.4949
   2795.4000      29.4011       2.4249       0.2289     809.0967       8.4399
   2795.5500      27.5992       2.4324       0.2266     849.4961       8.4271
   2795.7000      27.0200       2.4280       0.2365     967.1083       8.4237
   2795.8500      28.0888       2.4317       0.2447     924.6716       8.4164
   2796.0000      26.8245       2.4245       0.2492     987.4435       8.4812
   2796.1500      26.2290       2.4407       0.2600    1075.8950       8.5058
   2796.3000      27.1659       2.4457       0.2626    1203.3102       8.5173
   2796.4500      26.0517       2.4616       0.2614    1176.9431       8.5276
   2796.6000      27.1744       2.4532       0.2515    1201.8971       8.5620
   2796.7500      26.5389       2.4437       0.2450    1196.8187       8.5160
   2796.9000      26.0162       2.4486       0.2437    1095.9623       8.5360
   2797.0500      26.1582       2.4429       0.2412    1246.7191       8.5774
   2797.2000      25.6939       2.4476       0.2458    1174.5997       8.5062
   2797.3500      26.7544       2.4469       0.2481    1165.6385       8.4527
   2797.5000      27.2719       2.4389       0.2427    1243.5784       8.5298
   2797.6500      27.7442       2.4403       0.2402    1229.0872       8.5800
   2797.8000      27.5672       2.4403       0.2401    1036.7323       8.5964
   2797.9500      26.9591       2.4409       0.2395    1223.8373       8.5631
   2798.1000      25.5159       2.4497       0.2352    1192.5692       8.5352
   2798.2500      24.7354       2.4452       0.2355    1010.9333       8.5769
   2798.4000      24.7842       2.4504       0.2416     829.5255       8.5786
   2798.5500      25.4676       2.4666       0.2399     712.3848       8.5228
   2798.7000      24.6409       2.3525       0.2208     459.9543       8.6196
   2798.8500      22.5196       2.2258       0.2012     332.9552       8.6639
   2799.0000      22.2696       2.1020       0.1883     215.2539       8.5195
   2799.1500      20.6849       1.9747       0.1727     159.5616       8.4552
   2799.3000      19.4980       1.8522       0.1590     115.6664       8.3932
   2799.4500      18.8262       1.7175       0.1524      83.2931       7.5684
   2799.6000      17.1928       1.6026       0.1447      54.9016       6.6987
   2799.7500      15.8771       1.4790       0.1351      37.4224       5.8170
   2799.9000      14.9935       1.3559       0.1236      26.6726       4.9952
