~VERSION -------------------------------------------
 VERS.                 2.0 : CWLS LOG ASCII STANDARD - VERSION 2.0
 WRAP.                  NO : ONE LINE PER DEPTH STEP
~WELL -----------------------------------------------
 WELL.                MUMBAI-1 : Well name
 UWI .                IN-MUM-001        : Unique Well ID
 LAT .                19.5431        : Latitude
 LON .                71.3241        : Longitude
 STRT.M               1200.00 : START DEPTH
 STOP.M               2799.90 : STOP DEPTH
 STEP.M               0.1500 : STEP
 NULL.                -9999 : NULL VALUE
~CURVE -----------------------------------------------
 DEPTH .M               : Depth
 GR    .GAPI            : Gamma Ray
 RHOB  .G/C3            : Bulk Density
 NPHI  .V/V             : Neutron Porosity
 RT    .OHMM            : Resistivity
 CALI  .IN              : Caliper
~A  DEPTH              GR        RHOB        NPHI          RT        CALI
# ...
   2466.9000      24.7504       2.4402       0.2507    1103.0581       8.4757
   2467.0500      24.5264       2.4563       0.2532    1061.7710       8.5386
   2467.2000      24.2047       2.4523       0.2486     905.2755       8.5915
   2467.3500      23.8913       2.4553       0.2413     984.0635       8.6004
   2467.5000      24.1124       2.4551       0.2429     913.5051       8.6853
   2467.6500      23.2413       2.4604       0.2489     942.3622       8.6765
   2467.8000      22.6642       2.4788       0.2486     921.4447       8.6811
   2467.9500      21.3999       2.4674       0.2418     915.5193       8.6620
   2468.1000      22.1131       2.4763       0.2438     903.3026       8.7050
   2468.2500      21.6252       2.4797       0.2430     700.6251       8.7946
   2468.4000      23.0884       2.4946       0.2328     517.5468       8.8296
   2468.5500      22.7528       2.5020       0.2387     465.7860       8.8611
   2468.7000      22.7694       2.4890       0.2332     425.0845       8.7855
   2468.8500      23.5010       2.4949       0.2367     393.5668       8.7293
   2469.0000      22.2420       2.4985       0.2405     425.0563       8.7224
   2469.1500      21.7874       2.4909       0.2380     382.0830       8.6704
   2469.3000      22.0736       2.4976       0.2387     333.9690       8.6209
   2469.4500      22.0440       2.4925       0.2275     342.7975       8.6618
   2469.6000      21.7022       2.5073       0.2284     376.1733       8.6141
   2469.7500      21.4969       2.5105       0.2305     420.5061       8.6481
   2469.9000      22.6594       2.5081       0.2351     395.8075       8.5944
   2470.0500      21.4901       2.4948       0.2308     398.4964       8.5623
   2470.2000      21.3012       2.4870       0.2328     505.5223       8.6388
   2470.3500      21.2675       2.4803       0.2316     461.1985       8.6565
   2470.5000      21.4828       2.4749       0.2305     448.6081       8.5564
   2470.6500      21.2978       2.4839       0.2294     425.1341       8.6078
   2470.8000      21.3158       2.4764       0.2283     463.4209       8.5868
   2470.9500      22.0032       2.4744       0.2329     474.1963       8.5195
   2471.1000      21.5668       2.4559       0.2378     437.7853       8.4583
   2471.2500      20.5596       2.4520       0.2308     547.0192       8.4571
   2471.4000      19.5682       2.4477       0.2350     724.6987       8.4430
   2471.5500      18.6773       2.4431       0.2282     943.2387       8.4592
   2471.7000      18.3490       2.4383       0.2332    1041.2565       8.3999
   2471.8500      18.7110       2.4300       0.2240    1194.5008       8.3653
   2472.0000      20.1705       2.4265       0.2198    1341.3004       8.3615
   2472.1500      20.1853       2.4069       0.2174    1467.0677       8.3884
   2472.3000      20.2050       2.4108       0.2158    1678.4244       8.3995
   2472.4500      19.4822       2.4101       0.2172    1677.9342       8.4002
   2472.6000      19.2596       2.3973       0.2196    1923.0759       8.4002
   2472.7500      20.6451       2.3814       0.2240    1903.4847       8.2779
   2472.9000      20.6433       2.3705       0.2253    1674.8888       8.2819
   2473.0500      21.9763       2.3812       0.2301    1722.8358       8.3384
   2473.2000      21.7637       2.3872       0.2304    1663.6485       8.3671
   2473.3500      23.1577       2.4000       0.2369    1686.7117       8.4345
   2473.5000      22.4343       2.3999       0.2402    1867.9868       8.5265
   2473.6500      22.8083       2.3840       0.2335    2246.8449       8.5016
   2473.8000      24.4541       2.3714       0.2344    2155.1338       8.4620
   2473.9500      24.9043       2.3687       0.2345    2248.6489       8.4488
   2474.1000      24.2174       2.3702       0.2280    1860.1662       8.5005
   2474.2500      24.6159       2.3793       0.2306    1805.8098       8.5501
   2474.4000      25.0460       2.3704       0.2315    1669.5291       8.5778
   2474.5500      25.8929       2.3832       0.2358    1610.2481       8.5640
   2474.7000      26.5257       2.3926       0.2334    1610.2481       8.5202
   2474.8500      26.4354       2.4118       0.2423    1610.2481       8.5370
   2475.0000      25.6629       2.4184       0.2535    1420.5952       8.4495
   2475.1500      26.8794       2.4305       0.2601    1333.9539       8.4855
   2475.3000      27.1695       2.4180       0.2647    1317.3465       8.5147
   2475.4500      27.2974       2.4167       0.2668    1492.3173       8.5242
   2475.6000      26.6511       2.4336       0.2672    1427.0888       8.4943
   2475.7500      25.1795       2.4310       0.2680    1186.1122       8.4447
   2475.9000      24.6704       2.4368       0.2677    1445.4235       8.4566
   2476.0500      23.9699       2.4278       0.2581    1293.6239       8.4471
   2476.2000      24.7852       2.4229       0.2652    1331.4669       8.4451
   2476.3500      25.3809       2.4200       0.2568    1453.8220       8.4597
   2476.5000      25.3567       2.4273       0.2492    1387.4946       8.5246
   2476.6500      25.1088       2.4374       0.2561    1253.1844       8.4820
   2476.8000      23.6386       2.4391       0.2533    1252.0708       8.5897
   2476.9500      22.8932       2.4437       0.2512    1035.3767       8.6055
   2477.1000      23.1899       2.4610       0.2503    1305.6683       8.6092
   2477.2500      24.6834       2.4666       0.2575    1227.4910       8.6869
   2477.4000      25.3098       2.4623       0.2547    1256.9371       8.7136
   2477.5500      24.4629       2.4656       0.2515    1303.2110       8.6231
   2477.7000      25.2060       2.4522       0.2564    1230.9549       8.7661
   2477.8500      24.1067       2.4461       0.2562    1165.1145       8.6901
   2478.0000      23.9849       2.4441       0.2538    1234.5154       8.6867
   2478.1500      23.2766       2.4376       0.2501    1366.4141       8.7080
   2478.3000      22.6888       2.4481       0.2449    1274.3409       8.6410
   2478.4500      22.7683       2.4511       0.2422    1211.6202       8.6815
   2478.6000      24.4100       2.4300       0.2449    1196.9358       8.6617
   2478.7500      24.1243       2.4347       0.2503    1368.2771       8.5843
   2478.9000      24.0165       2.4299       0.2433    1235.9921       8.4842
   2479.0500      24.3985       2.4265       0.2506    1143.1118       8.4990
   2479.2000      23.7902       2.4424       0.2412    1022.7090       8.4521
   2479.3500      23.4473       2.4273       0.2465     813.5054       8.4294
   2479.5000      23.8021       2.4242       0.2571     731.6465       8.4296
   2479.6500      23.8284       2.4242       0.2511     697.6533       8.3622
   2479.8000      23.6164       2.4252       0.2554     790.5111       8.3643
   2479.9500      24.7995       2.4243       0.2608     936.1455       8.3163
   2480.1000      24.4176       2.4136       0.2568     845.6687       8.4487
   2480.2500      22.9061       2.4031       0.2585     905.5235       8.5135
   2480.4000      22.0492       2.4072       0.2610     857.9968       8.6561
   2480.5500      23.1504       2.4009       0.2624     674.8123       8.6722
   2480.7000      22.0256       2.4093       0.2584     714.4232       8.6739
   2480.8500      22.6072       2.4148       0.2549     694.1234       8.7721
   2481.0000      23.2460       2.4075       0.2479     722.1264       8.7418
   2481.1500      24.7053       2.4205       0.2532     633.4306       8.8487
   2481.3000      24.8682       2.4221       0.2576     619.1739       8.8615
   2481.4500      24.0531       2.4183       0.2540     604.0778       8.8328
   2481.6000      23.4466       2.4417       0.2550     653.7619       8.7939
   2481.7500      24.0127       2.4533       0.2503     680.6974       8.7702
   2481.9000      24.6396       2.4527       0.2552     753.5507       8.6276
   2482.0500      24.8484       2.4548       0.2536     800.6077       8.5754
   2482.2000      25.9576       2.4398       0.2618     856.9065       8.5016
