~VERSION -------------------------------------------
 VERS.                 2.0 : CWLS LOG ASCII STANDARD - VERSION 2.0
 WRAP.                  NO : ONE LINE PER DEPTH STEP
~WELL -----------------------------------------------
 WELL.                MUMBAI-1 : Well name
 UWI .                IN-MUM-001        : Unique Well ID
 LAT .                19.5431        : Latitude
 LON .                71.3241        : Longitude
 STRT.M               1200.00 : START DEPTH
 STOP.M               2799.90 : STOP DEPTH
 STEP.M               0.1500 : STEP
 NULL.                -9999 : NULL VALUE
~CURVE -----------------------------------------------
 DEPTH .M               : Depth
 GR    .GAPI            : Gamma Ray
 RHOB  .G/C3            : Bulk Density
 NPHI  .V/V             : Neutron Porosity
 RT    .OHMM            : Resistivity
 CALI  .IN              : Caliper
~A  DEPTH              GR        RHOB        NPHI          RT        CALI
# ...
   2575.0500      26.9265       2.4613       0.2460     976.7895       8.5914
   2575.2000      27.1529       2.4783       0.2440     725.3555       8.6814
   2575.3500      25.4690       2.4863       0.2356     527.4445       8.7192
   2575.5000      26.1411       2.4929       0.2364     478.0105       8.6165
   2575.6500      26.0644       2.4913       0.2309     483.6483       8.6460
   2575.8000      26.2860       2.4944       0.2358     567.8791       8.6475
   2575.9500      26.2341       2.4890       0.2385     514.7520       8.5759
   2576.1000      27.8527       2.4853       0.2375     547.7585       8.5314
   2576.2500      26.0306       2.5027       0.2371     557.2218       8.4315
   2576.4000      24.4180       2.5061       0.2291     533.5529       8.4426
   2576.5500      24.2209       2.5099       0.2289     469.8891       8.4293
   2576.7000      24.7296       2.5044       0.2224     433.8254       8.3858
   2576.8500      25.2374       2.5002       0.2154     488.7012       8.3590
   2577.0000      26.2315       2.4991       0.2094     445.6364       8.3635
   2577.1500      25.6736       2.4900       0.2052     410.1224       8.3340
   2577.3000      24.7218       2.4885       0.2003     443.9552       8.3847
   2577.4500      24.7633       2.4775       0.1942     410.4953       8.3355
   2577.6000      23.7403       2.4855       0.1925     405.7507       8.3454
   2577.7500      23.9014       2.4895       0.1861     367.5410       8.3465
   2577.9000      23.2251       2.4959       0.1864     460.9269       8.4199
   2578.0500      22.7477       2.4874       0.1902     490.0059       8.3919
   2578.2000      22.9936       2.4747       0.1903     639.4848       8.3453
   2578.3500      23.5866       2.4706       0.1988     863.3846       8.3462
   2578.5000      22.8778       2.4647       0.1994     948.1966       8.3493
   2578.6500      22.5903       2.4670       0.2027     904.0841       8.4100
   2578.8000      22.0492       2.4726       0.2039     862.1706       8.4076
   2578.9500      21.6564       2.4706       0.2038     950.6388       8.4076
   2579.1000      19.7894       2.4511       0.2054     812.8616       8.4158
   2579.2500      20.1383       2.4404       0.2033     772.3528       8.3999
   2579.4000      20.3833       2.4372       0.2079     839.4052       8.3067
   2579.5500      20.2322       2.4379       0.2048     855.4283       8.3304
   2579.7000      19.4950       2.4330       0.2088     795.2182       8.3304
   2579.8500      19.6456       2.4297       0.2154     778.0154       8.3911
   2580.0000      19.2923       2.4132       0.2296     740.0330       8.4342
   2580.1500      20.2502       2.4166       0.2319     808.6956       8.4043
   2580.3000      20.5299       2.4182       0.2379     669.4738       8.4090
   2580.4500      20.2133       2.4287       0.2437     708.7221       8.4293
   2580.6000      20.7397       2.4286       0.2457     655.8674       8.3639
   2580.7500      21.3715       2.4283       0.2413     671.6700       8.4611
   2580.9000      21.5780       2.4203       0.2445     638.6613       8.5034
   2581.0500      20.7752       2.4227       0.2467     637.8358       8.5462
   2581.2000      21.4543       2.4398       0.2452     679.3672       8.5669
   2581.3500      20.3568       2.4321       0.2437     649.7277       8.5358
   2581.5000      19.6369       2.4248       0.2388     748.3385       8.5665
   2581.6500      19.5947       2.4192       0.2362     773.7314       8.5984
   2581.8000      20.6766       2.4291       0.2382     706.6077       8.5795
   2581.9500      21.8463       2.4172       0.2412     647.3550       8.6349
   2582.1000      22.0085       2.4331       0.2398     755.1646       8.6499
   2582.2500      22.9246       2.4300       0.2340     744.9022       8.6297
   2582.4000      23.5414       2.4325       0.2280     679.9158       8.6151
   2582.5500      22.7426       2.4379       0.2255     679.4650       8.6410
   2582.7000      23.7975       2.4367       0.2287     733.2501       8.6243
   2582.8500      23.1422       2.4435       0.2292     665.2956       8.6206
   2583.0000      24.2760       2.4634       0.2229     669.1375       8.5245
   2583.1500      23.5071       2.4571       0.2193     655.3776       8.4673
   2583.3000      23.2692       2.4619       0.2142     724.5762       8.4516
   2583.4500      22.3705       2.4668       0.2172     731.5780       8.4129
   2583.6000      21.9184       2.4631       0.2141     847.2354       8.4243
   2583.7500      22.4869       2.4622       0.2225     953.9892       8.4235
   2583.9000      22.1824       2.4605       0.2216     964.3757       8.4907
   2584.0500      22.8536       2.4630       0.2199    1012.8129       8.3903
   2584.2000      20.9040       2.4553       0.2183     983.0807       8.4717
   2584.3500      21.6781       2.4628       0.2178     947.9758       8.4494
   2584.5000      22.8910       2.4549       0.2226    1006.6825       8.4618
   2584.6500      24.1625       2.4608       0.2225     974.2800       8.5238
   2584.8000      23.4195       2.4530       0.2177    1196.0759       8.6114
   2584.9500      22.7144       2.4759       0.2169    1176.1810       8.6220
   2585.1000      22.9315       2.4691       0.2244    1179.1634       8.6050
   2585.2500      21.6664       2.4784       0.2260    1228.8990       8.6169
   2585.4000      21.5920       2.4823       0.2325    1333.5941       8.4937
   2585.5500      22.4698       2.4802       0.2358    1486.9003       8.5363
   2585.7000      22.0015       2.4870       0.2319    1304.3325       8.5284
   2585.8500      22.3616       2.4907       0.2361    1345.9928       8.5347
   2586.0000      21.5579       2.4897       0.2428    1388.9329       8.5508
   2586.1500      21.9509       2.4962       0.2429    1394.3982       8.5763
   2586.3000      22.8212       2.4907       0.2452    1523.5119       8.5299
   2586.4500      24.9778       2.4849       0.2382    1456.0442       8.5868
   2586.6000      24.3584       2.4967       0.2455    1426.7930       8.6443
   2586.7500      23.9174       2.4733       0.2434    1345.9603       8.5563
   2586.9000      24.0511       2.4741       0.2434    1456.1425       8.6322
   2587.0500      23.2051       2.4688       0.2483    1409.6414       8.6299
   2587.2000      24.7552       2.4758       0.2544    1445.9625       8.6649
   2587.3500      23.9812       2.4805       0.2490    1567.2243       8.6227
   2587.5000      23.4491       2.4976       0.2482    1567.2243       8.6385
   2587.6500      23.0534       2.4952       0.2457    1738.0628       8.5545
   2587.8000      22.3087       2.4946       0.2561    1569.9478       8.5704
   2587.9500      21.8971       2.4868       0.2563    1641.8287       8.5065
   2588.1000      22.6785       2.4944       0.2562    1517.8192       8.4842
   2588.2500      23.1097       2.4970       0.2616    1486.4706       8.5189
   2588.4000      23.1385       2.4911       0.2577    1449.3362       8.4594
   2588.5500      23.4412       2.4873       0.2558    1349.5178       8.4918
   2588.7000      24.3630       2.4718       0.2563    1395.4898       8.4186
   2588.8500      25.3096       2.4713       0.2564    1400.2631       8.4597
   2589.0000      24.9883       2.4732       0.2536    1468.1327       8.4930
   2589.1500      24.7336       2.4701       0.2593    1629.1450       8.5743
   2589.3000      23.8026       2.4622       0.2592    1359.2656       8.5193
   2589.4500      22.0471       2.4667       0.2623    1411.1262       8.5420
   2589.6000      21.8304       2.4519       0.2531    1367.0977       8.5814
   2589.7500      22.6943       2.4684       0.2608    1385.9104       8.6244
   2589.9000      22.3687       2.4578       0.2579    1330.5027       8.6212
   2590.0500      23.3889       2.4439       0.2576    1433.6413       8.5943
   2590.2000      22.5189       2.4351       0.2569    1392.2757       8.5851
   2590.3500      23.1093       2.4319       0.2641    1206.4129       8.5548
