~VERSION -------------------------------------------
 VERS.                 2.0 : CWLS LOG ASCII STANDARD - VERSION 2.0
 WRAP.                  NO : ONE LINE PER DEPTH STEP
~WELL -----------------------------------------------
 WELL.                MUMBAI-1 : Well name
 UWI .                IN-MUM-001        : Unique Well ID
 LAT .                19.5431        : Latitude
 LON .                71.3241        : Longitude
 STRT.M               1200.00 : START DEPTH
 STOP.M               2799.90 : STOP DEPTH
 STEP.M               0.1500 : STEP
 NULL.                -9999 : NULL VALUE
~CURVE -----------------------------------------------
 DEPTH .M               : Depth
 GR    .GAPI            : Gamma Ray
 RHOB  .G/C3            : Bulk Density
 NPHI  .V/V             : Neutron Porosity
 RT    .OHMM            : Resistivity
 CALI  .IN              : Caliper
~A  DEPTH              GR        RHOB        NPHI          RT        CALI
# ...
   2374.2000      24.4011       2.3781       0.2414     956.0371       8.4679
   2374.3500      23.9021       2.3770       0.2464    1003.9941       8.5109
   2374.5000      24.5092       2.3970       0.2386     951.8578       8.5358
   2374.6500      25.7198       2.3881       0.2269    1028.3088       8.4907
   2374.8000      24.8891       2.3989       0.2180    1156.9716       8.4976
   2374.9500      23.6491       2.4200       0.2192    1006.6718       8.5608
   2375.1000      24.0148       2.4192       0.2199    1042.7449       8.5625
   2375.2500      24.4575       2.4111       0.2229     999.4258       8.5353
   2375.4000      24.4367       2.4156       0.2147     977.3927       8.5854
   2375.5500      25.5244       2.4178       0.2143    1008.9646       8.6308
   2375.7000      26.1229       2.4337       0.2178    1077.1503       8.7009
   2375.8500      26.7264       2.4260       0.2163    1043.1687       8.7385
   2376.0000      26.9072       2.4199       0.2196     915.7788       8.7162
   2376.1500      26.1369       2.4176       0.2185     909.1247       8.7431
   2376.3000      27.5628       2.4276       0.2163     825.7266       8.7273
   2376.4500      28.1357       2.4291       0.2146     969.1109       8.6614
   2376.6000      27.6896       2.4332       0.2210    1058.9121       8.6325
   2376.7500      27.6857       2.4259       0.2228    1064.9236       8.6667
   2376.9000      27.2998       2.4240       0.2277     903.5551       8.6672
   2377.0500      27.1071       2.4268       0.2190     923.1305       8.6087
   2377.2000      26.7687       2.4310       0.2173    1055.1840       8.4634
   2377.3500      26.3826       2.4353       0.2170    1071.0169       8.4655
   2377.5000      26.7805       2.4291       0.2196    1122.8803       8.4792
   2377.6500      27.0861       2.4366       0.2242    1120.4462       8.4934
   2377.8000      27.2229       2.4272       0.2299    1139.8827       8.4953
   2377.9500      28.5281       2.4120       0.2390    1186.8781       8.5464
   2378.1000      28.1493       2.4117       0.2365    1224.3889       8.5264
   2378.2500      28.1210       2.4166       0.2344    1363.9210       8.4400
   2378.4000      28.2110       2.4143       0.2398    1459.8224       8.4690
   2378.5500      27.7636       2.4130       0.2429    1514.6505       8.4499
   2378.7000      26.4784       2.4092       0.2426    1695.0319       8.4958
   2378.8500      25.8916       2.4208       0.2492    1506.0006       8.4599
   2379.0000      26.7383       2.4349       0.2374    1395.3107       8.4621
   2379.1500      27.2461       2.4261       0.2372    1496.8409       8.4560
   2379.3000      26.3508       2.4148       0.2322    1439.6009       8.4415
   2379.4500      27.3873       2.4048       0.2372    1471.2998       8.4375
   2379.6000      27.0572       2.3991       0.2336    1270.2669       8.4536
   2379.7500      27.7990       2.4014       0.2303    1203.8817       8.4398
   2379.9000      27.9781       2.4024       0.2274    1462.2781       8.4177
   2380.0500      28.0994       2.3990       0.2301    1444.3291       8.4446
   2380.2000      27.9616       2.4094       0.2331    1444.3291       8.4045
   2380.3500      27.6807       2.4012       0.2305    1375.5085       8.3874
   2380.5000      28.0824       2.3978       0.2342    1098.0995       8.4387
   2380.6500      27.2249       2.4081       0.2322    1058.4407       8.4400
   2380.8000      26.5146       2.4160       0.2381     920.6193       8.4714
   2380.9500      26.1506       2.4141       0.2321     905.7722       8.4551
   2381.1000      25.7694       2.4175       0.2246     801.9848       8.4277
   2381.2500      24.5927       2.4225       0.2192     799.3472       8.4645
   2381.4000      23.8955       2.4219       0.2197     715.9268       8.4519
   2381.5500      23.5010       2.4308       0.2190     682.5565       8.4825
   2381.7000      23.6643       2.4253       0.2223     638.2523       8.4934
   2381.8500      23.1790       2.4168       0.2210     708.2796       8.4503
   2382.0000      22.7154       2.4115       0.2243     843.9652       8.4688
   2382.1500      22.6193       2.4206       0.2243     959.8117       8.4819
   2382.3000      22.1439       2.4332       0.2339     919.3604       8.4236
   2382.4500      20.9430       2.4343       0.2264     818.0636       8.3715
   2382.6000      21.9589       2.4442       0.2207     843.1927       8.3687
   2382.7500      21.3265       2.4548       0.2271     913.4473       8.3733
   2382.9000      21.2375       2.4609       0.2275     840.0341       8.3266
   2383.0500      20.4466       2.4510       0.2309     910.3546       8.3270
   2383.2000      19.9895       2.4429       0.2330     785.7970       8.3385
   2383.3500      20.4171       2.4488       0.2374     830.4440       8.4218
   2383.5000      19.4128       2.4555       0.2321    1035.5671       8.3794
   2383.6500      19.1520       2.4461       0.2326    1048.4158       8.2959
   2383.8000      18.8223       2.4481       0.2287    1062.7372       8.2959
   2383.9500      19.0317       2.4555       0.2318    1233.7649       8.3194
   2384.1000      19.2842       2.4511       0.2446    1372.6558       8.3745
   2384.2500      20.4052       2.4555       0.2500    1276.7974       8.3726
   2384.4000      21.4324       2.4602       0.2554    1304.6004       8.3930
   2384.5500      21.5089       2.4566       0.2560    1239.2892       8.3518
   2384.7000      21.8067       2.4616       0.2488    1223.0362       8.3329
   2384.8500      22.4513       2.4605       0.2439    1336.4938       8.2606
   2385.0000      22.4097       2.4597       0.2436    1209.1392       8.2686
   2385.1500      21.7950       2.4587       0.2422    1193.6187       8.2923
   2385.3000      21.4463       2.4545       0.2326    1181.2841       8.3678
   2385.4500      22.5930       2.4736       0.2333    1282.2114       8.3453
   2385.6000      22.3016       2.4768       0.2374    1415.0101       8.3843
   2385.7500      21.9892       2.4664       0.2343    1303.8119       8.3448
   2385.9000      21.6004       2.4494       0.2408    1309.5474       8.4108
   2386.0500      21.9308       2.4656       0.2394    1330.4374       8.4286
   2386.2000      21.9513       2.4573       0.2354    1541.3267       8.5334
   2386.3500      21.9623       2.4505       0.2270    1391.0496       8.5419
   2386.5000      22.1504       2.4502       0.2305    1342.5403       8.5339
   2386.6500      21.7281       2.4437       0.2299    1415.4189       8.5941
   2386.8000      22.2512       2.4485       0.2262    1418.8511       8.6039
   2386.9500      21.3116       2.4604       0.2243    1452.1431       8.6674
   2387.1000      22.5968       2.4552       0.2148    1323.0701       8.6586
   2387.2500      22.4599       2.4315       0.2125    1417.6197       8.6968
   2387.4000      22.5173       2.4388       0.2026    1325.4412       8.6259
   2387.5500      23.2411       2.4454       0.1994    1367.4525       8.6963
   2387.7000      22.2922       2.4419       0.1997    1248.5920       8.6217
   2387.8500      22.1661       2.4550       0.2083    1209.2581       8.6478
   2388.0000      21.8377       2.4533       0.2088    1364.3906       8.6172
   2388.1500      22.6324       2.4659       0.2183    1246.7644       8.5649
   2388.3000      22.3576       2.4528       0.2198    1265.0720       8.4885
   2388.4500      22.3391       2.4396       0.2212    1267.5495       8.5217
   2388.6000      22.6474       2.4514       0.2210    1256.3701       8.5393
   2388.7500      23.6536       2.4556       0.2166    1406.1909       8.5465
   2388.9000      23.9712       2.4827       0.2083    1312.3486       8.5992
   2389.0500      23.8375       2.4686       0.2047    1176.1951       8.4945
   2389.2000      24.1751       2.4802       0.2053    1101.9295       8.5580
   2389.3500      23.5426       2.4733       0.2069    1027.6414       8.5824
   2389.5000      23.2357       2.4660       0.2073    1009.1919       8.6245
