~VERSION -------------------------------------------
 VERS.                 2.0 : CWLS LOG ASCII STANDARD - VERSION 2.0
 WRAP.                  NO : ONE LINE PER DEPTH STEP
~WELL -----------------------------------------------
 WELL.                MUMBAI-1 : Well name
 UWI .                IN-MUM-001        : Unique Well ID
 LAT .                19.5431        : Latitude
 LON .                71.3241        : Longitude
 STRT.M               1200.00 : START DEPTH
 STOP.M               2799.90 : STOP DEPTH
 STEP.M               0.1500 : STEP
 NULL.                -9999 : NULL VALUE
~CURVE -----------------------------------------------
 DEPTH .M               : Depth
 GR    .GAPI            : Gamma Ray
 RHOB  .G/C3            : Bulk Density
 NPHI  .V/V             : Neutron Porosity
 RT    .OHMM            : Resistivity
 CALI  .IN              : Caliper
~A  DEPTH              GR        RHOB        NPHI          RT        CALI
# ...
   2266.0500      23.3886       2.4768       0.2401     505.4502       8.5645
   2266.2000      22.9406       2.4868       0.2367     440.7782       8.5572
   2266.3500      23.2682       2.4839       0.2379     334.1797       8.5422
   2266.5000      23.4911       2.4818       0.2379     295.8959       8.5147
   2266.6500      24.5646       2.4855       0.2429     240.5865       8.4589
   2266.8000      24.5276       2.4933       0.2409     190.1083       8.3922
   2266.9500      24.5658       2.4953       0.2422     139.5830       8.4473
   2267.1000      24.1811       2.4875       0.2450     156.9639       8.4991
   2267.2500      24.0357       2.5088       0.2459     141.9874       8.4846
   2267.4000      23.4245       2.5146       0.2504     139.0101       8.5847
   2267.5500      24.7871       2.5160       0.2517     117.8816       8.5511
   2267.7000      24.7631       2.5061       0.2558      98.2193       8.5364
   2267.8500      25.4795       2.5099       0.2539      79.7840       8.4917
   2268.0000      25.0323       2.5213       0.2514      87.7060       8.4516
   2268.1500      24.5899       2.5135       0.2530     104.4354       8.5254
   2268.3000      23.1726       2.5044       0.2541     136.0774       8.5103
   2268.4500      23.0878       2.4924       0.2534     120.7293       8.4925
   2268.6000      24.6454       2.4853       0.2525     127.7361       8.3936
   2268.7500      25.0824       2.4894       0.2492     143.8631       8.3810
   2268.9000      25.1412       2.5079       0.2428     207.4123       8.3216
   2269.0500      25.9938       2.5024       0.2370     230.7530       8.3363
   2269.2000      25.7452       2.5073       0.2358     300.1181       8.3783
   2269.3500      26.0509       2.4939       0.2348     386.1306       8.4467
   2269.5000      25.3972       2.4955       0.2322     443.4641       8.5006
   2269.6500      24.9465       2.4801       0.2297     568.5041       8.4268
   2269.8000      24.6364       2.4713       0.2278     711.3303       8.4391
   2269.9500      25.2351       2.4779       0.2225     901.2296       8.4017
   2270.1000      26.1629       2.4730       0.2229     792.0202       8.4009
   2270.2500      27.9230       2.4559       0.2230     868.1889       8.4478
   2270.4000      28.7037       2.4362       0.2182     828.4722       8.4648
   2270.5500      28.2089       2.4304       0.2165     888.7867       8.4376
   2270.7000      28.0482       2.4357       0.2127    1148.9654       8.4822
   2270.8500      27.5487       2.4530       0.2069    1286.8525       8.4752
   2271.0000      27.8003       2.4559       0.2083     963.6973       8.4438
   2271.1500      26.9339       2.4667       0.2039     865.2163       8.5314
   2271.3000      27.7797       2.4708       0.2074     839.5356       8.5917
   2271.4500      28.6188       2.4878       0.2036     786.2529       8.6410
   2271.6000      27.5784       2.4814       0.1976     657.7597       8.7099
   2271.7500      27.0578       2.4915       0.1932     459.5356       8.6843
   2271.9000      27.6565       2.4906       0.1992     352.8045       8.6909
   2272.0500      26.7512       2.4966       0.2013     304.3246       8.7778
   2272.2000      26.5448       2.4923       0.1962     244.8305       8.6889
   2272.3500      26.9217       2.5025       0.1974     180.9882       8.6551
   2272.5000      26.6328       2.4970       0.2011     134.5588       8.6109
   2272.6500      28.2375       2.4884       0.2066     130.9469       8.5955
   2272.8000      28.4739       2.5048       0.2048     125.0893       8.5366
   2272.9500      27.7364       2.5045       0.2137     128.3098       8.5131
   2273.1000      27.0830       2.5245       0.2054     130.7102       8.4767
   2273.2500      24.9708       2.5245       0.1995     123.9129       8.4535
   2273.4000      24.7431       2.5278       0.2020     135.3919       8.4142
   2273.5500      24.7074       2.5316       0.1996     132.0020       8.3915
   2273.7000      25.2934       2.5194       0.2068     120.2835       8.3915
   2273.8500      25.2728       2.5021       0.2156     123.9524       8.4776
   2274.0000      25.6677       2.4923       0.2253     165.8784       8.5011
   2274.1500      26.9444       2.4841       0.2340     170.5598       8.4841
   2274.3000      26.1868       2.4873       0.2291     148.9154       8.5464
   2274.4500      26.4864       2.4651       0.2360     185.3042       8.5557
   2274.6000      26.4987       2.4619       0.2423     228.2759       8.6209
   2274.7500      27.3717       2.4536       0.2463     300.9831       8.6131
   2274.9000      27.6921       2.4289       0.2470     343.9260       8.5750
   2275.0500      28.1427       2.4242       0.2525     382.8052       8.5074
   2275.2000      27.7381       2.4188       0.2573     431.5169       8.5818
   2275.3500      26.4471       2.4214       0.2579     598.4271       8.6053
   2275.5000      27.5230       2.4252       0.2532     761.1776       8.6752
   2275.6500      25.4535       2.4345       0.2480     764.4990       8.6762
   2275.8000      25.7432       2.4242       0.2490     801.4400       8.6866
   2275.9500      26.2499       2.4288       0.2461     751.8300       8.7147
   2276.1000      25.5864       2.4128       0.2581     727.7094       8.5799
   2276.2500      26.2016       2.4099       0.2566     672.2952       8.5759
   2276.4000      25.9394       2.4121       0.2580     658.1838       8.6039
   2276.5500      25.1001       2.4115       0.2685     663.2250       8.6829
   2276.7000      24.2775       2.4265       0.2617     717.6832       8.6827
   2276.8500      24.1804       2.4311       0.2640     729.8645       8.5722
   2277.0000      25.2895       2.4260       0.2614     674.6650       8.5623
   2277.1500      25.4842       2.4296       0.2585     639.7903       8.5633
   2277.3000      25.2380       2.4216       0.2642     696.9959       8.4771
   2277.4500      23.9836       2.4231       0.2697     649.9261       8.4954
   2277.6000      23.9809       2.4176       0.2657     650.8609       8.5321
   2277.7500      22.6861       2.4031       0.2599     645.5822       8.5984
   2277.9000      22.8355       2.4169       0.2553     710.2530       8.6316
   2278.0500      22.4147       2.4026       0.2553     721.9892       8.6357
   2278.2000      22.5057       2.4083       0.2559     744.1550       8.5793
   2278.3500      21.9767       2.4219       0.2555     693.3447       8.6207
   2278.5000      21.0213       2.4151       0.2555     726.8007       8.5675
   2278.6500      20.4149       2.4185       0.2557     649.8241       8.5102
   2278.8000      20.0619       2.4250       0.2557     659.2667       8.5259
   2278.9500      18.6775       2.4232       0.2553     637.1414       8.5550
   2279.1000      18.9621       2.4229       0.2524     735.2701       8.6649
   2279.2500      19.5628       2.4235       0.2592     803.3161       8.6237
   2279.4000      20.7910       2.4266       0.2616     885.3851       8.5798
   2279.5500      22.7794       2.4252       0.2500     773.7169       8.6058
   2279.7000      21.6111       2.4290       0.2519     659.5943       8.6457
   2279.8500      21.4902       2.4283       0.2500     675.9723       8.6588
   2280.0000      20.4022       2.4402       0.2461     561.6546       8.6775
   2280.1500      20.2039       2.4401       0.2437     651.1329       8.7781
   2280.3000      20.1106       2.4414       0.2444     671.1431       8.8422
   2280.4500      20.3912       2.4430       0.2397     741.5653       8.7555
   2280.6000      19.9176       2.4606       0.2466     744.3818       8.6969
   2280.7500      19.6275       2.4630       0.2496     600.8456       8.6860
   2280.9000      19.6590       2.4583       0.2513     569.4123       8.6815
   2281.0500      19.2862       2.4550       0.2513     562.5578       8.6428
   2281.2000      19.4935       2.4423       0.2488     583.0740       8.6955
   2281.3500      20.6035       2.4281       0.2480     554.8582       8.6809
