~VERSION -------------------------------------------
 VERS.                 2.0 : CWLS LOG ASCII STANDARD - VERSION 2.0
 WRAP.                  NO : ONE LINE PER DEPTH STEP
~WELL -----------------------------------------------
 WELL.                MUMBAI-1 : Well name
 UWI .                IN-MUM-001        : Unique Well ID
 LAT .                19.5431        : Latitude
 LON .                71.3241        : Longitude
 STRT.M               1200.00 : START DEPTH
 STOP.M               2799.90 : STOP DEPTH
 STEP.M               0.1500 : STEP
 NULL.                -9999 : NULL VALUE
~CURVE -----------------------------------------------
 DEPTH .M               : Depth
 GR    .GAPI            : Gamma Ray
 RHOB  .G/C3            : Bulk Density
 NPHI  .V/V             : Neutron Porosity
 RT    .OHMM            : Resistivity
 CALI  .IN              : Caliper
~A  DEPTH              GR        RHOB        NPHI          RT        CALI
# ...
   1308.1500      18.6713       2.3945       0.2586     542.3455       8.6668
   1308.3000      18.5375       2.4040       0.2542     576.5204       8.6779
   1308.4500      19.0443       2.3997       0.2555     619.1501       8.7063
   1308.6000      18.6536       2.3898       0.2512     614.7941       8.7592
   1308.7500      18.7372       2.3907       0.2618     637.2953       8.7262
   1308.9000      19.4065       2.3975       0.2569     843.3573       8.7140
   1309.0500      19.7425       2.3856       0.2621     862.4278       8.7131
   1309.2000      20.2466       2.3883       0.2588     746.7382       8.6732
   1309.3500      21.1855       2.3998       0.2592     728.2776       8.6304
   1309.5000      22.1129       2.4147       0.2550     622.7593       8.7360
   1309.6500      23.3376       2.4100       0.2622     626.8912       8.7575
   1309.8000      23.6618       2.4031       0.2657     718.7280       8.7362
   1309.9500      24.2717       2.4073       0.2694     757.8023       8.6308
   1310.1000      24.8528       2.4198       0.2701     859.4779       8.5121
   1310.2500      24.1622       2.4355       0.2727     912.9164       8.5262
   1310.4000      25.3212       2.4426       0.2809    1070.5458       8.5200
   1310.5500      25.1355       2.4303       0.2736    1199.5073       8.5228
   1310.7000      25.7149       2.4480       0.2663    1147.3485       8.5279
   1310.8500      25.1813       2.4519       0.2641    1326.4137       8.5394
   1311.0000      24.4938       2.4537       0.2672    1465.4401       8.4618
   1311.1500      24.5131       2.4512       0.2620    1723.4146       8.4758
   1311.3000      25.7010       2.4406       0.2673    1911.2756       8.5168
   1311.4500      25.8203       2.4353       0.2595    1908.5772       8.5566
   1311.6000      25.8322       2.4355       0.2648    1682.4154       8.5493
   1311.7500      24.7552       2.4228       0.2615    1653.4763       8.5478
   1311.9000      24.2468       2.4228       0.2586    1465.4240       8.5078
   1312.0500      23.9787       2.4388       0.2555    1297.2530       8.4676
   1312.2000      23.7569       2.4306       0.2529    1275.7337       8.4646
   1312.3500      24.0423       2.4284       0.2511    1232.1329       8.5605
   1312.5000      25.1725       2.4296       0.2500    1354.7733       8.5196
   1312.6500      23.9478       2.4494       0.2503    1227.4393       8.5018
   1312.8000      23.4618       2.4496       0.2497    1212.6158       8.5496
   1312.9500      23.0173       2.4453       0.2436    1128.9997       8.5590
   1313.1000      22.3803       2.4427       0.2351    1024.3483       8.6024
   1313.2500      23.0058       2.4358       0.2396    1058.8410       8.5575
   1313.4000      22.2909       2.4276       0.2268    1058.8410       8.5171
   1313.5500      21.7939       2.4241       0.2293    1041.1739       8.4700
   1313.7000      22.6539       2.4308       0.2315     995.4458       8.4778
   1313.8500      23.5005       2.4254       0.2339     910.3607       8.3893
   1314.0000      24.2667       2.4190       0.2288     800.2322       8.3965
   1314.1500      24.5257       2.4202       0.2290     749.6361       8.4167
   1314.3000      24.3298       2.4294       0.2294     768.8088       8.4063
   1314.4500      25.0841       2.4304       0.2367     773.7585       8.3535
   1314.6000      25.5403       2.4485       0.2386     806.4652       8.3789
   1314.7500      25.9046       2.4697       0.2356     843.4218       8.3790
   1314.9000      25.5660       2.4690       0.2360     951.6550       8.3992
   1315.0500      24.6649       2.4458       0.2349    1100.8362       8.4693
   1315.2000      25.1191       2.4535       0.2372    1277.5485       8.4726
   1315.3500      25.1232       2.4516       0.2316    1516.8523       8.4998
   1315.5000      23.4458       2.4383       0.2314    1566.4927       8.4981
   1315.6500      24.8651       2.4256       0.2266    1698.8498       8.5603
   1315.8000      25.0553       2.4418       0.2239    1760.4269       8.5203
   1315.9500      25.0435       2.4469       0.2300    2049.0888       8.5779
   1316.1000      26.6938       2.4490       0.2348    2129.6836       8.4922
   1316.2500      25.8011       2.4551       0.2304    2291.2266       8.5101
   1316.4000      25.5417       2.4682       0.2325    1842.6153       8.5407
   1316.5500      26.0302       2.4654       0.2293    1927.9792       8.5514
   1316.7000      25.3272       2.4453       0.2272    2108.2181       8.5848
   1316.8500      24.2978       2.4371       0.2221    1938.1533       8.5946
   1317.0000      23.5315       2.4265       0.2246    1856.3501       8.5887
   1317.1500      24.3644       2.4240       0.2327    1901.4124       8.4593
   1317.3000      24.4194       2.4240       0.2345    1903.3370       8.5143
   1317.4500      23.9268       2.4417       0.2296    1834.0827       8.4567
   1317.6000      24.3926       2.4371       0.2249    1721.3152       8.5373
   1317.7500      25.2845       2.4234       0.2265    1775.7351       8.4724
   1317.9000      25.5061       2.4163       0.2320    1745.3786       8.5323
   1318.0500      26.3480       2.4314       0.2343    1538.5993       8.5368
   1318.2000      25.0624       2.4331       0.2325    1557.0045       8.5274
   1318.3500      24.9793       2.4343       0.2386    1505.5508       8.5318
   1318.5000      25.4924       2.4284       0.2424    1463.3738       8.5502
   1318.6500      25.9007       2.4259       0.2489    1361.9433       8.6082
   1318.8000      25.2441       2.4215       0.2500    1303.3655       8.6092
   1318.9500      26.0845       2.4127       0.2423    1050.1243       8.7410
   1319.1000      26.4455       2.4092       0.2434     937.2130       8.7250
   1319.2500      26.6778       2.3990       0.2465     888.7132       8.7718
   1319.4000      26.2533       2.3950       0.2470    1066.2708       8.8020
   1319.5500      26.2658       2.3988       0.2519    1066.2708       8.7978
   1319.7000      27.1151       2.4146       0.2485    1066.2708       8.7321
   1319.8500      27.6443       2.4294       0.2476    1134.0212       8.7134
   1320.0000      27.7533       2.4495       0.2475    1334.7977       8.7727
   1320.1500      26.0258       2.4402       0.2471    1207.1347       8.8005
   1320.3000      25.7880       2.4401       0.2392    1143.8875       8.7644
   1320.4500      25.6007       2.4270       0.2419    1254.2378       8.7032
   1320.6000      25.0584       2.4260       0.2384    1234.1645       8.6805
   1320.7500      25.1363       2.4314       0.2398    1172.8860       8.6859
   1320.9000      24.7388       2.4256       0.2408    1121.2763       8.6284
   1321.0500      24.7961       2.4263       0.2374    1214.1701       8.5408
   1321.2000      25.2467       2.4178       0.2412    1153.3819       8.6063
   1321.3500      25.3869       2.4105       0.2435    1046.0065       8.5737
   1321.5000      25.6407       2.4224       0.2457     962.1412       8.5829
   1321.6500      24.3134       2.4249       0.2362    1005.9374       8.5152
   1321.8000      23.9161       2.4238       0.2317    1034.1248       8.4501
   1321.9500      23.7605       2.4271       0.2297    1196.6159       8.3795
   1322.1000      21.9075       2.4307       0.2329    1367.6669       8.4584
   1322.2500      21.2975       2.4357       0.2316    1287.1270       8.4231
   1322.4000      22.0546       2.4313       0.2343    1164.3621       8.3702
   1322.5500      22.2706       2.4374       0.2286     953.4876       8.4316
   1322.7000      21.2229       2.4331       0.2295     896.3758       8.3661
   1322.8500      20.8217       2.4477       0.2353     942.0040       8.4258
   1323.0000      22.3603       2.4354       0.2364     855.1006       8.4279
   1323.1500      23.9711       2.4361       0.2378     940.0195       8.5077
   1323.3000      23.9916       2.4329       0.2518     974.1370       8.5277
   1323.4500      23.8674       2.4341       0.2569     891.0894       8.5841
