~VERSION -------------------------------------------
 VERS.                 2.0 : CWLS LOG ASCII STANDARD - VERSION 2.0
 WRAP.                  NO : ONE LINE PER DEPTH STEP
~WELL -----------------------------------------------
 WELL.                MUMBAI-1 : Well name
 UWI .                IN-MUM-001        : Unique Well ID
 LAT .                19.5431        : Latitude
 LON .                71.3241        : Longitude
 STRT.M               1200.00 : START DEPTH
 STOP.M               2799.90 : STOP DEPTH
 STEP.M               0.1500 : STEP
 NULL.                -9999 : NULL VALUE
~CURVE -----------------------------------------------
 DEPTH .M               : Depth
 GR    .GAPI            : Gamma Ray
 RHOB  .G/C3            : Bulk Density
 NPHI  .V/V             : Neutron Porosity
 RT    .OHMM            : Resistivity
 CALI  .IN              : Caliper
~A  DEPTH              GR        RHOB        NPHI          RT        CALI
# ...
   2157.9000      23.4956       2.4494       0.2365     671.4640       8.6698
   2158.0500      22.5550       2.4559       0.2374     745.6048       8.7349
   2158.2000      23.7791       2.4534       0.2409     795.7029       8.6789
   2158.3500      22.7910       2.4431       0.2399     824.8859       8.6100
   2158.5000      22.4757       2.4456       0.2430     869.8497       8.5390
   2158.6500      23.4348       2.4381       0.2388     927.9488       8.4784
   2158.8000      22.2510       2.4275       0.2305     879.3453       8.4273
   2158.9500      23.0849       2.4311       0.2228     821.1468       8.4767
   2159.1000      24.1455       2.4236       0.2228     972.0836       8.4608
   2159.2500      24.7883       2.4177       0.2311     926.6827       8.4344
   2159.4000      25.4402       2.4054       0.2316    1094.3712       8.5075
   2159.5500      25.2740       2.3981       0.2352    1140.5551       8.5212
   2159.7000      25.5384       2.3896       0.2329    1220.0287       8.5427
   2159.8500      25.5021       2.3694       0.2391    1107.6343       8.5695
   2160.0000      24.6033       2.3692       0.2358    1027.4600       8.6313
   2160.1500      24.6774       2.3887       0.2292    1111.1021       8.7145
   2160.3000      24.6774       2.3838       0.2261     925.5357       8.8752
   2160.4500      24.4168       2.3869       0.2315     998.4135       8.7707
   2160.6000      25.0636       2.3758       0.2274     887.9557       8.7905
   2160.7500      25.6544       2.3878       0.2332     930.6049       8.8185
   2160.9000      25.4894       2.3872       0.2403    1063.8763       8.8568
   2161.0500      25.7741       2.3816       0.2404     996.6401       8.8413
   2161.2000      25.9476       2.3851       0.2394    1163.5984       8.8578
   2161.3500      25.1766       2.4080       0.2326    1081.8911       8.8583
   2161.5000      26.5783       2.4012       0.2274    1160.7408       8.8311
   2161.6500      25.7925       2.4163       0.2272    1080.4873       8.7897
   2161.8000      25.9987       2.4347       0.2263    1010.9293       8.7325
   2161.9500      25.9087       2.4275       0.2324    1088.5279       8.7490
   2162.1000      26.7332       2.4377       0.2313     987.0223       8.7027
   2162.2500      25.3813       2.4330       0.2302     974.7026       8.6077
   2162.4000      25.6945       2.4465       0.2358    1049.7153       8.4735
   2162.5500      25.0387       2.4595       0.2382     960.3255       8.4647
   2162.7000      25.1927       2.4632       0.2394    1093.4910       8.4554
   2162.8500      24.6125       2.4815       0.2323    1084.8257       8.4952
   2163.0000      24.8520       2.4816       0.2288    1093.2993       8.4302
   2163.1500      23.9035       2.4812       0.2253     962.4499       8.4251
   2163.3000      23.9035       2.4719       0.2199    1015.7363       8.3495
   2163.4500      23.8471       2.4833       0.2176     854.9049       8.3996
   2163.6000      24.9092       2.4942       0.2211     974.2910       8.3813
   2163.7500      24.3622       2.4775       0.2168    1021.0641       8.3902
   2163.9000      24.4510       2.4710       0.2148     939.0994       8.4443
   2164.0500      24.5285       2.4618       0.2117     954.7865       8.4676
   2164.2000      23.5167       2.4646       0.2119     885.2213       8.4409
   2164.3500      24.4424       2.4550       0.2164     833.0147       8.3961
   2164.5000      24.5591       2.4479       0.2225     851.0080       8.4085
   2164.6500      25.2171       2.4338       0.2273     836.7044       8.3350
   2164.8000      25.5835       2.4189       0.2264     994.5992       8.4504
   2164.9500      25.1095       2.4333       0.2194     922.2899       8.4388
   2165.1000      24.0357       2.4290       0.2230     984.2265       8.4448
   2165.2500      24.4290       2.4324       0.2244    1065.3694       8.4733
   2165.4000      24.3802       2.4303       0.2305    1049.6135       8.4823
   2165.5500      24.1906       2.4179       0.2276    1119.3315       8.5155
   2165.7000      23.1712       2.4304       0.2239     917.2328       8.5806
   2165.8500      24.2732       2.4252       0.2241     879.8574       8.6598
   2166.0000      23.8188       2.4266       0.2217     985.0165       8.6929
   2166.1500      22.6557       2.4144       0.2223    1099.8031       8.7311
   2166.3000      22.9564       2.4301       0.2283    1057.6535       8.6482
   2166.4500      22.6596       2.4222       0.2323    1079.1815       8.6484
   2166.6000      21.4099       2.4336       0.2315    1114.0490       8.6208
   2166.7500      20.7201       2.4349       0.2326    1155.5756       8.6522
   2166.9000      20.2007       2.4340       0.2305    1200.3138       8.6501
   2167.0500      20.8781       2.4466       0.2341    1043.6846       8.6419
   2167.2000      22.5992       2.4394       0.2337    1131.9647       8.6129
   2167.3500      21.7582       2.4371       0.2368    1275.2156       8.5359
   2167.5000      20.5515       2.4419       0.2313    1143.3492       8.4912
   2167.6500      19.1800       2.4423       0.2268    1124.9604       8.5054
   2167.8000      19.4379       2.4427       0.2256    1044.7457       8.4485
   2167.9500      19.4443       2.4328       0.2351    1062.5467       8.4183
   2168.1000      19.7832       2.4346       0.2297    1119.3811       8.4447
   2168.2500      21.1762       2.4463       0.2208     992.1214       8.4345
   2168.4000      20.7525       2.4424       0.2121    1023.1124       8.4029
   2168.5500      20.7283       2.4464       0.2168    1055.4026       8.3001
   2168.7000      22.4015       2.4373       0.2202    1119.0377       8.2816
   2168.8500      21.2994       2.4246       0.2195    1297.0094       8.3506
   2169.0000      22.0606       2.4330       0.2265    1138.7251       8.3456
   2169.1500      22.7470       2.4426       0.2300    1086.8708       8.3881
   2169.3000      22.9949       2.4431       0.2306     959.0937       8.4386
   2169.4500      23.5546       2.4408       0.2211    1063.5988       8.5130
   2169.6000      24.5440       2.4271       0.2245     967.9020       8.5015
   2169.7500      25.5060       2.4366       0.2328     921.0170       8.4893
   2169.9000      25.7152       2.4434       0.2249     996.4466       8.5684
   2170.0500      25.1772       2.4428       0.2251    1217.5442       8.6492
   2170.2000      23.3733       2.4481       0.2216    1067.1239       8.6333
   2170.3500      23.2885       2.4540       0.2134     957.6107       8.5802
   2170.5000      23.3403       2.4674       0.2145    1002.5917       8.6622
   2170.6500      24.4274       2.4747       0.2190     928.4841       8.6139
   2170.8000      24.3718       2.4802       0.2176    1005.2013       8.6213
   2170.9500      24.7259       2.4770       0.2151    1054.9331       8.5080
   2171.1000      24.4700       2.4795       0.2171     916.1816       8.5053
   2171.2500      22.8812       2.4729       0.2268     870.2388       8.4850
   2171.4000      22.6154       2.4785       0.2250     809.3466       8.3864
   2171.5500      23.1004       2.4780       0.2217     874.8972       8.3720
   2171.7000      22.3039       2.4743       0.2177     887.2089       8.4795
   2171.8500      23.5963       2.4780       0.2150     859.1365       8.5204
   2172.0000      22.7220       2.4838       0.2183     978.5576       8.4986
   2172.1500      23.2040       2.4846       0.2209    1043.4467       8.4520
   2172.3000      23.4856       2.4807       0.2183    1243.8062       8.3906
   2172.4500      23.7596       2.4849       0.2273    1264.4251       8.3906
   2172.6000      23.6202       2.4815       0.2294    1151.3686       8.3730
   2172.7500      22.9381       2.4882       0.2255    1210.5087       8.3797
   2172.9000      23.1098       2.4887       0.2311    1072.7219       8.4279
   2173.0500      23.4142       2.4851       0.2339     977.6138       8.4137
   2173.2000      23.4085       2.4841       0.2453    1013.4803       8.3025
