~VERSION -------------------------------------------
 VERS.                 2.0 : CWLS LOG ASCII STANDARD - VERSION 2.0
 WRAP.                  NO : ONE LINE PER DEPTH STEP
~WELL -----------------------------------------------
 WELL.                MUMBAI-1 : Well name
 UWI .                IN-MUM-001        : Unique Well ID
 LAT .                19.5431        : Latitude
 LON .                71.3241        : Longitude
 STRT.M               1200.00 : START DEPTH
 STOP.M               2799.90 : STOP DEPTH
 STEP.M               0.1500 : STEP
 NULL.                -9999 : NULL VALUE
~CURVE -----------------------------------------------
 DEPTH .M               : Depth
 GR    .GAPI            : Gamma Ray
 RHOB  .G/C3            : Bulk Density
 NPHI  .V/V             : Neutron Porosity
 RT    .OHMM            : Resistivity
 CALI  .IN              : Caliper
~A  DEPTH              GR        RHOB        NPHI          RT        CALI
# ...
   1941.6000      25.9721       2.4547       0.2287     834.1998       8.5352
   1941.7500      25.1776       2.4499       0.2326     966.7271       8.5119
   1941.9000      24.0856       2.4449       0.2327     901.3637       8.4761
   1942.0500      23.3585       2.4440       0.2360     783.1036       8.5260
   1942.2000      23.7909       2.4571       0.2464     698.3223       8.5068
   1942.3500      23.2971       2.4648       0.2408     817.0008       8.4814
   1942.5000      23.3862       2.4672       0.2377     832.5720       8.4850
   1942.6500      21.8968       2.4682       0.2371     887.7582       8.5024
   1942.8000      21.8354       2.4726       0.2361     790.3435       8.4532
   1942.9500      22.8475       2.4787       0.2392     649.7998       8.4067
   1943.1000      22.4111       2.4825       0.2379     485.2414       8.4122
   1943.2500      21.1463       2.4853       0.2286     586.5333       8.4476
   1943.4000      20.9596       2.4887       0.2258     522.8379       8.4670
   1943.5500      21.1499       2.4863       0.2217     395.4312       8.4578
   1943.7000      21.4568       2.4777       0.2206     437.5468       8.4378
   1943.8500      21.6256       2.4707       0.2183     454.2430       8.4697
   1944.0000      21.6762       2.4788       0.2159     517.6907       8.4996
   1944.1500      22.4714       2.4820       0.2112     484.6213       8.5297
   1944.3000      23.1352       2.5071       0.2178     448.1627       8.5960
   1944.4500      23.7249       2.5093       0.2240     428.8884       8.6398
   1944.6000      23.0617       2.4983       0.2304     529.8049       8.5768
   1944.7500      23.5946       2.5020       0.2306     536.9986       8.5565
   1944.9000      24.0662       2.5068       0.2265     515.6517       8.5561
   1945.0500      23.7421       2.4917       0.2264     641.3262       8.4712
   1945.2000      23.3420       2.4831       0.2228     618.8690       8.5231
   1945.3500      24.6326       2.4893       0.2257     570.7894       8.5700
   1945.5000      23.1575       2.4958       0.2340     677.7029       8.5188
   1945.6500      24.0191       2.4859       0.2353     592.3100       8.4755
   1945.8000      23.3121       2.4861       0.2301     690.9767       8.4198
   1945.9500      23.3612       2.4713       0.2326     824.9457       8.4742
   1946.1000      23.3816       2.4782       0.2325    1171.8166       8.4565
   1946.2500      24.4122       2.4624       0.2355    1072.0543       8.4420
   1946.4000      24.0178       2.4662       0.2423    1345.9340       8.3934
   1946.5500      23.7310       2.4433       0.2568    1964.5401       8.3934
   1946.7000      23.8753       2.4609       0.2555    1895.1720       8.3921
   1946.8500      23.9051       2.4617       0.2543    1654.1178       8.4551
   1947.0000      23.9103       2.4546       0.2527    1520.5562       8.5638
   1947.1500      21.8938       2.4563       0.2639    1541.3992       8.6276
   1947.3000      20.1704       2.4406       0.2579    1673.3582       8.6131
   1947.4500      19.6753       2.4443       0.2500    1724.9194       8.5314
   1947.6000      20.5756       2.4376       0.2526    1642.7921       8.5701
   1947.7500      21.1011       2.4321       0.2491    1633.0350       8.5844
   1947.9000      21.9337       2.4387       0.2579    1713.4735       8.5844
   1948.0500      22.0383       2.4512       0.2576    1502.8530       8.6402
   1948.2000      23.2835       2.4479       0.2556    1481.4021       8.6506
   1948.3500      23.1979       2.4350       0.2560    1507.5265       8.6047
   1948.5000      23.1979       2.4340       0.2435    1344.9300       8.5442
   1948.6500      21.3864       2.4438       0.2490    1418.4774       8.5227
   1948.8000      21.7948       2.4491       0.2563    1420.7906       8.5548
   1948.9500      21.6133       2.4644       0.2457    1572.9002       8.6196
   1949.1000      21.2724       2.4536       0.2413    1305.4614       8.6183
   1949.2500      21.0116       2.4666       0.2426    1021.8244       8.6221
   1949.4000      21.6867       2.4570       0.2424     718.0073       8.6544
   1949.5500      23.1343       2.4663       0.2384     525.7861       8.6032
   1949.7000      23.7081       2.4582       0.2369     575.0336       8.6824
   1949.8500      23.7828       2.4433       0.2412     575.3942       8.6264
   1950.0000      23.2883       2.4415       0.2431     475.9152       8.6304
   1950.1500      24.5069       2.4585       0.2364     450.0167       8.6260
   1950.3000      25.4862       2.4809       0.2388     341.6664       8.5433
   1950.4500      25.3558       2.4933       0.2377     248.6947       8.5419
   1950.6000      24.6760       2.5056       0.2351     237.1818       8.5740
   1950.7500      23.9764       2.5186       0.2349     177.2350       8.5743
   1950.9000      22.4918       2.5030       0.2305     141.6539       8.5982
   1951.0500      22.2716       2.4995       0.2282     125.5656       8.6699
   1951.2000      22.7506       2.4977       0.2307     118.5267       8.5564
   1951.3500      21.7924       2.5082       0.2296      84.9779       8.5791
   1951.5000      22.3075       2.4925       0.2329      73.0140       8.5296
   1951.6500      22.1301       2.5038       0.2250      67.4709       8.4897
   1951.8000      22.1665       2.5120       0.2236      49.8119       8.5318
   1951.9500      22.3169       2.4980       0.2254      52.4491       8.5024
   1952.1000      24.5366       2.5089       0.2216      53.9953       8.4188
   1952.2500      25.2183       2.5088       0.2198      75.5812       8.3970
   1952.4000      25.4221       2.5168       0.2217     108.4683       8.3548
   1952.5500      24.4114       2.5209       0.2236     139.1725       8.3376
   1952.7000      23.4495       2.5287       0.2178     120.9377       8.3664
   1952.8500      23.2857       2.5537       0.2076     123.4215       8.3455
   1953.0000      23.1985       2.5457       0.2056     122.0685       8.3428
   1953.1500      23.1853       2.5132       0.2056     127.1804       8.4395
   1953.3000      23.7570       2.4940       0.2044     153.7132       8.4598
   1953.4500      25.1047       2.4738       0.2125     179.7968       8.4654
   1953.6000      23.9569       2.4643       0.2129     179.8061       8.5562
   1953.7500      23.2929       2.4553       0.2108     204.1256       8.5429
   1953.9000      25.0142       2.4557       0.2104     284.4824       8.5460
   1954.0500      24.9732       2.4535       0.2080     344.5087       8.5284
   1954.2000      25.4865       2.4560       0.2112     430.2706       8.5642
   1954.3500      24.9641       2.4592       0.2167     585.2958       8.5430
   1954.5000      24.9716       2.4503       0.2165     638.9868       8.6319
   1954.6500      25.6125       2.4366       0.2218     710.5372       8.5253
   1954.8000      24.8672       2.4405       0.2244     839.0876       8.5193
   1954.9500      25.4220       2.4501       0.2347     773.8862       8.5230
   1955.1000      23.6370       2.4342       0.2396     822.3944       8.4121
   1955.2500      23.2681       2.4229       0.2401     688.4994       8.4354
   1955.4000      23.7195       2.4145       0.2456     595.0616       8.4274
   1955.5500      24.5217       2.4126       0.2374     583.5122       8.4471
   1955.7000      24.8033       2.4014       0.2433     671.4929       8.4548
   1955.8500      25.7110       2.3981       0.2531     720.8123       8.4408
   1956.0000      25.6184       2.4146       0.2585     851.4421       8.3933
   1956.1500      25.8925       2.4286       0.2647     752.4720       8.4893
   1956.3000      24.3415       2.4320       0.2663     701.0613       8.5172
   1956.4500      23.0609       2.4365       0.2594     773.8009       8.5412
   1956.6000      24.3903       2.4559       0.2633     753.8532       8.5795
   1956.7500      24.9630       2.4629       0.2665     620.9275       8.5409
   1956.9000      24.5958       2.4694       0.2628     449.6389       8.5709
