~VERSION -------------------------------------------
 VERS.                 2.0 : CWLS LOG ASCII STANDARD - VERSION 2.0
 WRAP.                  NO : ONE LINE PER DEPTH STEP
~WELL -----------------------------------------------
 WELL.                MUMBAI-1 : Well name
 UWI .                IN-MUM-001        : Unique Well ID
 LAT .                19.5431        : Latitude
 LON .                71.3241        : Longitude
 STRT.M               1200.00 : START DEPTH
 STOP.M               2799.90 : STOP DEPTH
 STEP.M               0.1500 : STEP
 NULL.                -9999 : NULL VALUE
~CURVE -----------------------------------------------
 DEPTH .M               : Depth
 GR    .GAPI            : Gamma Ray
 RHOB  .G/C3            : Bulk Density
 NPHI  .V/V             : Neutron Porosity
 RT    .OHMM            : Resistivity
 CALI  .IN              : Caliper
~A  DEPTH              GR        RHOB        NPHI          RT        CALI
# ...
   1617.1500      23.8232       2.4442       0.1982     936.0442       8.6475
   1617.3000      25.3321       2.4448       0.2003     895.2316       8.6700
   1617.4500      25.3374       2.4250       0.1958     854.1297       8.6368
   1617.6000      24.4784       2.4232       0.2026     858.1654       8.5672
   1617.7500      24.7836       2.4103       0.2097     827.2440       8.4999
   1617.9000      24.5666       2.4082       0.2201     807.6879       8.4663
   1618.0500      23.8010       2.4129       0.2166     726.7966       8.4083
   1618.2000      22.1930       2.4119       0.2204     786.4993       8.4652
   1618.3500      24.0318       2.3927       0.2229     772.0976       8.3748
   1618.5000      24.4151       2.3918       0.2299     731.8353       8.4259
   1618.6500      24.4119       2.3810       0.2344     888.2613       8.3888
   1618.8000      26.3836       2.4006       0.2310     918.0722       8.3112
   1618.9500      26.8733       2.4085       0.2391     879.6622       8.3261
   1619.1000      27.4900       2.3975       0.2412     803.4828       8.4310
   1619.2500      28.2582       2.3945       0.2495     809.0464       8.5205
   1619.4000      26.7854       2.3812       0.2518     799.0308       8.5824
   1619.5500      27.2602       2.3812       0.2592     791.2175       8.6650
   1619.7000      26.9767       2.3810       0.2695     683.8044       8.7069
   1619.8500      25.7795       2.3789       0.2662     652.4176       8.7210
   1620.0000      25.2905       2.3814       0.2671     612.0594       8.6737
   1620.1500      25.8386       2.3703       0.2619     567.1118       8.6737
   1620.3000      24.8809       2.3649       0.2627     666.3061       8.6576
   1620.4500      24.6460       2.3833       0.2635     691.6633       8.6470
   1620.6000      24.4972       2.3891       0.2577     760.9652       8.5605
   1620.7500      23.3497       2.3958       0.2488     727.0082       8.5400
   1620.9000      23.1720       2.3952       0.2480     832.0637       8.5507
   1621.0500      23.6086       2.3796       0.2520     939.5016       8.5449
   1621.2000      25.3433       2.3857       0.2521     911.6071       8.4717
   1621.3500      23.9001       2.3833       0.2494     870.9545       8.4692
   1621.5000      24.5700       2.3878       0.2470     978.8905       8.4747
   1621.6500      24.6471       2.4014       0.2453     918.1100       8.4791
   1621.8000      22.8683       2.3972       0.2506     827.0573       8.5574
   1621.9500      22.9378       2.3797       0.2454     749.7653       8.5588
   1622.1000      23.7988       2.3848       0.2481     739.7434       8.5441
   1622.2500      23.2623       2.3931       0.2469     815.3653       8.5164
   1622.4000      24.0501       2.4147       0.2524     814.2847       8.5002
   1622.5500      23.4662       2.4326       0.2458     671.8433       8.5290
   1622.7000      22.9975       2.4378       0.2386     803.8415       8.5034
   1622.8500      22.9002       2.4467       0.2333     879.2767       8.4787
   1623.0000      23.0228       2.4495       0.2337     884.1045       8.4933
   1623.1500      23.0518       2.4550       0.2411     960.3996       8.5230
   1623.3000      23.5125       2.4729       0.2407    1002.3582       8.4907
   1623.4500      24.6318       2.4652       0.2430    1095.9510       8.5089
   1623.6000      25.5306       2.4589       0.2452    1083.4883       8.5390
   1623.7500      26.8009       2.4513       0.2509    1226.8155       8.5471
   1623.9000      26.4615       2.4513       0.2482    1202.5384       8.5663
   1624.0500      26.8863       2.4477       0.2503    1183.4261       8.4809
   1624.2000      25.2586       2.4531       0.2471    1274.2445       8.5359
   1624.3500      24.8234       2.4735       0.2496    1275.4366       8.6286
   1624.5000      24.2890       2.4642       0.2517    1426.6972       8.6413
   1624.6500      24.2895       2.4586       0.2544    1408.7075       8.6646
   1624.8000      25.1175       2.4506       0.2609    1519.7297       8.6186
   1624.9500      24.2688       2.4619       0.2736    1688.8680       8.5363
   1625.1000      23.0702       2.4589       0.2758    1604.8125       8.5077
   1625.2500      23.7035       2.4646       0.2715    1607.5913       8.5791
   1625.4000      22.6100       2.4511       0.2667    1743.0484       8.5361
   1625.5500      22.0084       2.4454       0.2738    2145.8984       8.5159
   1625.7000      21.6257       2.4343       0.2754    2012.3442       8.5074
   1625.8500      21.9024       2.4340       0.2785    1754.4032       8.3995
   1626.0000      23.1921       2.4423       0.2700    1686.7406       8.3940
   1626.1500      22.5714       2.4440       0.2671    1688.4275       8.3830
   1626.3000      23.0454       2.4411       0.2686    1565.2007       8.4017
   1626.4500      21.9199       2.4391       0.2615    1488.0503       8.3986
   1626.6000      21.1345       2.4337       0.2648    1595.1521       8.5164
   1626.7500      21.5306       2.4430       0.2690    1649.7553       8.4425
   1626.9000      21.8483       2.4498       0.2733    1540.3050       8.4407
   1627.0500      20.1123       2.4709       0.2732    1391.3109       8.4626
   1627.2000      20.5774       2.4658       0.2751    1446.0111       8.4501
   1627.3500      21.9148       2.4603       0.2660    1416.4834       8.5714
   1627.5000      22.5934       2.4645       0.2588    1230.2823       8.4908
   1627.6500      23.5648       2.4710       0.2571    1336.0278       8.5802
   1627.8000      23.7127       2.4699       0.2476    1525.7360       8.5996
   1627.9500      23.1030       2.4733       0.2418    1471.6355       8.6708
   1628.1000      22.2628       2.4839       0.2399    1409.7032       8.5795
   1628.2500      21.7608       2.4737       0.2418    1178.2015       8.5625
   1628.4000      23.7424       2.4768       0.2411    1078.7725       8.5999
   1628.5500      24.4784       2.4829       0.2433     887.9361       8.6259
   1628.7000      26.4132       2.4910       0.2475     967.0599       8.6666
   1628.8500      26.2557       2.4826       0.2483    1069.6283       8.6207
   1629.0000      25.3349       2.4834       0.2491    1215.9190       8.6515
   1629.1500      24.7461       2.4801       0.2455    1197.9954       8.5158
   1629.3000      24.3045       2.4867       0.2440     926.4189       8.5579
   1629.4500      24.6300       2.4881       0.2544     903.0242       8.5165
   1629.6000      24.7882       2.4963       0.2531     888.2052       8.5334
   1629.7500      23.7373       2.4921       0.2459     787.1570       8.5547
   1629.9000      23.5073       2.4846       0.2491     860.1109       8.5097
   1630.0500      24.8687       2.4737       0.2416     919.8247       8.5513
   1630.2000      25.9127       2.4741       0.2438     926.6280       8.4821
   1630.3500      25.5621       2.4746       0.2561     927.0446       8.4806
   1630.5000      25.5969       2.4709       0.2639    1042.1714       8.5471
   1630.6500      23.5762       2.4693       0.2581     899.0479       8.5756
   1630.8000      23.5692       2.4754       0.2633     899.0479       8.5159
   1630.9500      24.4626       2.4806       0.2634     968.6717       8.5514
   1631.1000      25.3078       2.4774       0.2611    1083.0405       8.5513
   1631.2500      24.9458       2.4711       0.2558    1068.3711       8.4785
   1631.4000      23.3997       2.4649       0.2523    1224.4182       8.4798
   1631.5500      23.1521       2.4506       0.2494    1437.2562       8.4047
   1631.7000      22.2805       2.4526       0.2484    1291.1327       8.4423
   1631.8500      22.8036       2.4585       0.2498    1394.1371       8.4557
   1632.0000      23.2439       2.4617       0.2538    1211.1606       8.4642
   1632.1500      23.3078       2.4548       0.2568    1120.7456       8.4825
   1632.3000      22.4233       2.4499       0.2603    1336.1612       8.4772
   1632.4500      22.2456       2.4535       0.2603    1200.3480       8.4579
