~VERSION INFORMATION
 VERS.                 2.0    : CWLS LOG ASCII STANDARD
 WRAP.                 NO     : ONE LINE PER DEPTH STEP
~WELL INFORMATION
 WELL.                 15/9-19A    : Well name
 FLD .                 Statfjord         : Field
 CTRY.                 Norway       : Country
 STRT.M                2100.0000 : START DEPTH
 STOP.M                3400.0000   : STOP DEPTH
 STEP.M                0.1524        : STEP
 NULL.                 -999.25          : NULL VALUE
 SRVC.                 SubsurfAI        : Service company
~CURVE INFORMATION
 DEPT.M                              : Depth
 GR  .GAPI                           : Gamma Ray
 RHOB.G/C3                           : Bulk Density
 NPHI.V/V                            : Neutron Porosity
 RT  .OHMM                           : True Resistivity
 DT  .US/F                           : Sonic
 CALI.IN                             : Caliper
~PARAMETER INFORMATION
 LAT .                 58.4385   : Latitude
 LON .                 1.8356   : Longitude
 DESC.                 Statfjord Fm — Brent Group sandstone, oil producer
~A  DEPT        GR        RHOB      NPHI      RT        DT        CALI
# ...
 3374.3688   113.869    2.5559    0.2888     3.484   193.643     8.769
 3374.5212   120.104    2.5074    0.3442     1.501   157.171     8.872
 3374.6736   117.878    2.4346    0.3097     2.232   171.721     8.359
 3374.8260    87.425    2.5693    0.3561     1.198   149.996     8.752
 3374.9784    93.934    2.5373    0.3179     4.576   175.894     8.007
 3375.1308    84.438    2.4493    0.3702     5.112   141.438     8.836
 3375.2832   105.520    2.4776    0.2625     2.809   200.000     8.276
 3375.4356    88.160    2.5056    0.3519     2.803   157.858     8.672
 3375.5880   116.655    2.4987    0.3215     2.247   161.998     7.977
 3375.7404   135.394    2.4784    0.2562     3.602   200.000     9.178
 3375.8928   108.085    2.5038    0.3047     1.727   175.291     8.043
 3376.0452    96.458    2.4859    0.3375     1.270   156.624     8.569
 3376.1976    95.542    2.5242    0.4177     2.564   139.405     9.416
 3376.3500    95.958    2.4765    0.2492     1.170   200.000     9.055
 3376.5024    97.000    2.5845    0.2575     4.680   200.000     9.021
 3376.6548   116.891    2.5300    0.3816     0.706   149.001     7.821
 3376.8072   115.684    2.5060    0.3172     2.972   177.978     8.367
 3376.9596   127.517    2.5406    0.2836     1.723   193.618     8.181
 3377.1120   127.655    2.5095    0.3795     1.455   147.090     8.484
 3377.2644   107.361    2.4692    0.3036     1.094   177.457     8.266
 3377.4168   107.843    2.4866    0.3570     5.563   145.290     8.556
 3377.5692    99.859    2.5132    0.3878     3.887   144.579     8.998
 3377.7216    83.576    2.5131    0.2777     0.707   200.000     8.058
 3377.8740   104.618    2.4878    0.3803     0.737   143.236     8.555
 3378.0264   143.137    2.4966    0.4344     3.716   136.058     8.605
 3378.1788   116.923    2.4902    0.3157     1.049   174.849     8.325
 3378.3312   124.311    2.5209    0.3131     1.277   176.183     8.534
 3378.4836   107.305    2.4710    0.2918     1.805   188.483     8.009
 3378.6360   120.886    2.5701    0.2795     4.730   200.000     8.489
 3378.7884   118.800    2.5017    0.3465     0.966   157.420     8.959
 3378.9408   116.401    2.5424    0.3915     2.925   146.864     8.124
 3379.0932   105.453    2.5337    0.4112     2.661   136.047     8.303
 3379.2456    85.028    2.5720    0.3593     2.650   152.593     8.467
 3379.3980   107.390    2.5823    0.2087     1.296   200.000     8.851
 3379.5504   108.531    2.5217    0.2408     3.787   200.000     8.168
 3379.7028    63.095    2.4692    0.2290     1.080   200.000     7.764
 3379.8552   153.490    2.5152    0.3343     1.579   166.955     8.727
 3380.0076    96.119    2.4378    0.2721     1.806   198.369     8.621
 3380.1600   131.750    2.4377    0.3158     3.048   175.868     8.682
 3380.3124   106.502    2.3967    0.3507     0.655   158.294     8.381
 3380.4648   106.941    2.4952    0.3058     3.716   176.334     8.457
 3380.6172   121.934    2.5232    0.3390     1.534   153.798     8.464
 3380.7696   115.884    2.4545    0.3038     1.319   183.744     9.059
 3380.9220   122.995    2.5352    0.3731     1.692   151.010     8.059
 3381.0744   108.604    2.4987    0.2813     0.982   193.529     8.437
 3381.2268   133.834    2.4871    0.2950     3.803   179.296     8.624
 3381.3792   121.706    2.4810    0.2738     3.193   200.000     9.030
 3381.5316    81.243    2.5017    0.3394     0.891   163.140     7.990
 3381.6840   116.174    2.5545    0.3847     2.404   143.185     8.545
 3381.8364   105.888    2.4486    0.2648     4.783   200.000     8.562
 3381.9888    97.090    2.4538    0.2804     2.038   200.000     8.859
 3382.1412   126.828    2.5078    0.2552     2.026   200.000     7.752
 3382.2936    75.192    2.5290    0.3783     0.790   145.417     9.083
 3382.4460   107.326    2.5563    0.3694     1.988   140.698     8.654
 3382.5984    97.290    2.6011    0.3121     1.618   179.744     8.629
 3382.7508   105.475    2.4692    0.3288     0.972   163.602     8.748
 3382.9032   130.772    2.4408    0.2784     4.093   199.581     8.485
 3383.0556    94.841    2.5105    0.3465     0.960   157.584     8.626
 3383.2080   114.481    2.4967    0.3426     2.099   164.024     8.663
 3383.3604   106.600    2.4332    0.3620     0.873   156.433     8.839
 3383.5128   131.394    2.4511    0.4034     2.141   136.960     8.312
 3383.6652    90.362    2.4800    0.2868     1.726   185.569     8.911
 3383.8176   107.230    2.5503    0.3027     1.354   173.402     8.217
 3383.9700   116.897    2.5121    0.3473     1.649   165.598     8.660
 3384.1224   108.959    2.5059    0.3765     0.834   147.114     8.230
 3384.2748   114.893    2.6168    0.4107     3.548   142.142     8.439
 3384.4272   115.856    2.4984    0.3716     0.712   148.307     8.638
 3384.5796   134.430    2.4348    0.3347     0.696   171.311     8.651
 3384.7320   119.338    2.4351    0.3269     1.000   173.319     9.058
 3384.8844   119.221    2.6176    0.3443     1.462   161.670     8.740
 3385.0368   106.123    2.4847    0.3900     1.280   135.354     8.343
 3385.1892   118.577    2.4715    0.3043     1.052   183.309     8.598
 3385.3416   111.568    2.5209    0.3466     2.335   161.361     8.590
 3385.4940   116.051    2.5109    0.2900     2.453   195.173     8.874
 3385.6464   123.442    2.5123    0.2623     1.155   200.000     8.246
 3385.7988    90.612    2.4966    0.2770     1.152   199.884     8.203
 3385.9512   126.063    2.5292    0.4325     1.975   134.581     8.233
 3386.1036   117.399    2.5251    0.3484     3.022   157.888     7.672
 3386.2560   116.577    2.5376    0.4426     2.560   135.157     7.820
 3386.4084   117.852    2.4500    0.3037     1.450   181.900     8.271
 3386.5608    95.986    2.5401    0.2480     1.213   200.000     8.609
 3386.7132   124.447    2.4612    0.3516     1.112   159.281     8.765
 3386.8656    94.530    2.5097    0.3702     2.741   146.513     8.612
 3387.0180   136.418    2.5672    0.2637     3.053   200.000     9.058
 3387.1704   111.562    2.4597    0.3835     2.691   143.239     8.720
 3387.3228   110.609    2.5103    0.2741     2.224   198.836     8.444
 3387.4752   122.369    2.4625    0.2954     0.964   186.370     8.943
 3387.6276   122.878    2.5481    0.2658     2.150   200.000     8.642
 3387.7800   111.412    2.5078    0.3897     0.597   135.635     7.934
 3387.9324   133.054    2.4032    0.3531     1.743   151.131     8.655
 3388.0848   105.515    2.4525    0.3459     0.930   162.788     8.971
 3388.2372   100.903    2.5353    0.3453     0.679   161.925     8.541
 3388.3896   104.200    2.5387    0.3216     0.895   176.923     8.126
 3388.5420   115.651    2.5647    0.3078     5.103   176.425     8.024
 3388.6944   114.469    2.5979    0.3142     1.487   166.221     8.709
 3388.8468    92.645    2.5198    0.2521     2.316   200.000     8.307
 3388.9992   106.492    2.5693    0.2709     2.130   200.000     7.814
 3389.1516   126.623    2.5272    0.3392     2.496   167.687     8.489
 3389.3040   103.534    2.4998    0.3042     0.909   180.760     8.245
 3389.4564   127.182    2.4657    0.4837     0.510   142.965     9.246
 3389.6088   104.559    2.5341    0.3292     2.246   164.233     9.219
 3389.7612    94.816    2.5637    0.3223     0.817   168.925     8.669
 3389.9136   120.613    2.4897    0.3374     0.990   165.828     8.478
 3390.0660   115.091    2.4699    0.3872     1.173   137.819     7.763
 3390.2184   135.671    2.5611    0.3433     1.422   158.236     8.505
 3390.3708   116.503    2.5224    0.3933     1.669   149.126     9.138
 3390.5232   117.929    2.5059    0.3614     4.885   149.241     8.609
 3390.6756   114.456    2.4399    0.3832     2.764   148.150     9.127
 3390.8280    94.348    2.4817    0.3376     3.383   160.942     8.945
 3390.9804    96.042    2.5183    0.4018     2.393   129.630     7.852
 3391.1328    93.849    2.4487    0.3203     3.517   172.403     7.798
 3391.2852    82.606    2.5806    0.2489     1.601   200.000     8.010
 3391.4376   115.906    2.5440    0.3376     1.701   169.282     8.445
