~VERSION INFORMATION
 VERS.                 2.0    : CWLS LOG ASCII STANDARD
 WRAP.                 NO     : ONE LINE PER DEPTH STEP
~WELL INFORMATION
 WELL.                 15/9-19A    : Well name
 FLD .                 Statfjord         : Field
 CTRY.                 Norway       : Country
 STRT.M                2100.0000 : START DEPTH
 STOP.M                3400.0000   : STOP DEPTH
 STEP.M                0.1524        : STEP
 NULL.                 -999.25          : NULL VALUE
 SRVC.                 SubsurfAI        : Service company
~CURVE INFORMATION
 DEPT.M                              : Depth
 GR  .GAPI                           : Gamma Ray
 RHOB.G/C3                           : Bulk Density
 NPHI.V/V                            : Neutron Porosity
 RT  .OHMM                           : True Resistivity
 DT  .US/F                           : Sonic
 CALI.IN                             : Caliper
~PARAMETER INFORMATION
 LAT .                 58.4385   : Latitude
 LON .                 1.8356   : Longitude
 DESC.                 Statfjord Fm — Brent Group sandstone, oil producer
~A  DEPT        GR        RHOB      NPHI      RT        DT        CALI
# ...
 2771.6268    95.131    2.4672    0.2893     2.651   198.518     7.649
 2771.7792    97.457    2.5046    0.2655     1.496   200.000     8.560
 2771.9316   101.319    2.4295    0.3377     1.499   164.394     8.023
 2772.0840    94.798    2.5160    0.3102     3.568   181.180     8.814
 2772.2364    91.308    2.4875    0.2561     3.945   200.000     8.337
 2772.3888   120.639    2.4591    0.3095     1.477   175.065     8.099
 2772.5412    90.351    2.4731    0.2821     5.486   190.912     7.952
 2772.6936    87.369    2.5546    0.3313     1.103   174.934     8.095
 2772.8460    95.759    2.5385    0.2232     2.816   200.000     8.804
 2772.9984   117.164    2.5323    0.3092     2.242   178.910     8.963
 2773.1508   101.086    2.4559    0.2906     2.163   196.813     8.815
 2773.3032   109.745    2.4467    0.2734     4.038   200.000     8.674
 2773.4556    99.856    2.5288    0.2718     1.133   199.094     8.455
 2773.6080    90.108    2.4526    0.3735     2.168   143.575     8.404
 2773.7604    93.212    2.4650    0.2391     2.330   200.000     8.362
 2773.9128   101.999    2.5210    0.3774     1.061   147.539     8.145
 2774.0652    99.202    2.4361    0.2545     1.981   200.000     8.018
 2774.2176   103.071    2.5650    0.3157     2.491   176.614     8.307
 2774.3700   103.298    2.4697    0.2670     2.763   200.000     7.826
 2774.5224    89.795    2.4476    0.2885     3.316   200.000     8.994
 2774.6748    96.364    2.6068    0.2638     2.964   200.000     7.833
 2774.8272   106.075    2.4597    0.2622     2.232   200.000     8.998
 2774.9796    91.560    2.4666    0.2407     2.239   200.000     8.321
 2775.1320   110.212    2.3999    0.2765     3.622   200.000     8.337
 2775.2844    97.911    2.4247    0.3285     2.425   178.845     8.311
 2775.4368    90.484    2.4251    0.3382     2.646   172.173     8.981
 2775.5892    99.503    2.4892    0.3476     1.609   147.926     8.801
 2775.7416    92.390    2.5447    0.3227     1.230   164.509     9.138
 2775.8940    81.687    2.4327    0.2777     0.945   193.716     8.260
 2776.0464   102.387    2.5274    0.2522     1.669   200.000     9.408
 2776.1988   106.253    2.4668    0.2941     2.026   188.943     8.390
 2776.3512   104.255    2.3655    0.3310     1.696   174.084     8.552
 2776.5036    77.966    2.3927    0.3405     1.576   160.615     8.970
 2776.6560    97.216    2.5253    0.2831     5.087   191.303     8.040
 2776.8084   104.492    2.3853    0.2373     4.523   200.000     8.437
 2776.9608    78.484    2.4292    0.3511     0.846   149.407     8.063
 2777.1132   109.471    2.4681    0.3380     2.841   173.038     8.455
 2777.2656   105.047    2.4905    0.3800     2.640   136.199     8.449
 2777.4180   100.920    2.4031    0.3156     4.638   171.083     7.542
 2777.5704   114.010    2.4006    0.2816     2.405   200.000     8.732
 2777.7228    97.060    2.4686    0.2880     1.726   199.439     8.234
 2777.8752    82.439    2.4849    0.3413     2.636   154.938     8.081
 2778.0276   118.929    2.4657    0.2796     4.041   193.509     8.848
 2778.1800   102.273    2.3959    0.2711     2.062   200.000     9.192
 2778.3324   103.301    2.5035    0.4054     2.351   141.549     8.889
 2778.4848    97.801    2.4648    0.2815     2.952   200.000     8.053
 2778.6372   118.192    2.5209    0.3537     1.807   161.917     8.893
 2778.7896    99.593    2.4174    0.2722     1.541   200.000     7.970
 2778.9420   102.609    2.4291    0.3155     1.543   168.331     8.825
 2779.0944   107.751    2.5043    0.3111     5.423   176.938     9.105
 2779.2468   112.444    2.5374    0.3500     3.135   160.296     7.667
 2779.3992   110.694    2.4208    0.3411     2.132   165.124     8.742
 2779.5516   117.907    2.5424    0.2228     3.661   200.000     8.148
 2779.7040   127.071    2.4894    0.2283     3.654   200.000     8.274
 2779.8564    89.493    2.4322    0.3295     3.316   165.969     8.114
 2780.0088   100.003    2.4731    0.2689     5.435   200.000     8.283
 2780.1612   103.961    2.4061    0.3012     1.934   177.503     9.171
 2780.3136   103.687    2.4358    0.3259     0.806   165.281     8.044
 2780.4660    93.264    2.4528    0.2724     3.253   193.713     8.820
 2780.6184   115.437    2.4987    0.2669     1.674   200.000     8.841
 2780.7708   100.767    2.4566    0.3235     2.102   173.532     8.861
 2780.9232   125.248    2.4283    0.2755     2.498   192.503     8.609
 2781.0756   106.458    2.4352    0.2414     1.403   200.000     8.493
 2781.2280   106.473    2.4231    0.3497     1.259   156.260     8.003
 2781.3804    98.585    2.3449    0.2741     4.962   191.780     8.180
 2781.5328    92.126    2.5342    0.2999     2.610   177.659     8.233
 2781.6852    86.691    2.4467    0.3047     2.213   187.024     8.185
 2781.8376    82.398    2.3802    0.2785     2.649   200.000     8.455
 2781.9900    85.930    2.4049    0.3108     2.450   176.202     8.632
 2782.1424    95.665    2.4603    0.3976     2.422   149.629     8.591
 2782.2948   119.371    2.4287    0.3150     1.420   171.465     8.117
 2782.4472    88.714    2.5173    0.3695     2.201   140.683     8.884
 2782.5996    97.410    2.4876    0.2026     2.093   200.000     8.926
 2782.7520    93.497    2.4415    0.3161     5.231   166.800     9.451
 2782.9044   112.554    2.4443    0.2948     2.040   179.802     8.284
 2783.0568    86.918    2.3803    0.3050     3.215   187.236     8.567
 2783.2092   114.132    2.3855    0.3111     3.565   173.745    10.069
 2783.3616   102.559    2.3470    0.2250     1.078   200.000     8.486
 2783.5140    76.335    2.4190    0.2813     1.940   200.000     9.060
 2783.6664   103.832    2.5249    0.3358     1.261   172.444     9.172
 2783.8188    85.360    2.4852    0.2988     4.692   188.387     8.003
 2783.9712    85.722    2.4650    0.2618     0.697   197.460     8.212
 2784.1236    93.650    2.5211    0.3011     4.467   183.814     8.278
 2784.2760   116.686    2.4455    0.3306     2.838   156.618     8.872
 2784.4284    85.162    2.4316    0.3207     2.577   164.814     8.421
 2784.5808    94.687    2.3986    0.2473     3.156   200.000     8.289
 2784.7332    95.667    2.4401    0.2644     1.229   200.000     7.834
 2784.8856   102.411    2.4831    0.2807     1.352   200.000     8.805
 2785.0380    77.512    2.4827    0.2780     4.129   200.000     7.993
 2785.1904    92.192    2.4670    0.3245     4.721   156.794     8.375
 2785.3428   106.127    2.5054    0.3293     0.705   179.710     8.133
 2785.4952    92.395    2.5064    0.2404     4.038   200.000     7.949
 2785.6476    95.556    2.4132    0.3116     1.995   179.621     7.525
 2785.8000   102.122    2.4526    0.2841     1.986   192.347     8.002
 2785.9524    98.386    2.4441    0.3561     1.189   151.048     8.779
 2786.1048    91.809    2.4229    0.3136     3.755   175.016     9.135
 2786.2572   128.981    2.4665    0.3015     3.470   177.221     8.217
 2786.4096    93.641    2.4797    0.2518     1.486   200.000     8.796
 2786.5620   109.182    2.4284    0.3043     1.524   185.562     8.628
 2786.7144    77.158    2.5404    0.2975     1.522   188.713     8.572
 2786.8668    92.699    2.4807    0.3682     2.063   143.415     8.965
 2787.0192    71.305    2.4470    0.3365     3.109   164.868     8.706
 2787.1716    75.671    2.5397    0.3251     3.997   166.462     8.187
 2787.3240    95.683    2.5538    0.3249     1.328   169.043     9.294
 2787.4764   107.105    2.4530    0.3263     2.068   177.874     8.238
 2787.6288    94.264    2.4619    0.2337     2.837   200.000     8.601
 2787.7812    90.592    2.5031    0.3421     2.224   161.009     8.660
 2787.9336    84.905    2.4863    0.2842     1.817   194.834     9.209
 2788.0860   118.833    2.4438    0.3187     3.082   168.466     8.131
 2788.2384   104.275    2.4010    0.3367     2.553   161.482     8.160
 2788.3908    94.803    2.4173    0.2253     3.671   200.000     7.922
 2788.5432   108.526    2.5375    0.2260     0.870   200.000     8.339
 2788.6956    97.470    2.4834    0.3160     2.814   179.505     8.356
