~VERSION INFORMATION
 VERS.                 2.0    : CWLS LOG ASCII STANDARD
 WRAP.                 NO     : ONE LINE PER DEPTH STEP
~WELL INFORMATION
 WELL.                 15/9-19A    : Well name
 FLD .                 Statfjord         : Field
 CTRY.                 Norway       : Country
 STRT.M                2100.0000 : START DEPTH
 STOP.M                3400.0000   : STOP DEPTH
 STEP.M                0.1524        : STEP
 NULL.                 -999.25          : NULL VALUE
 SRVC.                 SubsurfAI        : Service company
~CURVE INFORMATION
 DEPT.M                              : Depth
 GR  .GAPI                           : Gamma Ray
 RHOB.G/C3                           : Bulk Density
 NPHI.V/V                            : Neutron Porosity
 RT  .OHMM                           : True Resistivity
 DT  .US/F                           : Sonic
 CALI.IN                             : Caliper
~PARAMETER INFORMATION
 LAT .                 58.4385   : Latitude
 LON .                 1.8356   : Longitude
 DESC.                 Statfjord Fm — Brent Group sandstone, oil producer
~A  DEPT        GR        RHOB      NPHI      RT        DT        CALI
# ...
 2702.7420    80.313    2.4780    0.2654     4.846   200.000     8.765
 2702.8944    93.157    2.4403    0.3733     4.177   151.298     8.565
 2703.0468   101.409    2.4003    0.2548     3.930   200.000     8.406
 2703.1992    95.371    2.5085    0.3047     3.336   176.640     9.007
 2703.3516    95.844    2.5789    0.2581     1.081   200.000     8.313
 2703.5040   109.369    2.3628    0.3368     1.908   164.869     8.420
 2703.6564   102.283    2.4372    0.3071     3.716   180.196     8.456
 2703.8088    77.217    2.3707    0.3033     1.558   183.170     8.411
 2703.9612   112.216    2.3890    0.2537     7.509   200.000     8.697
 2704.1136    96.174    2.4862    0.1883     2.997   200.000     8.449
 2704.2660    84.426    2.4916    0.2964     1.349   181.886     9.054
 2704.4184    70.924    2.3819    0.2070     1.114   200.000     8.491
 2704.5708   127.800    2.3866    0.2691     2.091   197.993     8.748
 2704.7232    93.180    2.4788    0.3305     2.442   164.750     8.276
 2704.8756    78.742    2.5267    0.3029     4.177   182.046     8.913
 2705.0280   101.649    2.4944    0.2258     1.649   200.000     8.305
 2705.1804    94.824    2.3952    0.2954     2.743   183.782     8.746
 2705.3328   108.735    2.5568    0.2944     4.469   184.866     8.497
 2705.4852   119.790    2.4699    0.3057     1.118   187.679     7.558
 2705.6376   104.020    2.5045    0.3019     2.105   188.084     8.408
 2705.7900    91.640    2.4276    0.3163     4.652   159.731     8.024
 2705.9424    80.366    2.4833    0.2756     3.999   191.141     8.353
 2706.0948   106.457    2.4305    0.2695     1.395   200.000     8.695
 2706.2472    92.371    2.4975    0.3186     1.974   174.364     8.570
 2706.3996   104.693    2.4598    0.3707     1.782   145.667     7.888
 2706.5520    74.638    2.4561    0.2973     4.482   187.882     8.595
 2706.7044    93.113    2.4366    0.2440     1.274   200.000     8.773
 2706.8568   124.348    2.4353    0.2914     2.797   189.405     8.517
 2707.0092   113.951    2.4773    0.2846     0.882   191.572     8.373
 2707.1616    81.389    2.5419    0.3752     1.759   146.881     8.161
 2707.3140   125.228    2.4846    0.3282     1.835   168.965     8.240
 2707.4664   103.670    2.5639    0.3128     1.624   165.515     8.600
 2707.6188   101.663    2.4926    0.2907     3.741   188.785     8.700
 2707.7712    82.365    2.4327    0.2623     4.388   200.000     8.814
 2707.9236    76.657    2.4196    0.2941     1.063   192.145     8.759
 2708.0760    85.426    2.4142    0.2995     2.066   191.613     8.459
 2708.2284    86.040    2.3957    0.3561     5.193   142.268     8.815
 2708.3808    97.661    2.5001    0.2515     2.890   200.000     8.222
 2708.5332    92.161    2.4637    0.2901     3.170   199.909     7.997
 2708.6856   110.545    2.4817    0.3779     1.372   145.586     8.321
 2708.8380   104.772    2.4659    0.3568     1.129   151.757     8.480
 2708.9904    85.411    2.4020    0.3396     1.403   160.294     8.053
 2709.1428    87.869    2.4969    0.2440     2.575   200.000     8.763
 2709.2952    96.180    2.4366    0.2983     1.067   185.448     7.872
 2709.4476    90.168    2.4632    0.2126     4.089   200.000     8.421
 2709.6000   105.689    2.5212    0.2690     1.908   200.000     8.943
 2709.7524    87.563    2.4999    0.3089     1.733   179.764     8.289
 2709.9048    97.620    2.4940    0.3522     1.453   149.469     8.373
 2710.0572    95.243    2.4873    0.2541     2.579   200.000     8.012
 2710.2096    87.737    2.4975    0.2616     1.026   200.000     7.929
 2710.3620   103.216    2.3938    0.2475     1.125   200.000     8.987
 2710.5144    97.569    2.4476    0.3806     2.384   132.103     9.010
 2710.6668   111.822    2.4060    0.3544     1.733   161.044     8.686
 2710.8192    84.873    2.5405    0.2465     2.863   200.000     8.949
 2710.9716    96.463    2.4373    0.3194     3.046   175.943     8.434
 2711.1240   100.048    2.4288    0.2892     1.935   198.948     8.290
 2711.2764    97.338    2.4021    0.3440     2.221   164.431     9.134
 2711.4288   109.594    2.4979    0.3862     3.125   132.079     8.283
 2711.5812    82.083    2.4207    0.2964     2.119   188.650     8.404
 2711.7336    99.795    2.3268    0.3631     2.150   155.135     8.799
 2711.8860    96.539    2.4793    0.3149     3.203   173.607     7.976
 2712.0384   105.772    2.4195    0.3058     1.762   178.401     8.717
 2712.1908    91.267    2.4709    0.3202     3.113   175.181     8.091
 2712.3432   108.852    2.4571    0.3292     7.664   169.180     8.230
 2712.4956    91.946    2.3998    0.2594     2.391   200.000     8.309
 2712.6480    94.311    2.4496    0.2641     2.014   200.000     8.601
 2712.8004   106.770    2.4838    0.2906     0.997   197.762     8.713
 2712.9528    98.936    2.4316    0.3131     3.212   171.699     9.109
 2713.1052    95.083    2.5267    0.2210     4.085   200.000     8.798
 2713.2576    85.804    2.5116    0.2834     1.967   190.606     7.945
 2713.4100    93.345    2.4586    0.3426     1.276   162.486     8.259
 2713.5624    91.845    2.4042    0.2579     1.823   200.000     9.136
 2713.7148   121.924    2.4578    0.3154     2.938   177.808     8.467
 2713.8672    79.814    2.4701    0.2432     1.661   200.000     8.727
 2714.0196    97.853    2.4121    0.2458     1.718   200.000     9.001
 2714.1720   102.326    2.3938    0.2502     2.713   200.000     8.182
 2714.3244   104.690    2.4603    0.2508     4.181   200.000     7.988
 2714.4768    83.881    2.3515    0.2710     0.830   200.000     8.555
 2714.6292    99.785    2.4474    0.3490     2.565   153.222     7.922
 2714.7816    98.737    2.3725    0.3119     3.215   178.218     8.564
 2714.9340   116.699    2.4961    0.2784     1.320   200.000     8.989
 2715.0864   125.053    2.3758    0.2750     1.243   200.000     8.075
 2715.2388    96.546    2.3746    0.2612     1.370   200.000     7.953
 2715.3912    81.009    2.5005    0.3391     4.046   158.452     8.828
 2715.5436    75.761    2.4877    0.3229     7.336   169.210     8.123
 2715.6960    73.655    2.4471    0.2677     1.462   200.000     8.152
 2715.8484   107.102    2.4778    0.2785     1.560   200.000     8.491
 2716.0008    91.660    2.4969    0.2786     1.975   200.000     8.486
 2716.1532   114.142    2.4566    0.2522     3.092   200.000     7.897
 2716.3056   106.373    2.3780    0.2640     3.859   200.000     8.045
 2716.4580    82.107    2.4601    0.3192     2.870   185.631     8.429
 2716.6104    90.633    2.4635    0.3680     3.175   152.561     8.525
 2716.7628    83.150    2.5348    0.2934     4.927   191.835     8.342
 2716.9152    88.907    2.4843    0.3359     1.423   168.844     8.338
 2717.0676    96.505    2.4460    0.2687     2.308   200.000     7.709
 2717.2200   110.824    2.4637    0.2782     4.332   190.108     8.394
 2717.3724   103.229    2.3714    0.2461     3.142   200.000     8.509
 2717.5248   101.535    2.4708    0.2544     1.771   200.000     7.754
 2717.6772    86.183    2.4764    0.3127     1.934   178.397     9.035
 2717.8296   108.915    2.3886    0.3068     1.224   178.458     8.136
 2717.9820   103.592    2.4901    0.2958     2.414   181.700     8.472
 2718.1344   101.106    2.4945    0.3415     1.653   164.493     9.115
 2718.2868   118.457    2.4049    0.2601     0.767   194.271     8.007
 2718.4392   107.062    2.4361    0.1434     5.136   200.000     9.569
 2718.5916    89.980    2.4933    0.2336     2.935   200.000     8.179
 2718.7440   112.163    2.4528    0.3099     1.931   182.222     9.039
 2718.8964    77.829    2.4232    0.3255     3.618   166.451     8.038
 2719.0488    87.489    2.4627    0.3200     1.805   174.773     8.254
 2719.2012   100.764    2.4607    0.2465     3.510   200.000     8.134
 2719.3536    93.901    2.4821    0.3733     1.861   154.840     8.341
 2719.5060    97.202    2.5246    0.3170     1.572   173.904     8.668
 2719.6584    89.297    2.4861    0.3780     1.703   148.617     8.700
 2719.8108    86.443    2.4602    0.2902     2.367   188.942     8.623
