~VERSION INFORMATION
 VERS.                 2.0    : CWLS LOG ASCII STANDARD
 WRAP.                 NO     : ONE LINE PER DEPTH STEP
~WELL INFORMATION
 WELL.                 15/9-19A    : Well name
 FLD .                 Statfjord         : Field
 CTRY.                 Norway       : Country
 STRT.M                2100.0000 : START DEPTH
 STOP.M                3400.0000   : STOP DEPTH
 STEP.M                0.1524        : STEP
 NULL.                 -999.25          : NULL VALUE
 SRVC.                 SubsurfAI        : Service company
~CURVE INFORMATION
 DEPT.M                              : Depth
 GR  .GAPI                           : Gamma Ray
 RHOB.G/C3                           : Bulk Density
 NPHI.V/V                            : Neutron Porosity
 RT  .OHMM                           : True Resistivity
 DT  .US/F                           : Sonic
 CALI.IN                             : Caliper
~PARAMETER INFORMATION
 LAT .                 58.4385   : Latitude
 LON .                 1.8356   : Longitude
 DESC.                 Statfjord Fm — Brent Group sandstone, oil producer
~A  DEPT        GR        RHOB      NPHI      RT        DT        CALI
# ...
 3029.9448    32.347    2.2644    0.1581    98.723   200.000     7.830
 3030.0972    29.046    2.2495    0.1520    57.100   200.000     9.182
 3030.2496    29.774    2.2630    0.1638   141.259   200.000     8.375
 3030.4020    31.590    2.2670    0.1498    54.554   200.000     8.679
 3030.5544    25.527    2.2681    0.1524   218.147   200.000     8.833
 3030.7068    27.262    2.1957    0.1553   149.717   200.000     8.394
 3030.8592    30.346    2.2117    0.1727    57.535   200.000     8.082
 3031.0116    25.006    2.2413    0.1507   122.519   200.000     8.549
 3031.1640    20.355    2.2891    0.1331    39.692   200.000     8.628
 3031.3164    34.259    2.2289    0.1394   118.526   200.000     8.308
 3031.4688    20.273    2.2819    0.1525   106.769   200.000     8.344
 3031.6212    22.010    2.2711    0.1561    70.811   200.000     8.911
 3031.7736    27.184    2.3325    0.1425   140.326   200.000     8.636
 3031.9260    20.625    2.2207    0.1679   138.753   200.000     8.374
 3032.0784    28.777    2.2192    0.1935    87.277   200.000     8.376
 3032.2308    31.394    2.2058    0.1411    96.681   200.000     8.615
 3032.3832    33.502    2.2999    0.1596    56.789   200.000     9.026
 3032.5356    31.943    2.2320    0.1795    48.328   200.000     8.535
 3032.6880    26.637    2.3401    0.1718   119.346   200.000     8.236
 3032.8404    29.054    2.2683    0.1697    98.798   200.000     8.324
 3032.9928    24.659    2.3207    0.1792    94.235   200.000     8.792
 3033.1452    33.558    2.3602    0.1680    86.716   200.000     8.711
 3033.2976    21.886    2.3078    0.1940    65.042   200.000     8.045
 3033.4500    27.611    2.2360    0.1788    99.073   200.000     8.588
 3033.6024    30.248    2.1874    0.1622    52.407   200.000     8.785
 3033.7548    37.505    2.2670    0.1408   126.831   200.000     8.683
 3033.9072    28.970    2.1746    0.1766    58.683   200.000     9.292
 3034.0596    28.613    2.2519    0.1589   176.952   200.000     8.312
 3034.2120    27.992    2.2741    0.1535   126.454   200.000     7.791
 3034.3644    28.669    2.3025    0.1655    61.370   200.000     8.719
 3034.5168    31.904    2.2609    0.1489    93.598   200.000     7.723
 3034.6692    29.512    2.2211    0.1799   169.343   200.000     8.502
 3034.8216    27.319    2.2546    0.1146   148.679   200.000     8.636
 3034.9740    25.664    2.2914    0.1308   130.740   200.000     8.274
 3035.1264    33.141    2.1947    0.1284   108.959   200.000     8.824
 3035.2788    28.193    2.2417    0.1386   100.397   200.000     8.811
 3035.4312    22.977    2.2779    0.1661   109.957   200.000     8.410
 3035.5836    27.435    2.2406    0.1231   117.185   200.000     9.312
 3035.7360    31.793    2.2360    0.1729    76.938   200.000     8.376
 3035.8884    14.547    2.2833    0.1289    63.079   200.000     8.841
 3036.0408    29.997    2.1991    0.1460    60.996   200.000     8.008
 3036.1932    27.230    2.3381    0.1701    68.413   200.000     8.155
 3036.3456    27.547    2.3146    0.1155   122.553   200.000     8.461
 3036.4980    21.474    2.3001    0.1315    39.625   200.000     8.184
 3036.6504    27.802    2.2630    0.1713    36.477   200.000     8.256
 3036.8028    26.022    2.2751    0.1744   180.336   200.000     8.755
 3036.9552    32.172    2.2841    0.1426   108.622   200.000     7.978
 3037.1076    33.133    2.3202    0.1263   146.242   200.000     8.595
 3037.2600    26.466    2.2256    0.1581    63.026   200.000     8.976
 3037.4124    30.852    2.2541    0.1789   125.595   200.000     8.616
 3037.5648    24.623    2.2921    0.1379    63.321   200.000     8.886
 3037.7172    35.691    2.2790    0.1292   122.854   200.000     8.205
 3037.8696    26.604    2.2748    0.1118    84.975   200.000     8.641
 3038.0220    22.462    2.2784    0.1895   264.890   200.000     8.917
 3038.1744    33.633    2.2945    0.1185   138.305   200.000     8.686
 3038.3268    30.979    2.2327    0.1540    58.904   200.000     9.271
 3038.4792    32.617    2.2522    0.1349   182.405   200.000     8.865
 3038.6316    27.108    2.2749    0.1414   108.209   200.000     8.636
 3038.7840    26.333    2.2452    0.1714    88.387   200.000     8.169
 3038.9364    21.893    2.2298    0.1532   143.554   200.000     8.849
 3039.0888    33.618    2.2204    0.1729    39.948   200.000     8.801
 3039.2412    28.912    2.1959    0.1849    85.487   200.000     8.552
 3039.3936    31.325    2.2987    0.2046   153.205   200.000     7.981
 3039.5460    19.028    2.2830    0.1672    60.382   200.000     9.017
 3039.6984    26.554    2.2669    0.1506    74.443   200.000     8.364
 3039.8508    29.853    2.2398    0.1570    96.223   200.000     8.660
 3040.0032    32.788    2.2114    0.1545    52.471   200.000     8.767
 3040.1556    19.950    2.3028    0.1623    35.068   200.000     8.990
 3040.3080    29.029    2.2750    0.1273   154.235   200.000     9.137
 3040.4604    31.481    2.1354    0.1690    26.672   200.000     7.940
 3040.6128    32.288    2.2995    0.1231    53.270   200.000     8.351
 3040.7652    32.286    2.2393    0.1779    89.299   200.000     8.011
 3040.9176    28.213    2.2089    0.1730    83.035   200.000     8.303
 3041.0700    22.018    2.3047    0.1456    45.994   200.000     8.405
 3041.2224    21.927    2.1739    0.1552   128.040   200.000     8.458
 3041.3748    27.759    2.2921    0.1199    75.390   200.000     8.814
 3041.5272    24.198    2.3101    0.1450   110.626   200.000     8.995
 3041.6796    30.215    2.2433    0.1659    94.362   200.000     8.765
 3041.8320    24.262    2.2246    0.1704    57.546   200.000     8.814
 3041.9844    29.717    2.1755    0.1655    50.895   200.000     9.347
 3042.1368    28.362    2.2413    0.1491   164.643   200.000     8.905
 3042.2892    22.648    2.2317    0.1790   102.154   200.000     9.076
 3042.4416    28.037    2.2460    0.1273   177.950   200.000     7.653
 3042.5940    26.511    2.2503    0.1390   196.529   200.000     8.263
 3042.7464    24.308    2.2834    0.1906    66.317   200.000     7.929
 3042.8988    34.399    2.2508    0.1245   118.504   200.000     8.361
 3043.0512    25.255    2.2769    0.1434   142.944   200.000     7.899
 3043.2036    29.005    2.2072    0.1267   105.294   200.000     8.286
 3043.3560    29.469    2.2562    0.1612    68.122   200.000     8.736
 3043.5084    26.540    2.2272    0.1664   134.736   200.000     8.064
 3043.6608    34.612    2.2964    0.1995   211.430   200.000     8.976
 3043.8132    32.011    2.2127    0.1479    91.313   200.000     8.529
 3043.9656    27.386    2.2514    0.1855    62.317   200.000     8.192
 3044.1180    30.409    2.2559    0.1487    41.390   200.000     8.452
 3044.2704    29.709    2.3936    0.1408   178.514   200.000     7.707
 3044.4228    34.304    2.3256    0.1744   119.667   200.000     7.760
 3044.5752    34.663    2.2592    0.1547    56.489   200.000     8.849
 3044.7276    23.896    2.1988    0.2031    82.336   200.000     8.473
 3044.8800    31.920    2.2381    0.1607   147.084   200.000     9.077
 3045.0324    27.192    2.2105    0.1717    94.410   200.000     7.907
 3045.1848    23.587    2.2909    0.2050    47.304   200.000     8.820
 3045.3372    25.774    2.3129    0.1756   132.675   200.000     8.658
 3045.4896    35.600    2.3077    0.1715    46.580   200.000     8.235
 3045.6420    29.573    2.2510    0.1698    74.965   200.000     8.392
 3045.7944    34.718    2.2751    0.1317    75.649   200.000     8.508
 3045.9468    39.283    2.2891    0.1751    78.081   200.000     8.447
 3046.0992    30.559    2.2201    0.1981    48.757   200.000     8.353
 3046.2516    27.594    2.2384    0.1546    51.098   200.000     8.557
 3046.4040    23.054    2.2653    0.1507    55.245   200.000     9.228
 3046.5564    35.369    2.2359    0.1247   172.383   200.000     8.160
 3046.7088    25.768    2.1855    0.1284    55.263   200.000     7.907
 3046.8612    33.308    2.2089    0.1929    77.214   200.000     9.120
 3047.0136    26.101    2.3463    0.1551   147.507   200.000     8.976
