~VERSION INFORMATION
 VERS.                 2.0    : CWLS LOG ASCII STANDARD
 WRAP.                 NO     : ONE LINE PER DEPTH STEP
~WELL INFORMATION
 WELL.                 15/9-19A    : Well name
 FLD .                 Statfjord         : Field
 CTRY.                 Norway       : Country
 STRT.M                2100.0000 : START DEPTH
 STOP.M                3400.0000   : STOP DEPTH
 STEP.M                0.1524        : STEP
 NULL.                 -999.25          : NULL VALUE
 SRVC.                 SubsurfAI        : Service company
~CURVE INFORMATION
 DEPT.M                              : Depth
 GR  .GAPI                           : Gamma Ray
 RHOB.G/C3                           : Bulk Density
 NPHI.V/V                            : Neutron Porosity
 RT  .OHMM                           : True Resistivity
 DT  .US/F                           : Sonic
 CALI.IN                             : Caliper
~PARAMETER INFORMATION
 LAT .                 58.4385   : Latitude
 LON .                 1.8356   : Longitude
 DESC.                 Statfjord Fm — Brent Group sandstone, oil producer
~A  DEPT        GR        RHOB      NPHI      RT        DT        CALI
# ...
 2358.3180    89.918    2.5625    0.3666     2.105   158.390     8.190
 2358.4704   100.986    2.4242    0.2930     2.905   188.455     8.961
 2358.6228   102.029    2.4478    0.3455     1.249   153.158     8.429
 2358.7752   110.067    2.4612    0.2991     1.985   184.369     8.395
 2358.9276   106.681    2.3926    0.2504     1.061   200.000     7.873
 2359.0800   100.927    2.4328    0.3392     1.384   167.860     7.904
 2359.2324    80.931    2.4608    0.2992     3.695   180.144     8.749
 2359.3848    98.945    2.4239    0.3721     1.346   142.048     8.645
 2359.5372   121.309    2.5126    0.3518     4.301   159.539     8.528
 2359.6896   139.146    2.5563    0.3899     2.341   144.637     8.586
 2359.8420   112.550    2.4574    0.2696     4.532   200.000     9.347
 2359.9944    27.858    2.1989    0.1645    42.136   200.000     9.376
 2360.1468    38.497    2.2915    0.1487    32.572   200.000     8.658
 2360.2992    30.365    2.2412    0.2094    29.614   200.000     8.063
 2360.4516    43.564    2.3544    0.1939    23.084   200.000     8.833
 2360.6040    32.692    2.2401    0.1828    76.621   200.000     8.850
 2360.7564    32.599    2.3818    0.2056    61.584   200.000     9.470
 2360.9088    30.227    2.2745    0.2065    84.359   200.000     8.547
 2361.0612    30.747    2.2906    0.1800    33.082   200.000     8.566
 2361.2136    19.424    2.2625    0.1625    51.354   200.000     8.671
 2361.3660    31.289    2.2733    0.1858    26.513   200.000     8.982
 2361.5184    34.505    2.2696    0.1728    30.208   200.000     8.640
 2361.6708    24.290    2.3318    0.1818    54.379   200.000     9.487
 2361.8232    24.951    2.2960    0.1732    58.673   200.000     7.611
 2361.9756    34.808    2.2896    0.1486    50.003   200.000     7.729
 2362.1280    31.586    2.2926    0.1427    46.254   200.000     8.939
 2362.2804    35.441    2.2321    0.2416    53.576   200.000     7.899
 2362.4328    34.411    2.2370    0.2316    36.869   200.000     8.408
 2362.5852    41.227    2.3405    0.1641    26.880   200.000     8.985
 2362.7376    38.030    2.3326    0.1630    51.541   200.000     8.066
 2362.8900    35.608    2.3386    0.1951    64.712   200.000     8.585
 2363.0424    22.305    2.2953    0.1786    45.336   200.000     9.255
 2363.1948    34.061    2.2392    0.1773    45.328   200.000     7.661
 2363.3472    25.768    2.3009    0.2063    53.959   200.000     7.869
 2363.4996    28.958    2.3374    0.1983    51.004   200.000     8.513
 2363.6520    34.725    2.3261    0.1525    84.159   200.000     8.410
 2363.8044    22.781    2.2494    0.1914    57.019   200.000     8.191
 2363.9568    34.589    2.3221    0.2009    52.396   200.000     8.880
 2364.1092    39.182    2.2913    0.2208    21.045   200.000     8.520
 2364.2616    29.911    2.2238    0.2194    48.210   200.000     7.527
 2364.4140    31.836    2.3207    0.2511    21.313   200.000     9.207
 2364.5664    34.081    2.2706    0.1510    34.868   200.000     8.529
 2364.7188    29.850    2.2200    0.1579    25.334   200.000     8.525
 2364.8712    29.714    2.2667    0.1446    28.112   200.000     8.365
 2365.0236    27.972    2.2311    0.1598    41.130   200.000     8.362
 2365.1760    34.891    2.2289    0.2346    30.891   200.000     8.450
 2365.3284    32.464    2.2891    0.1636    79.804   200.000     8.842
 2365.4808    31.460    2.2165    0.1816    36.361   200.000     8.780
 2365.6332    26.890    2.2505    0.2014    64.293   200.000     8.604
 2365.7856    43.537    2.2708    0.1963    71.813   200.000     8.809
 2365.9380    34.450    2.3391    0.2034    29.750   200.000     8.643
 2366.0904    39.169    2.1672    0.1679    95.951   200.000     8.969
 2366.2428    36.060    2.2483    0.2269    20.415   200.000     7.911
 2366.3952    36.305    2.2294    0.1816    20.116   200.000     8.187
 2366.5476    25.795    2.3090    0.1803    60.860   200.000     8.902
 2366.7000    36.535    2.2002    0.1749    92.538   200.000     8.025
 2366.8524    27.362    2.2688    0.2068    34.158   200.000     9.010
 2367.0048    32.308    2.2358    0.1747    42.545   200.000     8.445
 2367.1572    23.472    2.2193    0.2042    41.275   200.000     8.159
 2367.3096    26.540    2.2233    0.1983    88.355   200.000     8.222
 2367.4620    36.552    2.2613    0.1798    37.222   200.000     8.515
 2367.6144    27.379    2.3807    0.1783    56.580   200.000     8.022
 2367.7668    34.948    2.2237    0.1724    39.353   200.000     8.532
 2367.9192    32.549    2.2031    0.1453   218.910   200.000     8.327
 2368.0716    31.388    2.2396    0.1516    31.715   200.000     7.443
 2368.2240    34.297    2.2906    0.1624    79.901   200.000     8.240
 2368.3764    29.129    2.2363    0.1989    55.582   200.000     8.560
 2368.5288    26.526    2.2294    0.2293    25.043   200.000     9.567
 2368.6812    35.749    2.2960    0.1905    53.160   200.000     9.469
 2368.8336    35.721    2.3326    0.2108    31.017   200.000     8.154
 2368.9860    31.103    2.2851    0.1241    70.388   200.000     8.395
 2369.1384    37.642    2.2271    0.1729    33.013   200.000     8.523
 2369.2908    28.891    2.2396    0.1809    99.222   200.000     8.545
 2369.4432    32.195    2.2278    0.1793    42.713   200.000     8.356
 2369.5956    28.061    2.3523    0.1853    33.777   200.000     8.689
 2369.7480    32.188    2.2631    0.1384    47.041   200.000     9.250
 2369.9004    27.933    2.2219    0.2049    49.265   200.000     8.799
 2370.0528    24.163    2.1951    0.1823    36.508   200.000     8.334
 2370.2052    38.072    2.3470    0.1579    19.599   200.000     8.785
 2370.3576    37.742    2.3316    0.1652    28.976   200.000     8.632
 2370.5100    30.515    2.2874    0.1497    75.775   200.000     8.554
 2370.6624    24.689    2.1929    0.1479    35.747   200.000     9.084
 2370.8148    28.588    2.1813    0.1907    48.311   200.000     8.502
 2370.9672    33.167    2.3329    0.1579    82.759   200.000     8.213
 2371.1196    29.187    2.2622    0.2329    28.217   200.000     7.938
 2371.2720    34.817    2.3636    0.1885    22.319   200.000     8.743
 2371.4244    36.807    2.2738    0.1812   113.804   200.000     8.706
 2371.5768    33.943    2.2663    0.2044    60.983   200.000     8.725
 2371.7292    23.874    2.4059    0.2101    84.582   200.000     8.426
 2371.8816    26.887    2.2911    0.1743    28.887   200.000     8.565
 2372.0340    32.191    2.2926    0.1999    27.332   200.000     8.282
 2372.1864    26.476    2.2220    0.1744    23.835   200.000     8.850
 2372.3388    26.488    2.2409    0.1927   107.543   200.000     8.374
 2372.4912    28.342    2.3147    0.1709    50.307   200.000     7.351
 2372.6436    20.236    2.3190    0.1553    26.377   200.000     8.312
 2372.7960    35.657    2.2056    0.1465    49.871   200.000     8.145
 2372.9484    30.091    2.2742    0.1894    47.141   200.000     8.428
 2373.1008    36.145    2.3166    0.1159    30.198   200.000     8.585
 2373.2532    35.716    2.3075    0.1851    85.078   200.000     8.910
 2373.4056    29.781    2.3357    0.1579    50.585   200.000     8.310
 2373.5580    29.779    2.2983    0.2054   116.042   200.000     8.802
 2373.7104    30.622    2.2758    0.1362    18.701   200.000     8.259
 2373.8628    30.728    2.2706    0.1823    36.991   200.000     8.379
 2374.0152    23.159    2.4159    0.1547    68.827   200.000     8.421
 2374.1676    38.448    2.2208    0.2033    33.696   200.000     8.468
 2374.3200    30.294    2.2097    0.2107    84.088   200.000     8.594
 2374.4724    30.245    2.3216    0.1767    24.041   200.000     8.299
 2374.6248    31.582    2.2528    0.1925   232.251   200.000     8.269
 2374.7772    33.906    2.2792    0.1945    36.994   200.000     8.430
 2374.9296    23.507    2.2570    0.1805    60.180   200.000     8.816
 2375.0820    28.565    2.2831    0.1465    25.877   200.000     8.283
 2375.2344    30.961    2.2904    0.1764    32.320   200.000     8.045
 2375.3868    29.803    2.3072    0.1644    32.525   200.000     8.424
