~VERSION INFORMATION
 VERS.                 2.0    : CWLS LOG ASCII STANDARD
 WRAP.                 NO     : ONE LINE PER DEPTH STEP
~WELL INFORMATION
 WELL.                 15/9-19A    : Well name
 FLD .                 Statfjord         : Field
 CTRY.                 Norway       : Country
 STRT.M                2100.0000 : START DEPTH
 STOP.M                3400.0000   : STOP DEPTH
 STEP.M                0.1524        : STEP
 NULL.                 -999.25          : NULL VALUE
 SRVC.                 SubsurfAI        : Service company
~CURVE INFORMATION
 DEPT.M                              : Depth
 GR  .GAPI                           : Gamma Ray
 RHOB.G/C3                           : Bulk Density
 NPHI.V/V                            : Neutron Porosity
 RT  .OHMM                           : True Resistivity
 DT  .US/F                           : Sonic
 CALI.IN                             : Caliper
~PARAMETER INFORMATION
 LAT .                 58.4385   : Latitude
 LON .                 1.8356   : Longitude
 DESC.                 Statfjord Fm — Brent Group sandstone, oil producer
~A  DEPT        GR        RHOB      NPHI      RT        DT        CALI
 2100.0000    97.045    2.5715    0.3443     2.391   161.131     8.972
 2100.1524   107.450    2.3719    0.3049     4.040   182.012     7.832
 2100.3048   101.742    2.4961    0.3014     3.021   175.138     8.673
 2100.4572   102.795    2.4124    0.3889     1.954   146.730     8.804
 2100.6096   105.953    2.4596    0.3279     1.236   178.096     9.460
 2100.7620    96.699    2.4581    0.3296     2.334   166.985     7.865
 2100.9144   101.338    2.4728    0.3196     2.172   177.913     8.681
 2101.0668    97.167    2.4810    0.3435     4.212   164.844     8.444
 2101.2192   128.886    2.3909    0.2769     1.435   194.365     8.137
 2101.3716   101.517    2.3747    0.2349     2.664   200.000     9.053
 2101.5240    80.834    2.4693    0.2941     3.059   187.010     7.964
 2101.6764   110.857    2.3990    0.2895     3.906   189.991     7.773
 2101.8288   118.332    2.4660    0.3093     2.553   177.865     8.243
 2101.9812    91.579    2.4588    0.3343     2.005   162.633     7.993
 2102.1336    94.387    2.5382    0.3725     4.217   144.474     8.755
 2102.2860   108.141    2.5034    0.2887     2.297   197.896     8.334
 2102.4384    88.123    2.5211    0.3632     2.737   149.397     8.369
 2102.5908    99.283    2.4870    0.3304     1.764   180.311     8.659
 2102.7432   103.525    2.5249    0.3202     1.476   180.725     8.763
 2102.8956   124.479    2.4257    0.3945     2.190   136.687     9.055
 2103.0480   128.642    2.5414    0.3071     2.153   179.963     8.993
 2103.2004    92.275    2.4395    0.3950     3.969   139.676     8.027
 2103.3528    92.873    2.4432    0.3117     2.766   171.242     8.232
 2103.5052   111.232    2.5374    0.4085     2.190   138.816     8.489
 2103.6576   103.294    2.6029    0.2716     5.543   200.000     7.800
 2103.8100   122.016    2.4884    0.3904     3.095   144.477     9.415
 2103.9624   110.223    2.4482    0.3703     4.004   152.409     9.051
 2104.1148   108.353    2.4913    0.3845     1.638   146.621     7.906
 2104.2672    85.160    2.4012    0.2641     1.528   200.000     8.916
 2104.4196   100.426    2.5125    0.3046     1.980   178.220     8.877
 2104.5720   117.641    2.5159    0.3505     2.506   166.362     8.673
 2104.7244   125.407    2.5001    0.3180     1.401   172.627     8.471
 2104.8768    81.490    2.5733    0.3195     2.677   167.732     8.860
 2105.0292   108.217    2.4558    0.3238     4.603   170.176     8.536
 2105.1816   102.489    2.4866    0.4157     1.980   132.501     9.001
 2105.3340    96.066    2.5110    0.3348     2.346   161.203     8.949
 2105.4864   102.693    2.5347    0.2822     2.567   198.957     8.562
 2105.6388   113.865    2.4726    0.3179     1.760   166.168     9.630
 2105.7912    91.519    2.5268    0.3108     1.631   173.703     8.402
 2105.9436   102.477    2.3964    0.3439     1.493   162.263     8.925
 2106.0960   104.954    2.4624    0.3290     1.894   167.464     8.274
 2106.2484   109.555    2.3990    0.3631     1.600   156.569     8.803
 2106.4008   110.955    2.4757    0.3219     1.574   172.733     8.713
 2106.5532   104.178    2.4402    0.2612     1.977   200.000     8.241
 2106.7056   116.101    2.5418    0.2527     3.307   200.000     7.930
 2106.8580   110.364    2.4267    0.3100     8.762   171.897     9.085
 2107.0104   110.338    2.4484    0.3052     2.785   174.478     7.970
 2107.1628   108.046    2.5543    0.3206     7.762   172.166     8.767
 2107.3152   112.519    2.4020    0.3577     1.377   153.809     8.707
 2107.4676    99.922    2.4337    0.3787     2.365   145.960     8.341
 2107.6200   110.046    2.6151    0.3350     1.738   156.695     8.669
 2107.7724   117.740    2.4981    0.3536     2.243   160.320     8.380
 2107.9248   130.360    2.4386    0.2691     1.507   200.000     8.089
 2108.0772   117.898    2.4052    0.3238     4.375   165.137     8.471
 2108.2296   120.012    2.5513    0.4044     3.993   144.762     9.175
 2108.3820   114.377    2.4332    0.3258     4.958   175.004     8.869
 2108.5344   124.311    2.3855    0.3271     4.120   155.319     8.607
 2108.6868    95.064    2.5311    0.3128     4.235   181.538     8.147
 2108.8392   101.363    2.5588    0.3265     3.204   167.706     9.036
 2108.9916    93.230    2.4585    0.3263     1.329   165.900     8.060
 2109.1440    98.145    2.5362    0.3451     2.614   157.676     8.313
 2109.2964    72.976    2.4494    0.2643     3.323   199.599     8.423
 2109.4488    94.735    2.5273    0.3936     2.903   131.682     8.025
 2109.6012   100.597    2.4776    0.2789     4.036   199.632     8.520
 2109.7536   109.708    2.5044    0.3775     1.998   146.188     8.418
 2109.9060   118.351    2.4415    0.3073     1.658   169.965     9.226
 2110.0584    86.445    2.4647    0.3279     3.119   167.508     8.661
 2110.2108    89.619    2.4202    0.3830     3.867   155.726     8.103
 2110.3632    89.127    2.4327    0.3033     0.767   188.765     8.595
 2110.5156   103.852    2.5086    0.3874     1.566   138.342     8.335
 2110.6680   105.390    2.5745    0.3032     2.736   173.006     8.297
 2110.8204    85.588    2.4893    0.2087     2.227   200.000     8.291
 2110.9728    91.358    2.5693    0.3555     2.292   161.665     8.822
 2111.1252    98.785    2.4592    0.3473     2.291   151.845     7.981
 2111.2776    95.685    2.4827    0.3220     4.467   168.737     9.063
 2111.4300   104.146    2.4181    0.3801     6.658   141.255     9.183
 2111.5824   107.681    2.5124    0.3058     0.844   170.416     8.617
 2111.7348    93.874    2.4553    0.3512     2.332   162.954     8.942
 2111.8872    91.785    2.4800    0.3216     2.788   171.372     8.263
 2112.0396   112.199    2.4966    0.3316     2.810   167.988     8.621
 2112.1920   120.207    2.5753    0.3345     1.690   166.619     8.545
 2112.3444    95.567    2.4792    0.2515     4.325   200.000     9.461
 2112.4968   112.767    2.4980    0.3069     1.915   179.691     8.195
 2112.6492   106.177    2.5251    0.3145     3.256   164.635     9.180
 2112.8016   112.021    2.5549    0.3652     1.335   165.756     9.279
 2112.9540   100.490    2.5219    0.3491     2.353   151.559     8.377
 2113.1064   110.788    2.4061    0.2968     3.035   181.055     9.129
 2113.2588    91.577    2.4376    0.2747     2.281   200.000     9.385
 2113.4112   122.499    2.4546    0.3007     2.445   182.532     8.214
 2113.5636   109.135    2.4992    0.3764     2.225   139.261     8.284
 2113.7160    91.075    2.4937    0.3267     2.859   174.679     9.046
 2113.8684   101.467    2.4564    0.3189     1.860   174.390     8.182
 2114.0208    98.698    2.5579    0.4070     3.467   139.233     9.243
 2114.1732    90.144    2.6074    0.2801     1.981   200.000     8.967
 2114.3256   105.247    2.4795    0.3727     2.459   152.584     9.194
 2114.4780   107.217    2.4772    0.3403     2.370   157.941     8.160
 2114.6304   102.887    2.4897    0.3511     1.893   155.701     8.846
 2114.7828   118.217    2.5049    0.3283     3.121   162.925     8.522
 2114.9352    98.651    2.5387    0.3113     2.437   175.193     7.752
 2115.0876    99.000    2.4904    0.3151     1.993   180.996     8.836
 2115.2400    98.422    2.4527    0.2885     2.198   183.832     8.425
 2115.3924    95.165    2.5624    0.2879     1.353   190.986     8.562
 2115.5448    92.647    2.5086    0.2844     1.606   188.388     8.761
 2115.6972   104.712    2.5167    0.2398     2.388   200.000     8.252
 2115.8496    99.380    2.5147    0.3112     1.261   170.543     8.848
 2116.0020   103.674    2.5629    0.2859     1.369   194.331     8.224
 2116.1544   120.757    2.5460    0.2798     0.856   196.315     8.812
 2116.3068    93.211    2.4443    0.3753     7.173   138.622     8.756
 2116.4592    91.134    2.5441    0.3519     3.018   156.188     8.406
 2116.6116    94.613    2.4640    0.2866     1.416   190.194     8.264
 2116.7640    97.066    2.4872    0.2360     2.712   200.000     8.985
 2116.9164   102.221    2.5342    0.3852     4.284   134.480     7.857
 2117.0688    89.723    2.4620    0.3517     2.944   161.001     8.157
