~VERSION INFORMATION
 VERS.                 2.0    : CWLS LOG ASCII STANDARD
 WRAP.                 NO     : ONE LINE PER DEPTH STEP
~WELL INFORMATION
 WELL.                 15/9-19A    : Well name
 FLD .                 Statfjord         : Field
 CTRY.                 Norway       : Country
 STRT.M                2100.0000 : START DEPTH
 STOP.M                3400.0000   : STOP DEPTH
 STEP.M                0.1524        : STEP
 NULL.                 -999.25          : NULL VALUE
 SRVC.                 SubsurfAI        : Service company
~CURVE INFORMATION
 DEPT.M                              : Depth
 GR  .GAPI                           : Gamma Ray
 RHOB.G/C3                           : Bulk Density
 NPHI.V/V                            : Neutron Porosity
 RT  .OHMM                           : True Resistivity
 DT  .US/F                           : Sonic
 CALI.IN                             : Caliper
~PARAMETER INFORMATION
 LAT .                 58.4385   : Latitude
 LON .                 1.8356   : Longitude
 DESC.                 Statfjord Fm — Brent Group sandstone, oil producer
~A  DEPT        GR        RHOB      NPHI      RT        DT        CALI
# ...
 2186.1060   111.631    2.4965    0.3477     4.831   154.536     8.989
 2186.2584    92.089    2.4971    0.3945     2.056   143.736     8.373
 2186.4108   102.719    2.5505    0.2961     2.998   189.288     8.353
 2186.5632    88.064    2.4917    0.2992     5.927   185.466     8.989
 2186.7156   100.802    2.3991    0.3441     1.944   155.626     8.368
 2186.8680   107.236    2.4379    0.2876     4.905   189.373     8.245
 2187.0204    99.760    2.4664    0.2526     4.063   200.000     8.326
 2187.1728   107.762    2.4989    0.3464     2.221   149.991     8.162
 2187.3252   113.108    2.5156    0.3918     2.314   144.694     8.569
 2187.4776   112.890    2.5285    0.2746     2.203   200.000     8.463
 2187.6300    86.630    2.4633    0.3747     3.317   137.307     8.568
 2187.7824   117.749    2.4785    0.3311     1.055   177.221     8.317
 2187.9348    92.748    2.5566    0.3535     3.956   155.924     8.137
 2188.0872   108.004    2.5272    0.2674     1.415   200.000     8.227
 2188.2396   129.512    2.4840    0.4050     3.071   132.163     8.552
 2188.3920   119.891    2.4956    0.3486     4.526   149.837     8.015
 2188.5444   107.480    2.4022    0.3412     2.389   165.814     8.532
 2188.6968    93.487    2.4953    0.3162     3.750   172.041     7.810
 2188.8492    85.973    2.5378    0.3174     1.144   177.743     8.990
 2189.0016   132.557    2.5092    0.3742     5.013   154.079     8.483
 2189.1540   105.541    2.4927    0.2284     2.293   200.000     8.555
 2189.3064    83.506    2.5434    0.3084     2.659   182.520     9.215
 2189.4588   125.755    2.5454    0.2594     0.904   200.000     8.731
 2189.6112    91.773    2.4308    0.3382     3.359   168.700     8.496
 2189.7636    73.517    2.5237    0.2933     2.373   191.385     7.829
 2189.9160   121.306    2.5118    0.3248     2.800   170.956     8.735
 2190.0684   111.738    2.4712    0.3669     2.745   154.496     8.757
 2190.2208   107.136    2.5231    0.2947     3.236   191.057     8.432
 2190.3732   116.397    2.4495    0.3355     6.333   158.725     8.353
 2190.5256    84.935    2.4557    0.3462     1.917   162.136     7.873
 2190.6780    91.519    2.4400    0.2928     1.373   190.946     8.396
 2190.8304    81.354    2.5259    0.3457     3.281   160.461     8.740
 2190.9828   115.214    2.5704    0.2796     2.207   200.000     8.607
 2191.1352    87.209    2.4595    0.2964     2.830   194.761     8.495
 2191.2876   104.032    2.3754    0.3475     4.124   165.598     8.967
 2191.4400    97.394    2.5143    0.3287     2.576   165.629     8.084
 2191.5924   104.034    2.4324    0.3334     2.492   162.519     8.023
 2191.7448   107.171    2.4921    0.3188     1.890   176.083     7.782
 2191.8972   113.946    2.5540    0.3806     4.312   143.651     9.204
 2192.0496   105.357    2.4820    0.2127     2.518   200.000     8.442
 2192.2020    89.504    2.5797    0.4248     4.592   136.258     8.695
 2192.3544   100.893    2.5552    0.2156     1.241   200.000     7.934
 2192.5068   110.878    2.4239    0.3624     3.059   151.398     8.143
 2192.6592   131.814    2.4167    0.3172     4.960   169.933     7.557
 2192.8116   106.128    2.3236    0.3495     1.240   154.711     8.636
 2192.9640   119.424    2.4583    0.3628     3.605   145.176     8.025
 2193.1164   108.186    2.4266    0.2497     1.567   200.000     8.296
 2193.2688   113.122    2.4155    0.3986     2.862   140.706     7.943
 2193.4212   111.897    2.5148    0.3069     1.407   180.658     8.351
 2193.5736   139.074    2.4749    0.3138     1.384   175.921     8.925
 2193.7260   106.589    2.4221    0.4465     3.096   133.704     9.107
 2193.8784   115.174    2.5554    0.2499     8.139   200.000     8.315
 2194.0308   137.042    2.4245    0.3804     2.799   149.048     8.368
 2194.1832    88.825    2.4839    0.3159     2.582   177.687     8.684
 2194.3356   116.132    2.5346    0.3070     3.595   177.702     8.848
 2194.4880   105.332    2.5251    0.3440     1.967   160.686     8.434
 2194.6404    86.464    2.4760    0.3188     3.315   162.270     9.315
 2194.7928   106.049    2.4920    0.2602     1.151   200.000     8.765
 2194.9452   114.470    2.4643    0.3065     1.378   175.028     8.569
 2195.0976    92.330    2.4653    0.2998     1.787   184.184     7.886
 2195.2500   104.827    2.5458    0.3597     1.571   158.453     8.616
 2195.4024   126.941    2.4992    0.4054     2.794   139.374     7.588
 2195.5548   105.090    2.4849    0.2978     2.462   187.798     8.337
 2195.7072   120.644    2.5583    0.2148     2.618   200.000     8.473
 2195.8596   115.040    2.5064    0.3616     1.477   150.207     8.471
 2196.0120   101.375    2.4603    0.2888     2.669   196.138     8.282
 2196.1644    88.152    2.4492    0.3311     4.321   166.856     8.472
 2196.3168    91.608    2.4869    0.2903     3.153   185.033     8.445
 2196.4692   119.972    2.5251    0.2895     5.166   190.310     8.691
 2196.6216    83.290    2.4781    0.3012     1.564   183.223     8.378
 2196.7740    90.300    2.4186    0.3200     3.997   174.601     8.535
 2196.9264   106.978    2.5161    0.3041     2.125   185.215     8.613
 2197.0788   104.305    2.4989    0.2650     2.246   200.000     8.630
 2197.2312   122.323    2.4769    0.3752     5.399   139.191     8.832
 2197.3836   102.858    2.4553    0.2345     1.947   200.000     8.167
 2197.5360    74.762    2.4964    0.2963     1.131   183.680     8.713
 2197.6884   119.805    2.4354    0.3114     2.851   184.668     8.433
 2197.8408    72.349    2.4972    0.3348     4.083   167.529     9.060
 2197.9932   104.100    2.4236    0.2708     1.173   200.000     8.083
 2198.1456    88.138    2.4826    0.2652     1.666   196.692     8.144
 2198.2980   114.709    2.4489    0.3052     2.167   174.396     9.274
 2198.4504   143.651    2.4896    0.2622     2.588   200.000     8.882
 2198.6028   106.888    2.4724    0.3291     5.698   165.503     7.233
 2198.7552    91.556    2.4506    0.2499     1.489   200.000     8.903
 2198.9076    98.138    2.5065    0.2796     2.781   187.851     8.719
 2199.0600    91.071    2.4669    0.2980     3.541   182.975     7.840
 2199.2124    94.419    2.4905    0.2901     2.191   190.891     8.145
 2199.3648   113.044    2.5280    0.3260     1.078   167.002     8.706
 2199.5172   119.427    2.4857    0.3683     2.503   148.916     8.600
 2199.6696   100.123    2.5049    0.3412     2.978   160.005     9.265
 2199.8220    94.470    2.4745    0.2719     4.842   200.000     8.601
 2199.9744   115.298    2.4050    0.3325     3.396   165.799     8.567
 2200.1268    97.634    2.4368    0.2262     3.219   200.000     8.915
 2200.2792    91.026    2.4040    0.3182     2.694   175.954     8.601
 2200.4316   106.513    2.5318    0.2519     0.945   200.000     9.114
 2200.5840   114.319    2.5737    0.3332     1.532   171.375     8.131
 2200.7364   110.651    2.5049    0.2817     2.328   198.883     8.477
 2200.8888    97.997    2.4287    0.3757     1.517   148.042     7.662
 2201.0412    96.940    2.4170    0.3828     3.910   142.933     8.916
 2201.1936   104.646    2.4920    0.2349     1.700   200.000     8.743
 2201.3460   103.770    2.5575    0.3082     3.444   179.124     8.964
 2201.4984   126.788    2.5334    0.3066     1.631   171.067     8.286
 2201.6508   111.047    2.4515    0.2673     1.111   200.000     8.318
 2201.8032    90.485    2.4716    0.3023     5.043   189.362     8.554
 2201.9556   109.170    2.5128    0.3339     1.827   159.638     8.462
 2202.1080   105.526    2.5045    0.3464     3.742   151.723     8.625
 2202.2604    80.870    2.4687    0.3365     4.504   169.325     8.402
 2202.4128   107.663    2.4531    0.3639     2.628   151.106     8.529
 2202.5652   105.475    2.5058    0.3361     1.658   161.778     8.553
 2202.7176   100.037    2.4753    0.4119     2.623   134.486     7.763
 2202.8700   106.445    2.5408    0.2616     2.273   200.000     7.986
 2203.0224   120.500    2.5252    0.3263     1.065   166.127     9.229
 2203.1748    90.768    2.5980    0.2956     1.441   180.025     8.266
