~VERSION INFORMATION
 VERS.                 2.0    : CWLS LOG ASCII STANDARD
 WRAP.                 NO     : ONE LINE PER DEPTH STEP
~WELL INFORMATION
 WELL.                 15/9-19A    : Well name
 FLD .                 Statfjord         : Field
 CTRY.                 Norway       : Country
 STRT.M                2100.0000 : START DEPTH
 STOP.M                3400.0000   : STOP DEPTH
 STEP.M                0.1524        : STEP
 NULL.                 -999.25          : NULL VALUE
 SRVC.                 SubsurfAI        : Service company
~CURVE INFORMATION
 DEPT.M                              : Depth
 GR  .GAPI                           : Gamma Ray
 RHOB.G/C3                           : Bulk Density
 NPHI.V/V                            : Neutron Porosity
 RT  .OHMM                           : True Resistivity
 DT  .US/F                           : Sonic
 CALI.IN                             : Caliper
~PARAMETER INFORMATION
 LAT .                 58.4385   : Latitude
 LON .                 1.8356   : Longitude
 DESC.                 Statfjord Fm — Brent Group sandstone, oil producer
~A  DEPT        GR        RHOB      NPHI      RT        DT        CALI
# ...
 2272.2120   117.770    2.4258    0.1952     1.103   200.000     9.037
 2272.3644   107.579    2.4981    0.3099     3.307   174.952     8.121
 2272.5168   135.648    2.4993    0.3261     2.178   173.756     7.555
 2272.6692   113.978    2.4752    0.3599     1.849   151.942     9.021
 2272.8216   111.092    2.4809    0.3147     1.895   176.828     8.086
 2272.9740    84.258    2.5049    0.3552     2.582   148.038     8.684
 2273.1264    99.504    2.4696    0.3171     5.781   180.438     8.318
 2273.2788   119.788    2.4625    0.2716     1.834   196.300     8.669
 2273.4312    99.800    2.3929    0.3608     1.901   148.152     8.661
 2273.5836    98.686    2.4513    0.3775     1.383   139.911     8.246
 2273.7360    97.960    2.4680    0.3255     1.564   170.271     8.264
 2273.8884   114.545    2.3846    0.3424     2.408   167.590     8.111
 2274.0408   108.317    2.4647    0.3543     2.824   155.367     8.071
 2274.1932   102.898    2.4526    0.3673     2.894   155.041     8.490
 2274.3456   111.208    2.4602    0.3832     2.425   144.445     9.379
 2274.4980   108.074    2.4219    0.2869     1.689   199.465     8.673
 2274.6504   107.677    2.5028    0.2374     3.379   200.000     8.550
 2274.8028    99.999    2.4272    0.2579     3.046   200.000     7.836
 2274.9552    97.442    2.4320    0.3588     1.308   148.659     8.265
 2275.1076   122.414    2.5157    0.3510     2.332   153.871     8.376
 2275.2600    96.748    2.4525    0.3533     1.450   149.249     8.585
 2275.4124   116.786    2.4924    0.2682     3.054   200.000     7.852
 2275.5648   109.156    2.5258    0.2695     3.103   200.000     8.297
 2275.7172   113.956    2.4833    0.3021     2.794   176.470     8.886
 2275.8696    98.856    2.5168    0.2911     0.662   185.347     8.604
 2276.0220   108.303    2.4513    0.2455     2.973   200.000     8.774
 2276.1744   113.893    2.4944    0.3132     2.437   176.114     8.357
 2276.3268   112.753    2.5069    0.3317     1.485   162.125     8.853
 2276.4792   112.878    2.4329    0.3429     4.059   160.127     8.778
 2276.6316   132.786    2.4270    0.3765     4.496   148.186     8.732
 2276.7840   101.255    2.5012    0.2948     1.818   186.082     9.260
 2276.9364   104.396    2.4131    0.2776     1.823   194.967     8.133
 2277.0888   108.364    2.4329    0.2711     1.984   200.000     8.267
 2277.2412    86.354    2.5186    0.3739     5.207   149.572     8.217
 2277.3936   110.074    2.4193    0.3007     2.644   185.424     8.339
 2277.5460   121.561    2.4314    0.2858     2.330   193.994     8.417
 2277.6984    96.182    2.4277    0.3944     3.623   141.989     8.094
 2277.8508   109.833    2.4715    0.3457     3.035   162.803     7.787
 2278.0032    97.049    2.4581    0.3678     1.247   147.799     8.596
 2278.1556    99.232    2.4667    0.3225     7.743   173.959     9.136
 2278.3080   100.762    2.4410    0.3251     2.361   175.132     8.883
 2278.4604    96.423    2.4545    0.3461     1.517   160.448     8.918
 2278.6128    92.269    2.5215    0.2625     2.160   200.000     8.545
 2278.7652   121.389    2.3951    0.3004     1.420   183.624     8.887
 2278.9176   125.031    2.4781    0.2791     2.111   188.421     8.251
 2279.0700    97.314    2.4832    0.3618     3.735   151.484     8.216
 2279.2224   109.182    2.5207    0.2934     4.098   189.367     8.780
 2279.3748   110.281    2.5019    0.2984     1.441   183.228     8.379
 2279.5272   115.717    2.5096    0.3543     1.910   153.950     8.624
 2279.6796   123.429    2.4822    0.2021     2.210   200.000     8.114
 2279.8320    95.573    2.5305    0.3231     2.203   165.112     8.856
 2279.9844   101.715    2.4844    0.2764     2.828   195.714     8.665
 2280.1368   118.972    2.4631    0.3364     2.045   171.072     8.661
 2280.2892   112.491    2.4979    0.4003     1.537   134.068     8.679
 2280.4416    90.313    2.5441    0.2377     1.890   200.000     8.812
 2280.5940    93.227    2.4959    0.2888     1.880   189.929     8.855
 2280.7464   102.997    2.4588    0.3442     5.788   163.035     8.612
 2280.8988   100.943    2.4327    0.3630     4.383   157.173     8.343
 2281.0512   114.181    2.4029    0.3096     3.403   174.838     8.375
 2281.2036   119.069    2.5428    0.2448     1.419   200.000     8.345
 2281.3560    82.535    2.4315    0.3319     5.242   163.779     8.776
 2281.5084   104.935    2.4974    0.3679     2.489   157.214     8.452
 2281.6608   105.013    2.5861    0.3119     1.843   175.747     8.387
 2281.8132    94.168    2.4369    0.3525     5.818   153.912     7.328
 2281.9656   112.236    2.5572    0.2986     5.266   187.204     8.567
 2282.1180   120.019    2.5500    0.3775     3.003   149.826     8.310
 2282.2704   102.010    2.4528    0.3673     4.674   147.720     8.066
 2282.4228    89.471    2.4923    0.3308     2.196   173.514     7.898
 2282.5752   103.787    2.4555    0.3220     4.148   164.494     8.834
 2282.7276    99.185    2.4760    0.3351     7.485   158.445     8.022
 2282.8800   118.783    2.5549    0.3340     2.380   163.822     8.004
 2283.0324   115.318    2.5007    0.3055     2.006   180.280     8.228
 2283.1848    79.753    2.5168    0.2922     1.173   191.579     7.839
 2283.3372   117.410    2.5179    0.3542     1.857   152.238     8.731
 2283.4896    99.147    2.4918    0.3129     1.743   164.616     8.348
 2283.6420   102.099    2.5011    0.3761     6.327   146.459     7.919
 2283.7944   101.728    2.4528    0.3106     1.092   181.270     8.766
 2283.9468   107.149    2.5052    0.3264     1.338   165.078     8.526
 2284.0992    94.761    2.4338    0.2836     2.379   193.951     8.406
 2284.2516   105.874    2.5465    0.2728     2.350   200.000     8.061
 2284.4040   100.449    2.4280    0.3191     2.073   168.633     8.968
 2284.5564    89.427    2.4866    0.3068     2.108   189.028     7.994
 2284.7088    99.546    2.4811    0.3476     0.934   161.260     9.174
 2284.8612   110.841    2.4955    0.3684     3.523   156.017     8.158
 2285.0136    98.230    2.5099    0.2849     3.467   189.821     8.084
 2285.1660    80.707    2.4919    0.3174     2.234   170.620     8.308
 2285.3184    99.877    2.4649    0.3554     0.985   149.998     8.541
 2285.4708    78.080    2.4872    0.3733     2.469   147.539     8.883
 2285.6232   108.742    2.5139    0.2867     1.222   200.000     8.630
 2285.7756   104.341    2.4620    0.2930     2.904   189.447     9.224
 2285.9280    91.748    2.5257    0.3063     2.073   170.473     8.077
 2286.0804    84.644    2.5509    0.2781     2.354   200.000     9.496
 2286.2328    96.388    2.4725    0.3789     2.313   147.164     8.137
 2286.3852   101.704    2.4786    0.3179     3.153   173.935     9.345
 2286.5376    92.124    2.4839    0.2508     2.784   200.000     7.703
 2286.6900    97.290    2.4482    0.2953     0.840   175.955     9.293
 2286.8424   104.845    2.4733    0.3439     2.262   162.480     9.062
 2286.9948   113.129    2.4535    0.3338     2.297   155.951     8.768
 2287.1472   126.926    2.4980    0.3139     2.985   175.215     9.056
 2287.2996    87.941    2.4939    0.3097     1.767   171.414     7.927
 2287.4520   121.431    2.4540    0.2876     3.491   190.779     9.197
 2287.6044    83.845    2.4606    0.2871     1.616   197.715     8.815
 2287.7568   119.416    2.4858    0.3648     3.856   145.353     8.463
 2287.9092   101.111    2.4947    0.3458     1.597   153.940     8.945
 2288.0616    75.552    2.4967    0.2781     4.289   196.284     8.204
 2288.2140   110.230    2.5606    0.2530     3.479   200.000     8.742
 2288.3664   106.016    2.5015    0.2780     2.395   200.000     8.470
 2288.5188    90.957    2.5807    0.3208     6.131   170.574     8.142
 2288.6712    90.967    2.4873    0.3298     1.804   167.683     8.328
 2288.8236   109.855    2.4735    0.3312     1.220   161.108     8.424
 2288.9760   101.362    2.5324    0.2452     1.918   200.000     8.884
 2289.1284    88.637    2.4654    0.3089     1.286   178.607     8.650
 2289.2808    98.689    2.4010    0.3090     2.829   171.567     9.083
