~VERSION INFORMATION
 VERS.                 2.0    : CWLS LOG ASCII STANDARD
 WRAP.                 NO     : ONE LINE PER DEPTH STEP
~WELL INFORMATION
 WELL.                 15/9-19A    : Well name
 FLD .                 Statfjord         : Field
 CTRY.                 Norway       : Country
 STRT.M                2100.0000 : START DEPTH
 STOP.M                3400.0000   : STOP DEPTH
 STEP.M                0.1524        : STEP
 NULL.                 -999.25          : NULL VALUE
 SRVC.                 SubsurfAI        : Service company
~CURVE INFORMATION
 DEPT.M                              : Depth
 GR  .GAPI                           : Gamma Ray
 RHOB.G/C3                           : Bulk Density
 NPHI.V/V                            : Neutron Porosity
 RT  .OHMM                           : True Resistivity
 DT  .US/F                           : Sonic
 CALI.IN                             : Caliper
~PARAMETER INFORMATION
 LAT .                 58.4385   : Latitude
 LON .                 1.8356   : Longitude
 DESC.                 Statfjord Fm — Brent Group sandstone, oil producer
~A  DEPT        GR        RHOB      NPHI      RT        DT        CALI
# ...
 3116.0508    28.887    2.2644    0.1284    79.167   200.000     8.094
 3116.2032    27.532    2.2195    0.1968    79.113   200.000     8.757
 3116.3556    27.390    2.2564    0.1985    50.574   200.000     7.845
 3116.5080    32.392    2.2313    0.1509    55.110   200.000     8.170
 3116.6604    29.322    2.2760    0.1687    51.872   200.000     8.875
 3116.8128    31.147    2.2352    0.1275    40.996   200.000     8.425
 3116.9652    24.125    2.2861    0.1585   156.784   200.000     8.210
 3117.1176    26.285    2.1544    0.1900   226.592   200.000     7.940
 3117.2700    26.245    2.2073    0.1309    81.635   200.000     7.980
 3117.4224    27.689    2.2656    0.1630    56.309   200.000     8.314
 3117.5748    29.554    2.2520    0.1943    98.120   200.000     8.363
 3117.7272    29.120    2.2586    0.1325    24.455   200.000     8.834
 3117.8796    23.571    2.1619    0.1329    74.814   200.000     8.173
 3118.0320    20.484    2.1960    0.1337    70.679   200.000     8.487
 3118.1844    23.372    2.1881    0.1569    30.457   200.000     7.965
 3118.3368    37.333    2.3173    0.1454    67.210   200.000     9.544
 3118.4892    29.351    2.2908    0.1761   159.228   200.000     9.142
 3118.6416    28.616    2.1741    0.1601    52.479   200.000     8.476
 3118.7940    34.433    2.2430    0.1423    62.063   200.000     8.050
 3118.9464    23.279    2.3117    0.1818   173.180   200.000     7.731
 3119.0988    21.032    2.3200    0.1691   133.271   200.000     8.302
 3119.2512    25.012    2.2505    0.1636    73.869   200.000     8.762
 3119.4036    21.526    2.2793    0.1203   101.965   200.000     8.931
 3119.5560    29.092    2.3117    0.1654   126.566   200.000     8.582
 3119.7084    30.081    2.2760    0.1266    93.998   200.000     9.317
 3119.8608    28.866    2.1781    0.1763    65.900   200.000     8.232
 3120.0132    26.980    2.2732    0.1267    74.387   200.000     8.186
 3120.1656    30.349    2.2217    0.1933    76.309   200.000     8.341
 3120.3180    26.323    2.2081    0.1468    43.916   200.000     8.234
 3120.4704    31.848    2.2505    0.1670   103.316   200.000     8.007
 3120.6228    24.304    2.2206    0.1666    92.800   200.000     9.180
 3120.7752    24.038    2.1848    0.1689    71.999   200.000     8.086
 3120.9276    23.868    2.2904    0.1729   188.617   200.000     8.735
 3121.0800    34.005    2.2668    0.1914   155.989   200.000     8.587
 3121.2324    30.989    2.2936    0.1325    58.054   200.000     8.237
 3121.3848    31.107    2.1875    0.1764    57.357   200.000     8.576
 3121.5372    32.355    2.2877    0.1594    60.337   200.000     8.304
 3121.6896    25.517    2.2572    0.1870    74.089   200.000     8.445
 3121.8420    19.185    2.2663    0.1827    52.960   200.000     8.578
 3121.9944    21.523    2.2088    0.1733    97.872   200.000     8.073
 3122.1468    29.222    2.3011    0.1661   156.899   200.000     8.059
 3122.2992    30.510    2.2621    0.1866    91.953   200.000     8.859
 3122.4516    25.843    2.1711    0.1425    60.474   200.000     8.129
 3122.6040    21.524    2.1930    0.1435   112.120   200.000     8.777
 3122.7564    28.738    2.2889    0.1804   134.624   200.000     8.544
 3122.9088    32.088    2.2249    0.1468    86.723   200.000     8.018
 3123.0612    25.239    2.3221    0.1849    88.279   200.000     8.321
 3123.2136    28.884    2.2554    0.1536   122.554   200.000     8.214
 3123.3660    31.754    2.2509    0.1855   115.861   200.000     9.034
 3123.5184    26.804    2.2084    0.1913   220.353   200.000     8.457
 3123.6708    26.054    2.2621    0.1387    35.587   200.000     8.657
 3123.8232    27.584    2.3208    0.1678    42.301   200.000     7.910
 3123.9756    31.917    2.3250    0.1732    47.565   200.000     7.867
 3124.1280    26.123    2.2378    0.1309    64.234   200.000     8.712
 3124.2804    26.591    2.1896    0.1763    84.630   200.000     8.030
 3124.4328    25.769    2.3578    0.1550   100.071   200.000     8.652
 3124.5852    28.217    2.1724    0.1725   114.615   200.000     8.139
 3124.7376    33.129    2.2390    0.1703   164.313   200.000     8.425
 3124.8900    35.233    2.3277    0.1724    82.722   200.000     8.562
 3125.0424    21.387    2.2015    0.1412   151.679   200.000     8.825
 3125.1948    21.908    2.3342    0.1202   147.431   200.000     8.172
 3125.3472    31.591    2.2482    0.1589    47.073   200.000     8.118
 3125.4996    31.600    2.1103    0.1596   115.978   200.000     8.121
 3125.6520    27.257    2.3185    0.1384   102.927   200.000     7.702
 3125.8044    32.579    2.2667    0.1523    52.696   200.000     8.243
 3125.9568    33.046    2.2246    0.1805    79.103   200.000     8.396
 3126.1092    26.423    2.3083    0.1620    31.202   200.000     8.309
 3126.2616    25.920    2.1802    0.1433   172.684   200.000     8.908
 3126.4140    26.598    2.2503    0.1762    93.777   200.000     8.369
 3126.5664    18.721    2.2090    0.1815    61.761   200.000     8.203
 3126.7188    18.229    2.2851    0.2130    97.744   200.000     8.516
 3126.8712    36.208    2.2993    0.1268    44.784   200.000     8.464
 3127.0236    30.206    2.2524    0.1754    83.709   200.000     8.610
 3127.1760    27.928    2.2474    0.1443    50.762   200.000     8.919
 3127.3284    29.561    2.3376    0.1765   103.048   200.000     8.530
 3127.4808    30.068    2.3633    0.1617    76.459   200.000     9.489
 3127.6332    25.890    2.2503    0.1647   164.491   200.000     8.612
 3127.7856    34.281    2.2477    0.1776    59.630   200.000     8.384
 3127.9380    19.865    2.2748    0.1558   120.604   200.000     7.877
 3128.0904    33.818    2.3010    0.1409    60.671   200.000     8.098
 3128.2428    31.782    2.2318    0.2162    51.622   200.000     8.224
 3128.3952    34.898    2.2795    0.0990   105.508   200.000     7.990
 3128.5476    29.375    2.2753    0.1694   133.549   200.000     8.681
 3128.7000    31.284    2.2939    0.1695    61.942   200.000     8.437
 3128.8524    24.301    2.2839    0.1533   235.680   200.000     8.118
 3129.0048    29.095    2.2597    0.1343    32.882   200.000     8.390
 3129.1572    29.928    2.3178    0.1935    80.810   200.000     8.746
 3129.3096    27.969    2.2803    0.2051   127.493   200.000     8.467
 3129.4620    25.844    2.2813    0.1713    84.973   200.000     8.733
 3129.6144    32.295    2.1739    0.1602    52.565   200.000     9.138
 3129.7668    28.726    2.2493    0.1306   121.425   200.000     8.901
 3129.9192    17.835    2.2288    0.1602    76.745   200.000     8.054
 3130.0716    23.404    2.3263    0.1467   141.801   200.000     7.794
 3130.2240    29.058    2.3276    0.1985   103.553   200.000     8.134
 3130.3764    35.101    2.2327    0.2083    71.922   200.000     8.569
 3130.5288    25.842    2.3070    0.1612    43.442   200.000     8.042
 3130.6812    30.269    2.2510    0.1731   173.748   200.000     8.407
 3130.8336    28.037    2.2891    0.1368   110.420   200.000     8.285
 3130.9860    15.019    2.2881    0.1596    41.850   200.000     8.442
 3131.1384    33.338    2.2028    0.1342    26.651   200.000     8.903
 3131.2908    33.775    2.2063    0.1309    64.855   200.000     8.445
 3131.4432    27.761    2.1935    0.1657    42.059   200.000     8.850
 3131.5956    38.472    2.2309    0.1453    84.592   200.000     7.937
 3131.7480    33.719    2.1962    0.1764    34.034   200.000     8.354
 3131.9004    21.511    2.2451    0.1598    96.912   200.000     8.721
 3132.0528    30.752    2.1624    0.1146   158.939   200.000     8.848
 3132.2052    20.557    2.2836    0.1761    63.895   200.000     8.335
 3132.3576    31.331    2.2073    0.1180    68.605   200.000     8.106
 3132.5100    28.942    2.2012    0.1312    44.960   200.000     8.185
 3132.6624    31.687    2.2117    0.1698    34.055   200.000     8.867
 3132.8148    25.273    2.2795    0.1379    50.286   200.000     8.916
 3132.9672    32.513    2.2462    0.1463    84.648   200.000     8.144
 3133.1196    30.264    2.3002    0.1233   249.707   200.000     8.702
