~VERSION INFORMATION
 VERS.                 2.0    : CWLS LOG ASCII STANDARD
 WRAP.                 NO     : ONE LINE PER DEPTH STEP
~WELL INFORMATION
 WELL.                 15/9-19A    : Well name
 FLD .                 Statfjord         : Field
 CTRY.                 Norway       : Country
 STRT.M                2100.0000 : START DEPTH
 STOP.M                3400.0000   : STOP DEPTH
 STEP.M                0.1524        : STEP
 NULL.                 -999.25          : NULL VALUE
 SRVC.                 SubsurfAI        : Service company
~CURVE INFORMATION
 DEPT.M                              : Depth
 GR  .GAPI                           : Gamma Ray
 RHOB.G/C3                           : Bulk Density
 NPHI.V/V                            : Neutron Porosity
 RT  .OHMM                           : True Resistivity
 DT  .US/F                           : Sonic
 CALI.IN                             : Caliper
~PARAMETER INFORMATION
 LAT .                 58.4385   : Latitude
 LON .                 1.8356   : Longitude
 DESC.                 Statfjord Fm — Brent Group sandstone, oil producer
~A  DEPT        GR        RHOB      NPHI      RT        DT        CALI
# ...
 3202.1568   117.207    2.5365    0.3238     1.856   172.624     8.289
 3202.3092   109.885    2.4348    0.3394     1.402   155.689     8.513
 3202.4616   108.574    2.5274    0.3923     0.973   138.826     7.959
 3202.6140   122.070    2.4758    0.3376     2.268   158.813     8.187
 3202.7664    91.096    2.5044    0.2820     2.833   200.000     8.770
 3202.9188   121.170    2.5560    0.3257     1.181   165.981     8.333
 3203.0712    99.327    2.5564    0.2791     1.654   200.000     9.074
 3203.2236   106.667    2.5049    0.4727     1.988   140.088     8.627
 3203.3760   137.410    2.5717    0.3229     1.306   167.964     8.364
 3203.5284   106.244    2.5029    0.3520     2.109   151.566     8.895
 3203.6808    91.207    2.3380    0.3044     1.611   181.621     8.118
 3203.8332   119.335    2.4973    0.3398     1.618   160.005     8.179
 3203.9856   116.187    2.5648    0.2507     1.405   200.000     8.828
 3204.1380    93.542    2.4799    0.3418     1.364   155.932     7.939
 3204.2904   107.581    2.5440    0.3095     1.798   179.613     7.861
 3204.4428   107.473    2.4890    0.3523     1.440   161.113     8.349
 3204.5952   101.886    2.5549    0.3977     3.609   138.865     8.860
 3204.7476   107.418    2.3784    0.2783     1.226   191.331     8.266
 3204.9000   112.180    2.5370    0.4266     0.862   135.858     8.195
 3205.0524   106.269    2.5259    0.3117     1.186   165.073     8.938
 3205.2048   118.313    2.5217    0.3149     0.909   177.129     8.573
 3205.3572    87.614    2.4600    0.3133     2.740   174.266     8.314
 3205.5096   104.088    2.4856    0.3284     0.898   179.790     8.286
 3205.6620   109.425    2.5317    0.4164     2.638   129.592     8.287
 3205.8144   130.690    2.4587    0.2961     2.451   193.097     8.978
 3205.9668   107.727    2.5208    0.3326     5.700   165.054     8.361
 3206.1192   119.780    2.4500    0.2929     3.012   189.947     8.410
 3206.2716    89.183    2.4196    0.4091     2.299   133.822     8.004
 3206.4240   123.103    2.4533    0.3081     1.806   173.279     8.951
 3206.5764   125.467    2.5157    0.2706     2.878   200.000     8.191
 3206.7288    94.627    2.5305    0.3135     1.186   169.059     8.282
 3206.8812   122.515    2.5271    0.2616     1.925   195.157     8.209
 3207.0336   105.470    2.4484    0.4331     1.754   134.224     8.526
 3207.1860   108.426    2.4833    0.2199     4.140   200.000     9.304
 3207.3384   131.172    2.4003    0.3147     1.202   172.629     9.039
 3207.4908   112.505    2.5893    0.2470     1.543   200.000     8.282
 3207.6432   119.812    2.5576    0.2383     1.964   200.000     8.708
 3207.7956   121.057    2.4493    0.3315     1.031   165.257     8.300
 3207.9480   109.851    2.4212    0.3263     1.067   164.983     8.320
 3208.1004   114.440    2.5931    0.3248     3.985   160.045     8.070
 3208.2528   138.393    2.5239    0.3485     0.669   155.236     8.148
 3208.4052   104.057    2.4964    0.3659     1.380   149.888     8.900
 3208.5576    98.962    2.4734    0.3226     0.948   170.389     8.129
 3208.7100   135.634    2.5240    0.2917     3.907   186.525     8.895
 3208.8624   111.900    2.5250    0.3425     1.734   157.155     8.405
 3209.0148    93.456    2.4614    0.3734     1.647   155.417     8.439
 3209.1672   132.810    2.5056    0.2796     1.657   194.638     8.775
 3209.3196   110.743    2.4260    0.2970     0.972   200.000     8.397
 3209.4720   102.628    2.4670    0.4041     3.638   138.875     7.637
 3209.6244   125.593    2.4836    0.3028     2.342   185.051     8.753
 3209.7768   108.282    2.4884    0.2781     4.417   196.738     8.134
 3209.9292   108.209    2.4613    0.3400     1.538   152.222     7.687
 3210.0816   128.879    2.4742    0.3993     2.853   142.269     8.883
 3210.2340   108.089    2.4972    0.3528     1.372   155.478     9.313
 3210.3864    99.057    2.5250    0.2561     1.776   200.000     8.287
 3210.5388   117.790    2.5106    0.3248     0.921   169.807     8.692
 3210.6912   112.512    2.4523    0.4168     1.995   143.452     8.478
 3210.8436   111.315    2.4611    0.4155     2.192   130.554     8.093
 3210.9960   106.756    2.4851    0.3050     0.720   183.470     9.172
 3211.1484   108.959    2.4606    0.3477     2.079   160.260     7.655
 3211.3008   105.171    2.6259    0.3050     1.337   190.227     8.320
 3211.4532   127.357    2.5747    0.3109     2.252   178.853     7.980
 3211.6056   113.713    2.4695    0.3093     2.413   184.144     8.507
 3211.7580   100.907    2.4595    0.3397     1.043   157.767     8.860
 3211.9104   111.281    2.6265    0.2944     2.459   188.628     8.489
 3212.0628   114.923    2.4307    0.2400     1.534   200.000     8.573
 3212.2152   115.039    2.4757    0.3779     3.729   152.155     8.368
 3212.3676    99.517    2.3859    0.3917     2.531   135.962     8.406
 3212.5200   110.038    2.5690    0.4380     1.663   139.570     8.695
 3212.6724   127.579    2.4795    0.3087     1.565   175.385     8.365
 3212.8248    90.681    2.4616    0.3072     1.478   181.933     8.079
 3212.9772    82.636    2.4910    0.2898     2.703   188.093     8.065
 3213.1296    92.515    2.5057    0.3202     2.624   175.876     8.711
 3213.2820    92.975    2.4876    0.3768     2.032   144.547     8.822
 3213.4344   131.924    2.3938    0.3458     1.222   161.118     8.144
 3213.5868   119.985    2.5218    0.4015     1.565   137.677     8.275
 3213.7392   104.078    2.4789    0.3168     1.394   168.067     8.446
 3213.8916    98.418    2.5339    0.3656     5.219   155.101     8.034
 3214.0440   133.508    2.5475    0.2935     2.116   184.523     8.139
 3214.1964   141.142    2.4230    0.3087     0.954   178.969     8.833
 3214.3488   103.606    2.5489    0.3668     1.758   138.316     8.900
 3214.5012   105.107    2.4699    0.3790     0.666   147.140     8.533
 3214.6536   108.807    2.5373    0.2734     0.777   200.000     8.495
 3214.8060   100.570    2.4803    0.2601     1.793   200.000     8.622
 3214.9584   100.896    2.5492    0.3133     1.206   165.264     8.577
 3215.1108   105.221    2.5316    0.3742     0.920   147.897     9.068
 3215.2632   110.814    2.4594    0.3049     1.464   189.281     8.213
 3215.4156   109.295    2.4941    0.3213     1.915   168.256     7.949
 3215.5680   119.050    2.5042    0.2589     1.520   200.000     8.117
 3215.7204   108.238    2.6257    0.3409     1.879   162.287     7.393
 3215.8728   112.489    2.4370    0.2713     2.547   198.067     8.293
 3216.0252    95.266    2.5848    0.2724     1.210   200.000     8.352
 3216.1776   101.230    2.5119    0.3031     1.211   177.671     8.606
 3216.3300   103.670    2.4408    0.3579     1.641   149.175     8.007
 3216.4824   118.382    2.5044    0.2772     2.483   196.401     7.860
 3216.6348   105.231    2.4318    0.3578     2.111   158.303     8.355
 3216.7872   107.558    2.4603    0.3737     1.402   143.082     7.649
 3216.9396   106.224    2.5128    0.3267     2.840   170.580     8.303
 3217.0920   101.961    2.5687    0.3020     1.714   191.439     8.195
 3217.2444   112.710    2.5655    0.3031     1.488   177.648     8.336
 3217.3968    98.372    2.5038    0.2956     2.615   181.330     8.237
 3217.5492   113.097    2.5006    0.2607     1.707   200.000     8.402
 3217.7016    97.318    2.5973    0.3675     1.944   149.984     8.215
 3217.8540    98.849    2.5348    0.3362     1.019   161.725     8.383
 3218.0064   114.611    2.5435    0.3553     2.314   146.853     9.201
 3218.1588   109.203    2.5001    0.2748     1.231   200.000     8.352
 3218.3112   104.107    2.5559    0.2509     2.377   200.000     7.899
 3218.4636   128.147    2.5565    0.2735     0.923   200.000     8.055
 3218.6160   122.423    2.4375    0.3082     3.608   180.593     8.787
 3218.7684   104.131    2.4645    0.3114     3.122   182.945     8.799
 3218.9208    82.563    2.5199    0.3644     3.765   138.445     9.020
 3219.0732    89.875    2.5245    0.2938     1.967   186.047     8.484
 3219.2256   102.695    2.5646    0.2910     2.128   181.959     8.828
