~VERSION INFORMATION
 VERS.                 2.0    : CWLS LOG ASCII STANDARD
 WRAP.                 NO     : ONE LINE PER DEPTH STEP
~WELL INFORMATION
 WELL.                 15/9-19A    : Well name
 FLD .                 Statfjord         : Field
 CTRY.                 Norway       : Country
 STRT.M                2100.0000 : START DEPTH
 STOP.M                3400.0000   : STOP DEPTH
 STEP.M                0.1524        : STEP
 NULL.                 -999.25          : NULL VALUE
 SRVC.                 SubsurfAI        : Service company
~CURVE INFORMATION
 DEPT.M                              : Depth
 GR  .GAPI                           : Gamma Ray
 RHOB.G/C3                           : Bulk Density
 NPHI.V/V                            : Neutron Porosity
 RT  .OHMM                           : True Resistivity
 DT  .US/F                           : Sonic
 CALI.IN                             : Caliper
~PARAMETER INFORMATION
 LAT .                 58.4385   : Latitude
 LON .                 1.8356   : Longitude
 DESC.                 Statfjord Fm — Brent Group sandstone, oil producer
~A  DEPT        GR        RHOB      NPHI      RT        DT        CALI
# ...
 3288.2628    95.885    2.4313    0.3671     1.857   149.622     8.344
 3288.4152   113.077    2.4655    0.2879     3.464   187.150     8.302
 3288.5676   123.490    2.4850    0.2901     2.679   193.251     8.598
 3288.7200    98.114    2.5363    0.3433     1.237   162.349     8.336
 3288.8724   112.886    2.4982    0.3431     2.860   163.949     8.308
 3289.0248   133.451    2.4508    0.2952     1.782   190.292     8.669
 3289.1772   116.039    2.4550    0.2911     1.222   195.228     8.140
 3289.3296   110.776    2.5177    0.3796     2.693   137.048     8.297
 3289.4820   130.427    2.4755    0.2768     1.522   192.664     8.907
 3289.6344    89.335    2.5424    0.3393     2.968   159.603     8.438
 3289.7868   106.647    2.5082    0.3092     2.085   191.351     7.832
 3289.9392   117.714    2.4426    0.2651     2.705   200.000     9.050
 3290.0916    87.143    2.4695    0.3930     2.822   137.773     8.755
 3290.2440   106.678    2.5942    0.2588     1.154   200.000     7.910
 3290.3964   125.890    2.5059    0.3398     3.680   155.494     8.119
 3290.5488   109.446    2.5061    0.2287     1.257   200.000     8.444
 3290.7012   102.382    2.4383    0.3080     2.413   177.982     7.794
 3290.8536   103.926    2.4528    0.4149     1.878   132.813     8.747
 3291.0060    91.357    2.4030    0.2942     1.271   195.442     8.442
 3291.1584   121.926    2.4438    0.3410     3.639   161.140     8.218
 3291.3108   111.387    2.4552    0.3429     0.935   165.415     9.073
 3291.4632   102.082    2.4854    0.1857     1.021   200.000     8.534
 3291.6156   100.360    2.4644    0.3190     1.660   164.979     8.268
 3291.7680   127.155    2.4778    0.3246     1.323   165.795     7.912
 3291.9204   100.843    2.4992    0.3158     3.472   185.497     8.511
 3292.0728   108.412    2.5356    0.3863     0.936   136.751     8.840
 3292.2252    98.988    2.4746    0.2217     1.283   200.000     8.584
 3292.3776   135.450    2.4594    0.3226     1.061   165.104     8.555
 3292.5300   135.503    2.4639    0.3594     2.123   152.533     8.929
 3292.6824   129.682    2.5343    0.2742     2.015   197.257     8.024
 3292.8348   115.121    2.4840    0.3332     4.021   169.185     8.362
 3292.9872   100.531    2.4890    0.3493     2.034   153.244     8.688
 3293.1396   119.034    2.4443    0.3964     3.066   144.863     9.114
 3293.2920   108.004    2.5071    0.3739     1.186   150.380     8.916
 3293.4444   107.470    2.4071    0.2904     3.328   186.237     8.553
 3293.5968   145.951    2.5349    0.3756     2.028   150.881     8.503
 3293.7492   107.049    2.4719    0.3697     2.144   157.157     9.080
 3293.9016   110.471    2.4597    0.3786     1.830   142.015     8.230
 3294.0540   132.685    2.5036    0.3670     1.254   152.014     8.986
 3294.2064   101.412    2.4898    0.2851     0.809   197.162     8.698
 3294.3588   105.244    2.5742    0.4270     4.247   137.995     8.306
 3294.5112   122.143    2.5091    0.3243     1.436   171.177     8.665
 3294.6636   106.861    2.5355    0.4119     1.707   128.665     8.383
 3294.8160   102.503    2.4112    0.4292     1.087   130.662     8.458
 3294.9684    95.986    2.5768    0.4364     1.188   134.952     9.231
 3295.1208    92.930    2.4894    0.3027     2.052   181.157     8.683
 3295.2732   118.146    2.4755    0.2862     0.435   189.731     8.386
 3295.4256   106.788    2.5217    0.3575     4.003   154.207     8.237
 3295.5780    86.017    2.4473    0.3518     1.206   155.336     8.046
 3295.7304   119.881    2.5737    0.3099     0.755   170.881     9.014
 3295.8828    79.179    2.5097    0.3244     2.317   165.874     8.687
 3296.0352   100.225    2.4952    0.3199     1.302   168.993     8.806
 3296.1876   132.697    2.4970    0.3241     1.717   166.627     8.480
 3296.3400   108.759    2.4094    0.3309     1.089   164.848     8.353
 3296.4924    95.379    2.6017    0.3710     2.730   146.090     8.536
 3296.6448   131.002    2.5744    0.3317     4.432   164.636     8.553
 3296.7972   100.944    2.5880    0.4145     4.075   135.065     8.093
 3296.9496   109.008    2.5250    0.3402     7.202   161.765     8.232
 3297.1020   113.430    2.4453    0.4081     2.413   136.372     8.475
 3297.2544   128.904    2.4494    0.4400     2.847   142.735     8.113
 3297.4068   129.126    2.5078    0.3277     0.889   161.048     8.056
 3297.5592   115.591    2.5334    0.2980     1.601   179.822     8.162
 3297.7116   105.177    2.3467    0.2797     1.530   198.984     9.120
 3297.8640    96.168    2.5143    0.3076     0.552   172.016     8.404
 3298.0164    95.935    2.5442    0.2782     1.048   191.701     8.757
 3298.1688   138.991    2.5897    0.3286     1.157   165.862     8.107
 3298.3212   117.359    2.5426    0.3897     3.476   135.320     8.364
 3298.4736   106.845    2.4818    0.3124     1.847   161.072     7.623
 3298.6260   113.510    2.4419    0.3497     2.358   162.801     8.989
 3298.7784   119.353    2.4845    0.3246     1.948   172.946     8.131
 3298.9308    89.813    2.4877    0.3294     1.535   174.440     7.605
 3299.0832    92.577    2.4476    0.3111     2.764   174.593     8.051
 3299.2356   128.714    2.5680    0.3991     1.109   142.437     8.077
 3299.3880   101.241    2.5596    0.2701     1.182   200.000     8.397
 3299.5404   119.974    2.4999    0.3087     1.439   171.708     9.311
 3299.6928   119.439    2.5158    0.4146     1.969   145.823     7.616
 3299.8452   119.692    2.5698    0.3372     2.251   168.513     8.327
 3299.9976   106.323    2.5494    0.2745     1.767   200.000     8.286
 3300.1500    92.198    2.5085    0.2906     0.936   184.473     8.833
 3300.3024   112.353    2.5182    0.2840     0.902   189.313     8.080
 3300.4548    87.224    2.5692    0.3705     2.445   148.757     8.663
 3300.6072    93.298    2.5374    0.2556     1.319   200.000     8.773
 3300.7596   108.079    2.4709    0.2788     1.161   200.000     8.136
 3300.9120   105.898    2.3888    0.3225     2.202   171.404     8.654
 3301.0644   101.128    2.5257    0.3221     1.238   164.892     8.556
 3301.2168   102.232    2.4584    0.2685     4.993   200.000     8.547
 3301.3692   111.516    2.4840    0.2181     1.252   200.000     7.820
 3301.5216   114.285    2.5586    0.3607     2.059   149.557     8.878
 3301.6740   113.035    2.4717    0.2537     2.639   200.000     7.999
 3301.8264    87.370    2.5412    0.3334     3.073   166.465     8.958
 3301.9788   119.742    2.4896    0.3882     0.733   140.362     8.308
 3302.1312   100.322    2.4586    0.3453     1.372   163.801     8.085
 3302.2836   102.284    2.4781    0.3428     1.392   164.280     7.563
 3302.4360   116.852    2.5865    0.2918     2.645   182.041     8.286
 3302.5884    66.220    2.5217    0.2858     2.711   191.995     7.987
 3302.7408   114.188    2.4102    0.3702     3.378   148.431     8.039
 3302.8932    99.277    2.5496    0.3315     5.935   160.957     8.122
 3303.0456   138.626    2.4573    0.3847     2.545   153.886     8.147
 3303.1980   103.382    2.4450    0.3714     1.848   154.306     8.232
 3303.3504   113.407    2.4989    0.3817     2.828   136.755     8.829
 3303.5028   118.123    2.5238    0.3221     2.472   167.361     8.664
 3303.6552   115.724    2.5502    0.3438     1.312   163.430     8.090
 3303.8076   127.743    2.5168    0.2841     1.620   181.813     8.113
 3303.9600   119.818    2.4813    0.3427     3.176   152.582     8.445
 3304.1124   105.350    2.6111    0.3321     1.575   163.850     8.772
 3304.2648   114.934    2.4831    0.3408     1.166   157.251     8.856
 3304.4172   123.891    2.5826    0.3687     2.220   146.625     8.966
 3304.5696   106.272    2.5074    0.2551     3.417   200.000     8.360
 3304.7220   111.747    2.4909    0.3196     0.908   168.774     8.568
 3304.8744   118.737    2.4502    0.3389     2.407   160.775     8.315
 3305.0268    77.415    2.4423    0.2896     3.536   200.000     8.562
 3305.1792   119.733    2.4214    0.4346     3.820   135.247     7.461
 3305.3316   112.578    2.5651    0.2592     0.993   200.000     8.137
