~VERSION INFORMATION
 VERS.                 2.0    : CWLS LOG ASCII STANDARD
 WRAP.                 NO     : ONE LINE PER DEPTH STEP
~WELL INFORMATION
 WELL.                 15/9-19A    : Well name
 FLD .                 Statfjord         : Field
 CTRY.                 Norway       : Country
 STRT.M                2100.0000 : START DEPTH
 STOP.M                3400.0000   : STOP DEPTH
 STEP.M                0.1524        : STEP
 NULL.                 -999.25          : NULL VALUE
 SRVC.                 SubsurfAI        : Service company
~CURVE INFORMATION
 DEPT.M                              : Depth
 GR  .GAPI                           : Gamma Ray
 RHOB.G/C3                           : Bulk Density
 NPHI.V/V                            : Neutron Porosity
 RT  .OHMM                           : True Resistivity
 DT  .US/F                           : Sonic
 CALI.IN                             : Caliper
~PARAMETER INFORMATION
 LAT .                 58.4385   : Latitude
 LON .                 1.8356   : Longitude
 DESC.                 Statfjord Fm — Brent Group sandstone, oil producer
~A  DEPT        GR        RHOB      NPHI      RT        DT        CALI
# ...
 2943.8388    28.836    2.2099    0.1558    42.158   200.000     8.581
 2943.9912    28.639    2.2100    0.2158    90.220   200.000     7.961
 2944.1436    29.264    2.2024    0.1830   114.481   200.000     8.408
 2944.2960    26.370    2.3513    0.1413    91.721   200.000     8.468
 2944.4484    23.159    2.2397    0.1973   166.621   200.000     8.074
 2944.6008    33.214    2.2361    0.1785    81.600   200.000     8.651
 2944.7532    22.663    2.1683    0.1851   172.763   200.000     7.246
 2944.9056    29.582    2.1980    0.1788   147.695   200.000     8.358
 2945.0580    29.909    2.1955    0.1859    46.625   200.000     8.002
 2945.2104    24.046    2.2601    0.1422   125.430   200.000     7.962
 2945.3628    33.540    2.3010    0.1607   237.565   200.000     8.211
 2945.5152    34.177    2.2297    0.1661    76.814   200.000     7.991
 2945.6676    28.296    2.3102    0.1481   143.432   200.000     9.324
 2945.8200    21.958    2.3238    0.1541    65.428   200.000     8.668
 2945.9724    26.557    2.1741    0.1586    49.994   200.000     8.787
 2946.1248    25.330    2.3139    0.1841    61.702   200.000     7.852
 2946.2772    31.442    2.2171    0.1199   167.885   200.000     7.983
 2946.4296    39.408    2.2695    0.1448    61.748   200.000     8.211
 2946.5820    30.043    2.2836    0.1373    95.457   200.000     7.976
 2946.7344    18.147    2.3326    0.1429    81.453   200.000     8.756
 2946.8868    27.107    2.2875    0.1566    83.537   200.000     8.230
 2947.0392    22.105    2.2870    0.1267    59.148   200.000     8.724
 2947.1916    23.659    2.2527    0.1577    45.103   200.000     8.910
 2947.3440    28.856    2.2413    0.1842    40.346   200.000     7.723
 2947.4964    25.743    2.1087    0.1500    79.141   200.000     8.763
 2947.6488    26.058    2.1774    0.2055   103.530   200.000     7.957
 2947.8012    27.397    2.2020    0.1901    37.083   200.000     7.793
 2947.9536    28.217    2.2275    0.1838   159.997   200.000     8.500
 2948.1060    24.382    2.2799    0.1411    42.890   200.000     8.292
 2948.2584    25.618    2.2937    0.1815    52.126   200.000     7.947
 2948.4108    27.228    2.2060    0.1619    61.254   200.000     9.068
 2948.5632    29.401    2.1945    0.1704   206.903   200.000     8.076
 2948.7156    31.960    2.1928    0.1597    42.427   200.000     7.822
 2948.8680    30.548    2.2097    0.1702   156.534   200.000     8.212
 2949.0204    26.050    2.2084    0.2204   129.724   200.000     8.101
 2949.1728    34.778    2.2250    0.1558   107.398   200.000     8.849
 2949.3252    27.155    2.2038    0.1796   108.500   200.000     8.442
 2949.4776    19.325    2.2756    0.1716    45.608   200.000     8.543
 2949.6300    21.071    2.2823    0.1589    95.285   200.000     7.942
 2949.7824    25.002    2.2289    0.1885    41.500   200.000     8.678
 2949.9348    22.230    2.2959    0.1277    48.348   200.000     8.758
 2950.0872    26.898    2.3105    0.1260   301.432   200.000     8.537
 2950.2396    24.798    2.3056    0.2007   103.345   200.000     7.853
 2950.3920    34.948    2.2612    0.1420   124.638   200.000     8.628
 2950.5444    25.510    2.2214    0.1766   138.744   200.000     7.881
 2950.6968    30.142    2.3378    0.1335   331.726   200.000     8.859
 2950.8492    32.359    2.2716    0.1827   126.840   200.000     8.821
 2951.0016    25.826    2.3010    0.1544    64.205   200.000     8.509
 2951.1540    33.574    2.3614    0.1623    81.375   200.000     8.813
 2951.3064    29.183    2.2623    0.1801    43.508   200.000     9.095
 2951.4588    26.235    2.2574    0.1944    76.313   200.000     8.700
 2951.6112    27.721    2.3012    0.1678   181.398   200.000     7.974
 2951.7636    27.229    2.2968    0.1629    50.383   200.000     8.578
 2951.9160    33.018    2.2665    0.1356   126.686   200.000     8.650
 2952.0684    21.060    2.3085    0.1681   200.068   200.000     8.477
 2952.2208    30.026    2.2132    0.2021   357.693   200.000     8.890
 2952.3732    23.435    2.3271    0.0828    60.967   200.000     8.380
 2952.5256    25.136    2.1685    0.1370    77.219   200.000     7.885
 2952.6780    31.021    2.2543    0.1529    62.733   200.000     8.109
 2952.8304    29.798    2.3191    0.1911    58.697   200.000     7.934
 2952.9828    21.758    2.2504    0.1669    90.519   200.000     8.512
 2953.1352    26.767    2.2918    0.1434   123.334   200.000     7.936
 2953.2876    24.409    2.3165    0.1708    81.496   200.000     8.267
 2953.4400    36.782    2.2882    0.1515   223.284   200.000     8.438
 2953.5924    19.297    2.2590    0.1675   103.265   200.000     7.996
 2953.7448    30.256    2.2868    0.1913    62.274   200.000     8.427
 2953.8972    29.901    2.2460    0.1289   100.911   200.000     9.847
 2954.0496    21.679    2.1646    0.1581   115.126   200.000     8.579
 2954.2020    23.035    2.2289    0.1524    43.388   200.000     8.428
 2954.3544    34.993    2.2426    0.1497    45.017   200.000     8.729
 2954.5068    29.703    2.2571    0.1808   100.396   200.000     8.001
 2954.6592    26.575    2.2463    0.2041    58.762   200.000     8.280
 2954.8116    22.891    2.2865    0.1848    98.982   200.000     8.044
 2954.9640    32.189    2.3167    0.1685   102.106   200.000     7.682
 2955.1164    26.531    2.2394    0.1956    85.875   200.000     8.529
 2955.2688    34.016    2.2679    0.1663    37.135   200.000     8.639
 2955.4212    23.220    2.2214    0.1544   184.068   200.000     8.503
 2955.5736    29.151    2.2654    0.1283    51.573   200.000     8.252
 2955.7260    30.337    2.2323    0.1204   320.333   200.000     8.600
 2955.8784    29.265    2.2199    0.1504    31.609   200.000     9.034
 2956.0308    30.018    2.2004    0.1951   149.799   200.000     7.162
 2956.1832    19.907    2.2935    0.1637    64.954   200.000     8.565
 2956.3356    31.428    2.2431    0.1708    77.522   200.000     8.940
 2956.4880    26.429    2.2277    0.1117    88.344   200.000     9.006
 2956.6404    27.011    2.1884    0.1529    80.086   200.000     8.613
 2956.7928    26.856    2.3192    0.1548    59.981   200.000     9.196
 2956.9452    32.520    2.2657    0.1697    72.467   200.000     8.174
 2957.0976    30.949    2.1682    0.1656   140.159   200.000     8.197
 2957.2500    36.190    2.2807    0.1631   139.797   200.000     8.536
 2957.4024    31.660    2.2484    0.1177    61.081   200.000     8.132
 2957.5548    25.122    2.3140    0.1562    46.003   200.000     8.241
 2957.7072    27.074    2.2889    0.1974    45.796   200.000     7.827
 2957.8596    18.330    2.2611    0.1678   151.896   200.000     8.069
 2958.0120    31.169    2.2545    0.1728   113.921   200.000     8.443
 2958.1644    22.360    2.3204    0.1387   115.847   200.000     9.307
 2958.3168    30.167    2.2651    0.1240    53.416   200.000     8.640
 2958.4692    32.990    2.2449    0.1498   128.213   200.000     7.874
 2958.6216    30.346    2.2496    0.1773    32.470   200.000     8.282
 2958.7740    27.481    2.2945    0.2021   118.121   200.000     8.716
 2958.9264    28.836    2.1774    0.1937    92.350   200.000     8.927
 2959.0788    26.536    2.2894    0.1721   113.981   200.000     9.076
 2959.2312    30.276    2.2495    0.1733   120.826   200.000     9.224
 2959.3836    23.516    2.1415    0.1791    87.034   200.000     8.432
 2959.5360    18.936    2.2339    0.2025   161.297   200.000     8.378
 2959.6884    22.020    2.3538    0.1340   128.370   200.000     8.259
 2959.8408    35.510    2.2184    0.1707    41.408   200.000     8.620
 2959.9932    33.488    2.2140    0.0956   100.398   200.000     8.424
 2960.1456    23.734    2.1442    0.1353    62.607   200.000     7.822
 2960.2980    30.929    2.2140    0.1438    94.640   200.000     8.526
 2960.4504    26.468    2.3157    0.1745    49.150   200.000     8.104
 2960.6028    24.113    2.2598    0.1889   147.845   200.000     8.169
 2960.7552    29.773    2.3749    0.1833    58.280   200.000     8.322
 2960.9076    22.275    2.2875    0.1679   208.757   200.000     8.341
