~VERSION INFORMATION
 VERS.                 2.0    : CWLS LOG ASCII STANDARD
 WRAP.                 NO     : ONE LINE PER DEPTH STEP
~WELL INFORMATION
 WELL.                 15/9-19A    : Well name
 FLD .                 Statfjord         : Field
 CTRY.                 Norway       : Country
 STRT.M                2100.0000 : START DEPTH
 STOP.M                3400.0000   : STOP DEPTH
 STEP.M                0.1524        : STEP
 NULL.                 -999.25          : NULL VALUE
 SRVC.                 SubsurfAI        : Service company
~CURVE INFORMATION
 DEPT.M                              : Depth
 GR  .GAPI                           : Gamma Ray
 RHOB.G/C3                           : Bulk Density
 NPHI.V/V                            : Neutron Porosity
 RT  .OHMM                           : True Resistivity
 DT  .US/F                           : Sonic
 CALI.IN                             : Caliper
~PARAMETER INFORMATION
 LAT .                 58.4385   : Latitude
 LON .                 1.8356   : Longitude
 DESC.                 Statfjord Fm — Brent Group sandstone, oil producer
~A  DEPT        GR        RHOB      NPHI      RT        DT        CALI
# ...
 2444.4240    30.511    2.2970    0.1822    56.742   200.000     8.697
 2444.5764    29.788    2.2709    0.2377    42.461   200.000     8.802
 2444.7288    35.725    2.1840    0.1946    34.727   200.000     8.596
 2444.8812    27.768    2.2612    0.2324    32.140   200.000     8.284
 2445.0336    29.637    2.2961    0.2066    24.135   200.000     8.622
 2445.1860    25.886    2.2900    0.1418    23.368   200.000     8.284
 2445.3384    32.496    2.3120    0.1927    73.257   200.000     8.296
 2445.4908    26.610    2.2528    0.1478    45.085   200.000     8.384
 2445.6432    25.736    2.3050    0.1841    32.925   200.000     9.098
 2445.7956    33.048    2.3176    0.2025    52.692   200.000     8.360
 2445.9480    41.807    2.2977    0.1376    60.602   200.000     8.484
 2446.1004    34.127    2.2661    0.1677    73.136   200.000     9.006
 2446.2528    30.448    2.2773    0.1712    60.524   200.000     8.879
 2446.4052    39.405    2.2984    0.1739   103.211   200.000     9.358
 2446.5576    35.797    2.2498    0.1821    43.018   200.000     8.304
 2446.7100    28.622    2.2439    0.1550    35.369   200.000     8.529
 2446.8624    32.991    2.2390    0.1888    37.279   200.000     8.815
 2447.0148    32.196    2.2507    0.1595    58.715   200.000     8.280
 2447.1672    36.867    2.2540    0.1614    30.590   200.000     8.472
 2447.3196    31.917    2.2373    0.1919    24.300   200.000     8.354
 2447.4720    31.654    2.2481    0.1747    47.857   200.000     8.073
 2447.6244    31.176    2.3207    0.1907    46.246   200.000     9.087
 2447.7768    37.274    2.2920    0.1348    28.777   200.000     8.918
 2447.9292    37.452    2.2368    0.1513    80.615   200.000     8.205
 2448.0816    30.354    2.3108    0.2066    39.511   200.000     8.315
 2448.2340    31.690    2.2995    0.2199    42.638   200.000     8.702
 2448.3864    27.470    2.3204    0.1877    33.032   200.000     8.288
 2448.5388    34.630    2.2261    0.1547    42.925   200.000     8.332
 2448.6912    32.410    2.2771    0.1574    41.052   200.000     8.748
 2448.8436    34.756    2.3616    0.1566    52.903   200.000     8.245
 2448.9960    33.439    2.2969    0.1786    13.084   200.000     8.258
 2449.1484    33.383    2.2332    0.1769    17.334   200.000     8.573
 2449.3008    24.289    2.2989    0.1802   119.963   200.000     9.124
 2449.4532    33.029    2.2318    0.2007    16.353   200.000     8.643
 2449.6056    30.958    2.2325    0.1925    36.786   200.000     7.962
 2449.7580    37.663    2.2515    0.1567    29.306   200.000     8.580
 2449.9104    35.819    2.2702    0.1623    30.083   200.000     8.534
 2450.0628    31.027    2.2546    0.1721    31.882   200.000     7.994
 2450.2152    33.555    2.2265    0.1948    21.468   200.000     8.090
 2450.3676    30.135    2.2189    0.1977    45.449   200.000     8.774
 2450.5200    40.808    2.2401    0.1393    17.335   200.000     7.816
 2450.6724    29.998    2.3070    0.2375    61.544   200.000     9.556
 2450.8248    25.866    2.2792    0.1851    34.120   200.000     8.343
 2450.9772    33.501    2.2498    0.1724    61.500   200.000     7.897
 2451.1296    34.334    2.2853    0.1028   114.225   200.000     8.495
 2451.2820    29.205    2.2127    0.1557    21.853   200.000     8.284
 2451.4344    34.558    2.3240    0.1816    72.561   200.000     7.638
 2451.5868    29.534    2.2466    0.1745    94.223   200.000     9.110
 2451.7392    33.167    2.2784    0.1728    28.806   200.000     8.758
 2451.8916    38.564    2.2845    0.1388    28.484   200.000     8.578
 2452.0440    36.658    2.3051    0.2095    14.429   200.000     8.237
 2452.1964    36.000    2.2300    0.1488    73.432   200.000     8.861
 2452.3488    26.629    2.2033    0.2132    21.435   200.000     9.130
 2452.5012    43.952    2.3320    0.1642    66.834   200.000     8.343
 2452.6536    34.216    2.3066    0.1562    45.996   200.000     8.462
 2452.8060    32.952    2.3013    0.1856    33.750   200.000     8.597
 2452.9584    36.173    2.3648    0.1399    40.999   200.000     8.285
 2453.1108    37.656    2.2772    0.1322    34.960   200.000     8.279
 2453.2632    32.691    2.1979    0.1655    27.694   200.000     8.110
 2453.4156    37.480    2.3618    0.1496    77.576   200.000     8.120
 2453.5680    27.920    2.2522    0.1946   168.896   200.000     8.025
 2453.7204    30.330    2.2997    0.1483    47.233   200.000     8.438
 2453.8728    32.098    2.2811    0.1847    59.569   200.000     7.989
 2454.0252    33.844    2.2717    0.1595    92.975   200.000     8.580
 2454.1776    28.929    2.3085    0.1834    50.266   200.000     7.830
 2454.3300    33.739    2.2883    0.1732    65.813   200.000     8.797
 2454.4824    31.361    2.2512    0.1817   103.786   200.000     8.441
 2454.6348    30.668    2.2996    0.1528    63.122   200.000     8.191
 2454.7872    29.911    2.2624    0.1688    31.889   200.000     9.179
 2454.9396    34.095    2.2666    0.1643    52.862   200.000     8.540
 2455.0920    30.478    2.2952    0.1915    34.323   200.000     8.502
 2455.2444    35.892    2.2399    0.1382    15.750   200.000     8.214
 2455.3968    29.324    2.2627    0.1885    64.957   200.000     8.638
 2455.5492    40.981    2.2436    0.1489    24.200   200.000     8.553
 2455.7016    25.686    2.2656    0.2041    45.663   200.000     8.775
 2455.8540    27.465    2.2444    0.1654    91.194   200.000     8.595
 2456.0064    28.976    2.3021    0.2017    31.459   200.000     8.527
 2456.1588    30.595    2.3316    0.2233    75.978   200.000     8.043
 2456.3112    30.373    2.3875    0.1720    55.887   200.000     8.314
 2456.4636    34.788    2.3196    0.1910    54.457   200.000     7.786
 2456.6160    30.123    2.3393    0.1839    38.382   200.000     9.116
 2456.7684    21.005    2.3051    0.1482    23.990   200.000     9.211
 2456.9208    31.589    2.2722    0.1192    28.530   200.000     8.304
 2457.0732    31.472    2.3477    0.1740    50.313   200.000     8.524
 2457.2256    28.608    2.3455    0.2084    88.735   200.000     8.152
 2457.3780    26.677    2.2624    0.1700   130.465   200.000     8.891
 2457.5304    33.653    2.2190    0.2126    42.313   200.000     7.885
 2457.6828    38.371    2.2823    0.1985    45.109   200.000     8.648
 2457.8352    23.778    2.2555    0.1960    16.996   200.000     8.697
 2457.9876    29.332    2.2667    0.2527    64.064   200.000     8.908
 2458.1400    24.350    2.3073    0.2122    21.389   200.000     8.568
 2458.2924    36.961    2.3432    0.1502    25.790   200.000     8.118
 2458.4448    22.189    2.2620    0.1772    45.617   200.000     9.256
 2458.5972    34.891    2.3000    0.1699    33.323   200.000     8.219
 2458.7496    28.770    2.2852    0.1727    59.401   200.000     8.837
 2458.9020    33.108    2.1872    0.1720    28.501   200.000     8.346
 2459.0544    35.703    2.2210    0.1506    47.031   200.000     9.200
 2459.2068    27.889    2.3044    0.1470    29.608   200.000     8.497
 2459.3592    31.478    2.2528    0.1624    18.089   200.000     8.414
 2459.5116    32.015    2.3090    0.1730    35.511   200.000     8.237
 2459.6640    28.998    2.3965    0.1932    51.444   200.000     8.169
 2459.8164    26.485    2.3030    0.2301    47.333   200.000     8.881
 2459.9688    23.936    2.3453    0.1300    27.731   200.000     8.783
 2460.1212    30.406    2.3159    0.2469    37.650   200.000     8.665
 2460.2736    38.610    2.2830    0.1919    74.553   200.000     8.397
 2460.4260    39.417    2.3266    0.1696    53.501   200.000     9.654
 2460.5784    29.614    2.2523    0.1871    13.539   200.000     8.804
 2460.7308    33.760    2.2498    0.1490    60.552   200.000     8.240
 2460.8832    26.211    2.3201    0.1553    84.331   200.000     8.006
 2461.0356    42.262    2.2307    0.1883    31.164   200.000     8.808
 2461.1880    31.802    2.2608    0.1926    98.912   200.000     8.484
 2461.3404    35.601    2.2308    0.1807    90.053   200.000     8.159
 2461.4928    31.957    2.2044    0.2053    34.992   200.000     8.465
