~VERSION INFORMATION
 VERS.                 2.0    : CWLS LOG ASCII STANDARD
 WRAP.                 NO     : ONE LINE PER DEPTH STEP
~WELL INFORMATION
 WELL.                 15/9-19A    : Well name
 FLD .                 Statfjord         : Field
 CTRY.                 Norway       : Country
 STRT.M                2100.0000 : START DEPTH
 STOP.M                3400.0000   : STOP DEPTH
 STEP.M                0.1524        : STEP
 NULL.                 -999.25          : NULL VALUE
 SRVC.                 SubsurfAI        : Service company
~CURVE INFORMATION
 DEPT.M                              : Depth
 GR  .GAPI                           : Gamma Ray
 RHOB.G/C3                           : Bulk Density
 NPHI.V/V                            : Neutron Porosity
 RT  .OHMM                           : True Resistivity
 DT  .US/F                           : Sonic
 CALI.IN                             : Caliper
~PARAMETER INFORMATION
 LAT .                 58.4385   : Latitude
 LON .                 1.8356   : Longitude
 DESC.                 Statfjord Fm — Brent Group sandstone, oil producer
~A  DEPT        GR        RHOB      NPHI      RT        DT        CALI
# ...
 2616.6360    34.040    2.2907    0.2008    70.476   200.000     8.373
 2616.7884    29.861    2.2600    0.1974    43.546   200.000     8.526
 2616.9408    31.539    2.2857    0.1593    63.362   200.000     8.583
 2617.0932    23.179    2.2403    0.1954    20.327   200.000     8.236
 2617.2456    31.902    2.3086    0.1829    42.846   200.000     8.352
 2617.3980    28.145    2.2459    0.1421    38.328   200.000     8.311
 2617.5504    32.516    2.3387    0.1909    37.505   200.000     8.000
 2617.7028    40.350    2.3458    0.1536    16.706   200.000     8.586
 2617.8552    31.803    2.3828    0.1353    43.699   200.000     8.643
 2618.0076    34.185    2.2909    0.2029    57.857   200.000     9.048
 2618.1600    23.544    2.1976    0.1920    57.620   200.000     7.935
 2618.3124    37.927    2.2445    0.1617    20.509   200.000     8.826
 2618.4648    37.993    2.3102    0.2022    48.132   200.000     8.174
 2618.6172    42.398    2.2487    0.2197    53.643   200.000     8.611
 2618.7696    30.485    2.3269    0.1764    83.054   200.000     7.991
 2618.9220    26.257    2.2999    0.1983    75.848   200.000     8.999
 2619.0744    44.439    2.2859    0.1740    15.629   200.000     8.192
 2619.2268    24.514    2.1718    0.1610   116.252   200.000     8.330
 2619.3792    28.571    2.3116    0.1868    26.638   200.000     7.910
 2619.5316    30.940    2.2839    0.1759    55.422   200.000     8.714
 2619.6840    33.657    2.2694    0.1624    44.287   200.000     8.509
 2619.8364    36.713    2.2166    0.1750    77.141   200.000     8.144
 2619.9888    55.767    2.3658    0.3119     1.506   184.560     7.944
 2620.1412    94.210    2.4676    0.3362     1.184   167.967     8.458
 2620.2936   117.787    2.4892    0.2508     2.954   200.000     8.294
 2620.4460   103.582    2.4148    0.3241     1.570   166.161     8.567
 2620.5984   102.033    2.3946    0.3481     2.554   159.724     7.791
 2620.7508   104.591    2.4071    0.2406     2.506   200.000     8.382
 2620.9032    69.543    2.5711    0.3063     6.412   179.186     9.103
 2621.0556    92.450    2.4648    0.3079     2.479   178.971     8.105
 2621.2080    94.023    2.4373    0.2928     2.870   188.282     8.821
 2621.3604   106.795    2.4840    0.3115     6.896   174.495     9.048
 2621.5128    91.896    2.4479    0.2562     2.582   200.000     8.532
 2621.6652    91.544    2.5556    0.2735     1.857   200.000     8.164
 2621.8176    99.370    2.5016    0.2780     2.282   192.118     8.149
 2621.9700    72.898    2.5042    0.2412     3.450   200.000     8.010
 2622.1224   102.088    2.4416    0.2682     1.835   200.000     8.222
 2622.2748   111.846    2.4516    0.2408     1.973   200.000     8.520
 2622.4272    90.596    2.4712    0.3081     1.571   176.244     8.825
 2622.5796    94.750    2.4816    0.2994     0.627   176.381     8.607
 2622.7320    82.472    2.5172    0.3260     4.385   163.020     8.591
 2622.8844    54.449    2.4956    0.2710     1.579   196.545     8.520
 2623.0368   100.756    2.4924    0.3094     1.673   174.851     7.750
 2623.1892   102.284    2.5267    0.3211     3.425   166.419     9.152
 2623.3416   116.731    2.3864    0.4083     2.573   135.896     8.449
 2623.4940    97.744    2.5209    0.3971     4.739   131.888     8.140
 2623.6464    98.079    2.4126    0.3032     0.870   179.177     9.019
 2623.7988    95.712    2.4643    0.3026     1.887   185.137     8.801
 2623.9512    88.927    2.4892    0.3495     1.362   158.407     9.445
 2624.1036   100.963    2.4820    0.2725     2.143   200.000     8.856
 2624.2560    72.019    2.4144    0.2875     1.202   185.892     8.475
 2624.4084    88.415    2.3889    0.3006     4.717   177.862     8.573
 2624.5608    82.154    2.3993    0.3476     2.187   152.152     8.146
 2624.7132    98.391    2.4088    0.2366     1.057   200.000     8.212
 2624.8656    94.839    2.5134    0.2163     2.333   200.000     8.882
 2625.0180    85.143    2.3627    0.2739     2.530   197.857     9.051
 2625.1704   118.578    2.4815    0.2675     2.364   200.000     9.501
 2625.3228   114.883    2.4179    0.3665     1.835   148.285     8.480
 2625.4752    99.281    2.4324    0.3291     2.532   172.702     9.070
 2625.6276    81.701    2.4342    0.3092     1.562   175.798     8.148
 2625.7800    90.514    2.4775    0.2823     6.088   200.000     9.126
 2625.9324    72.593    2.4455    0.3090     2.795   171.284     8.726
 2626.0848   107.664    2.4371    0.2857     2.590   188.250     8.536
 2626.2372    93.355    2.5112    0.2965     1.832   184.456     8.155
 2626.3896   105.405    2.4182    0.3142     2.467   172.785     8.251
 2626.5420   110.647    2.5450    0.3013     1.733   180.182     8.588
 2626.6944    99.904    2.4618    0.3714     1.431   145.702     8.742
 2626.8468   108.060    2.4468    0.2090     1.716   200.000     8.308
 2626.9992    90.515    2.4198    0.2405     4.808   200.000     8.564
 2627.1516    88.344    2.4524    0.3486     1.238   166.540     9.192
 2627.3040   103.015    2.4256    0.2500     3.775   200.000     8.722
 2627.4564    96.299    2.5086    0.3649     0.818   152.456     8.995
 2627.6088   100.703    2.4684    0.2537     1.384   200.000     8.546
 2627.7612    73.664    2.4908    0.2848     1.288   194.545     8.669
 2627.9136   116.705    2.5325    0.2814     3.489   191.895     8.115
 2628.0660    93.942    2.3704    0.3857     2.556   149.205     8.215
 2628.2184    98.097    2.4327    0.3666     0.860   152.038     8.001
 2628.3708   102.992    2.4556    0.2929     1.910   182.120     8.813
 2628.5232   105.319    2.4355    0.2747     2.482   198.685     9.356
 2628.6756   105.347    2.4607    0.3428     4.067   160.623     8.841
 2628.8280    96.038    2.4921    0.2924     1.125   184.951     8.750
 2628.9804    99.361    2.4838    0.1852     2.009   200.000     8.230
 2629.1328   122.575    2.4026    0.2902     4.634   200.000     8.522
 2629.2852    99.126    2.4582    0.3241     4.117   179.764     8.237
 2629.4376    87.057    2.6031    0.2530     2.045   200.000     7.747
 2629.5900   108.225    2.4621    0.3608     2.641   156.704     8.606
 2629.7424    94.735    2.5260    0.3055     2.996   177.356     9.093
 2629.8948    95.061    2.5220    0.2966     4.299   185.996     8.677
 2630.0472    98.241    2.4190    0.2853     4.012   198.597     8.518
 2630.1996   122.151    2.4300    0.2580     1.866   200.000     8.271
 2630.3520    85.161    2.4947    0.3450     2.177   154.582     8.424
 2630.5044   100.672    2.4270    0.2946     2.163   187.721     8.295
 2630.6568   140.723    2.4619    0.2518     1.216   200.000     9.258
 2630.8092    98.565    2.5128    0.2393     1.505   200.000     9.044
 2630.9616    71.630    2.4096    0.2043     7.196   200.000     8.608
 2631.1140   111.642    2.5362    0.3065     1.485   178.454     8.833
 2631.2664    95.089    2.4616    0.3543     1.739   151.622     8.639
 2631.4188    96.204    2.4310    0.2798     2.814   191.186     8.833
 2631.5712   102.851    2.3771    0.2371     2.543   200.000     8.927
 2631.7236    99.653    2.4813    0.2467     2.952   200.000     8.453
 2631.8760    61.353    2.4849    0.2815     2.518   199.276     8.418
 2632.0284   104.247    2.5037    0.3497     1.022   155.892     8.748
 2632.1808    99.447    2.4808    0.2488     1.055   200.000     8.273
 2632.3332    80.932    2.4363    0.2363     2.083   200.000     8.220
 2632.4856    94.821    2.4570    0.2576     2.226   200.000     8.477
 2632.6380    89.548    2.3656    0.2770     1.593   200.000     8.639
 2632.7904    78.517    2.4772    0.3460     2.095   147.088     7.837
 2632.9428   113.066    2.4819    0.3621     1.856   154.375     8.109
 2633.0952    90.598    2.4547    0.2671     3.942   200.000     8.131
 2633.2476   101.490    2.4489    0.3060     5.426   185.126     8.019
 2633.4000   118.029    2.4150    0.3524     1.038   153.349     8.732
 2633.5524   100.534    2.4572    0.2886     4.525   195.986     7.922
 2633.7048   100.157    2.4624    0.3350     3.526   160.286     8.431
