~VERSION INFORMATION
 VERS.                 2.0    : CWLS LOG ASCII STANDARD
 WRAP.                 NO     : ONE LINE PER DEPTH STEP
~WELL INFORMATION
 WELL.                 15/9-19A    : Well name
 FLD .                 Statfjord         : Field
 CTRY.                 Norway       : Country
 STRT.M                2100.0000 : START DEPTH
 STOP.M                3400.0000   : STOP DEPTH
 STEP.M                0.1524        : STEP
 NULL.                 -999.25          : NULL VALUE
 SRVC.                 SubsurfAI        : Service company
~CURVE INFORMATION
 DEPT.M                              : Depth
 GR  .GAPI                           : Gamma Ray
 RHOB.G/C3                           : Bulk Density
 NPHI.V/V                            : Neutron Porosity
 RT  .OHMM                           : True Resistivity
 DT  .US/F                           : Sonic
 CALI.IN                             : Caliper
~PARAMETER INFORMATION
 LAT .                 58.4385   : Latitude
 LON .                 1.8356   : Longitude
 DESC.                 Statfjord Fm — Brent Group sandstone, oil producer
~A  DEPT        GR        RHOB      NPHI      RT        DT        CALI
# ...
 2530.5300    30.987    2.2488    0.1716    40.365   200.000     8.280
 2530.6824    26.252    2.1595    0.1921    36.932   200.000     8.390
 2530.8348    32.486    2.2074    0.2239    24.188   200.000     7.286
 2530.9872    29.872    2.2650    0.1780    38.500   200.000     8.621
 2531.1396    34.177    2.3152    0.1887    44.302   200.000     8.889
 2531.2920    30.393    2.3735    0.1511    83.884   200.000     8.409
 2531.4444    27.961    2.2562    0.1866    30.210   200.000     8.227
 2531.5968    41.298    2.2897    0.1904    23.868   200.000     8.650
 2531.7492    26.920    2.1461    0.2049    30.826   200.000     8.198
 2531.9016    33.983    2.2364    0.1526    24.969   200.000     8.369
 2532.0540    39.692    2.2409    0.1887    39.235   200.000     8.839
 2532.2064    30.672    2.2063    0.1729    84.653   200.000     8.220
 2532.3588    30.043    2.2330    0.1502    56.185   200.000     7.951
 2532.5112    33.695    2.2330    0.2050    63.394   200.000     8.510
 2532.6636    32.263    2.2717    0.1846    52.834   200.000     8.689
 2532.8160    27.899    2.2618    0.1535    23.294   200.000     8.102
 2532.9684    29.018    2.2408    0.2126    20.542   200.000     8.637
 2533.1208    31.557    2.2597    0.1464    56.235   200.000     7.814
 2533.2732    35.548    2.2737    0.1715    33.672   200.000     9.196
 2533.4256    34.677    2.3386    0.1767    61.881   200.000     8.578
 2533.5780    26.786    2.2804    0.2129    67.050   200.000     8.447
 2533.7304    29.759    2.1982    0.1512    33.876   200.000     8.161
 2533.8828    26.686    2.3089    0.2208    58.113   200.000     9.293
 2534.0352    35.636    2.3083    0.2086   155.969   200.000     8.746
 2534.1876    32.790    2.2773    0.1838   113.811   200.000     8.522
 2534.3400    24.264    2.2090    0.1484    42.570   200.000     8.198
 2534.4924    35.715    2.3231    0.1877    45.371   200.000     8.803
 2534.6448    38.467    2.1961    0.1594    25.793   200.000     8.266
 2534.7972    34.162    2.3227    0.2230    62.299   200.000     8.700
 2534.9496    30.708    2.3039    0.1757    21.362   200.000     7.982
 2535.1020    33.552    2.2627    0.1459    70.799   200.000     8.804
 2535.2544    37.755    2.3064    0.1882    28.289   200.000     8.083
 2535.4068    29.238    2.2789    0.2010    57.425   200.000     8.790
 2535.5592    27.268    2.3204    0.1605    51.299   200.000     8.124
 2535.7116    32.988    2.2443    0.1563    90.831   200.000     8.436
 2535.8640    30.228    2.3181    0.1788    29.793   200.000     7.864
 2536.0164    27.961    2.3269    0.1957    30.267   200.000     8.105
 2536.1688    26.641    2.1969    0.1268    66.093   200.000     8.200
 2536.3212    27.968    2.3308    0.1718    47.008   200.000     8.103
 2536.4736    33.800    2.3036    0.1923    40.124   200.000     8.523
 2536.6260    41.491    2.2950    0.1913    34.405   200.000     8.179
 2536.7784    36.615    2.2302    0.1003    38.516   200.000     8.053
 2536.9308    30.213    2.2454    0.1851   109.542   200.000     7.723
 2537.0832    33.208    2.2837    0.1986    91.058   200.000     7.732
 2537.2356    36.369    2.2443    0.1728    62.123   200.000     8.880
 2537.3880    28.674    2.2288    0.1558    28.921   200.000     8.284
 2537.5404    36.309    2.2812    0.1535    78.292   200.000     8.126
 2537.6928    25.407    2.2817    0.1762    29.323   200.000     8.241
 2537.8452    34.699    2.3579    0.1544    44.780   200.000     8.982
 2537.9976    31.832    2.2374    0.1680    36.157   200.000     8.837
 2538.1500    32.511    2.2396    0.2128    25.140   200.000     8.755
 2538.3024    31.628    2.2654    0.1798    74.031   200.000     8.615
 2538.4548    29.344    2.3571    0.1423   142.971   200.000     8.449
 2538.6072    31.342    2.2109    0.1945    53.725   200.000     8.390
 2538.7596    37.095    2.3341    0.1455    46.566   200.000     8.768
 2538.9120    30.268    2.3602    0.2137    37.896   200.000     8.026
 2539.0644    35.047    2.3091    0.1982    42.832   200.000     8.061
 2539.2168    39.213    2.2637    0.1608    58.061   200.000     8.665
 2539.3692    35.820    2.3049    0.1783    53.314   200.000     8.569
 2539.5216    28.307    2.2738    0.1746    56.212   200.000     8.679
 2539.6740    31.632    2.2318    0.1551    42.987   200.000     7.804
 2539.8264    31.811    2.2668    0.1613    43.372   200.000     8.554
 2539.9788    27.951    2.3234    0.1472    66.239   200.000     8.165
 2540.1312    21.672    2.3098    0.1650   101.543   200.000     9.425
 2540.2836    31.660    2.2447    0.1165    58.214   200.000     8.136
 2540.4360    33.998    2.2526    0.1709    45.429   200.000     8.328
 2540.5884    32.520    2.2049    0.1565    34.523   200.000     8.015
 2540.7408    36.190    2.2854    0.2329    31.469   200.000     8.166
 2540.8932    39.135    2.2983    0.2027    44.690   200.000     8.708
 2541.0456    30.069    2.2552    0.1441    57.050   200.000     9.127
 2541.1980    38.870    2.1885    0.1867    22.783   200.000     8.346
 2541.3504    35.212    2.3096    0.2153    54.136   200.000     8.182
 2541.5028    26.250    2.2881    0.1796    48.378   200.000     8.825
 2541.6552    34.363    2.3306    0.1421    28.389   200.000     8.861
 2541.8076    36.040    2.2250    0.2323    38.178   200.000     8.161
 2541.9600    28.978    2.2895    0.1470    18.340   200.000     8.249
 2542.1124    30.452    2.2529    0.2178    71.709   200.000     8.328
 2542.2648    24.101    2.2680    0.1998    42.436   200.000     8.303
 2542.4172    26.790    2.2654    0.1862    40.132   200.000     8.044
 2542.5696    35.482    2.3000    0.1685    47.512   200.000     7.925
 2542.7220    40.339    2.3572    0.1783    31.153   200.000     8.766
 2542.8744    31.934    2.3472    0.1864    23.645   200.000     8.181
 2543.0268    38.623    2.3986    0.1874    86.462   200.000     7.958
 2543.1792    27.610    2.2600    0.1752    59.762   200.000     9.416
 2543.3316    28.296    2.3034    0.1686    62.823   200.000     8.571
 2543.4840    28.088    2.2533    0.1441    87.884   200.000     7.681
 2543.6364    32.611    2.2827    0.1808    80.570   200.000     8.144
 2543.7888    38.876    2.2095    0.1712    32.399   200.000     8.756
 2543.9412    27.141    2.1960    0.1983    61.448   200.000     9.065
 2544.0936    32.761    2.2577    0.1857    24.366   200.000     8.783
 2544.2460    34.398    2.3006    0.1963    35.998   200.000     8.560
 2544.3984    31.988    2.3086    0.1890    33.765   200.000     8.730
 2544.5508    29.295    2.3022    0.1248    59.956   200.000     9.181
 2544.7032    29.659    2.2527    0.1529    29.820   200.000     8.655
 2544.8556    37.618    2.2646    0.2285   130.929   200.000     8.353
 2545.0080    32.359    2.2372    0.1646    37.565   200.000     8.561
 2545.1604    27.188    2.3330    0.2306    52.496   200.000     8.473
 2545.3128    24.583    2.2091    0.1702    23.771   200.000     8.483
 2545.4652    31.826    2.2485    0.1958    41.355   200.000     8.295
 2545.6176    30.345    2.2965    0.1413    30.849   200.000     8.709
 2545.7700    41.594    2.3909    0.1406    31.939   200.000     9.152
 2545.9224    29.457    2.3153    0.1778    47.134   200.000     8.802
 2546.0748    24.875    2.1436    0.1982    35.200   200.000     8.319
 2546.2272    30.990    2.4245    0.2076    33.529   200.000     8.768
 2546.3796    32.060    2.2806    0.2055    19.833   200.000     8.559
 2546.5320    30.606    2.2701    0.1877    33.402   200.000     8.352
 2546.6844    27.027    2.2473    0.1777    90.936   200.000     8.706
 2546.8368    31.147    2.2369    0.1713    46.867   200.000     8.377
 2546.9892    32.963    2.2753    0.2147    29.975   200.000     8.867
 2547.1416    24.843    2.2572    0.2150    53.295   200.000     8.191
 2547.2940    23.574    2.3201    0.2248    36.255   200.000     8.272
 2547.4464    25.404    2.2062    0.2258    35.577   200.000     8.785
 2547.5988    23.929    2.3339    0.1856    29.585   200.000     8.736
