~VERSION INFORMATION
 VERS.                 2.0    : CWLS LOG ASCII STANDARD
 WRAP.                 NO     : ONE LINE PER DEPTH STEP
~WELL INFORMATION
 WELL.                 15/9-19A    : Well name
 FLD .                 Statfjord         : Field
 CTRY.                 Norway       : Country
 STRT.M                2100.0000 : START DEPTH
 STOP.M                3400.0000   : STOP DEPTH
 STEP.M                0.1524        : STEP
 NULL.                 -999.25          : NULL VALUE
 SRVC.                 SubsurfAI        : Service company
~CURVE INFORMATION
 DEPT.M                              : Depth
 GR  .GAPI                           : Gamma Ray
 RHOB.G/C3                           : Bulk Density
 NPHI.V/V                            : Neutron Porosity
 RT  .OHMM                           : True Resistivity
 DT  .US/F                           : Sonic
 CALI.IN                             : Caliper
~PARAMETER INFORMATION
 LAT .                 58.4385   : Latitude
 LON .                 1.8356   : Longitude
 DESC.                 Statfjord Fm — Brent Group sandstone, oil producer
~A  DEPT        GR        RHOB      NPHI      RT        DT        CALI
# ...
 2857.7328    97.188    2.4923    0.2416     1.648   200.000     8.493
 2857.8852    83.350    2.4880    0.3689     0.807   148.621     8.240
 2858.0376    91.729    2.4225    0.3406     6.412   163.197     8.728
 2858.1900    93.949    2.4627    0.3474     0.899   158.830     8.236
 2858.3424    98.898    2.3817    0.3528     1.596   158.055     8.194
 2858.4948    92.063    2.4445    0.3271     3.038   168.048     8.785
 2858.6472   117.513    2.4498    0.3666     0.655   153.175     9.064
 2858.7996   112.003    2.4257    0.3611     1.841   154.960     8.641
 2858.9520    96.247    2.4073    0.2788     1.023   200.000     8.623
 2859.1044    84.586    2.4468    0.3113     1.776   178.693     8.591
 2859.2568    80.713    2.5375    0.2969     4.634   185.931     8.472
 2859.4092   108.831    2.3017    0.2483     3.428   200.000     8.854
 2859.5616    93.331    2.3905    0.3469     1.173   161.035     8.391
 2859.7140   106.314    2.4599    0.3075     0.912   168.514     7.520
 2859.8664    98.857    2.4167    0.3365     1.621   165.298     8.902
 2860.0188   115.725    2.4328    0.3024     1.662   191.351     8.563
 2860.1712    89.137    2.3759    0.2889     1.991   186.150     7.953
 2860.3236   100.976    2.4836    0.3112     4.875   179.227     8.245
 2860.4760   102.650    2.4915    0.3045     1.863   175.561     8.783
 2860.6284    95.600    2.5215    0.3014     1.617   188.181     9.254
 2860.7808   100.992    2.3819    0.2786     1.339   188.470     8.491
 2860.9332   101.620    2.4686    0.3324     2.565   165.401     8.534
 2861.0856   104.330    2.4580    0.2893     1.769   185.560     9.239
 2861.2380   111.038    2.4725    0.2699     3.338   200.000     8.222
 2861.3904    80.016    2.5140    0.3355     3.549   163.476     8.044
 2861.5428    99.188    2.4193    0.3007     1.512   184.164     7.600
 2861.6952    68.554    2.4443    0.2498     1.969   200.000     8.429
 2861.8476    84.118    2.4045    0.2797     2.049   192.686     8.751
 2862.0000   129.825    2.4740    0.2611     0.889   200.000     8.402
 2862.1524    92.776    2.4436    0.2682     2.892   200.000     8.494
 2862.3048    86.438    2.4242    0.2874     2.362   192.562     8.396
 2862.4572    99.455    2.4611    0.2937     2.471   192.535     8.894
 2862.6096    73.875    2.3939    0.2508     1.620   200.000     8.612
 2862.7620   127.653    2.4353    0.3551     1.043   156.194     8.798
 2862.9144   114.107    2.5324    0.3405     2.055   156.164     8.015
 2863.0668    67.366    2.5313    0.3146     1.280   174.547     8.069
 2863.2192   117.801    2.3920    0.3424     2.894   164.100     7.923
 2863.3716   111.226    2.4650    0.3833     2.796   135.159     9.181
 2863.5240    99.250    2.4686    0.2967     3.943   191.229     8.382
 2863.6764    91.028    2.3996    0.2705     0.884   200.000     9.074
 2863.8288    94.121    2.4322    0.3379     2.641   169.082     9.133
 2863.9812    88.796    2.5533    0.2496     4.692   200.000     8.693
 2864.1336   106.102    2.3816    0.3498     2.325   158.686     8.884
 2864.2860    87.637    2.4500    0.3839     4.763   152.909     7.887
 2864.4384   109.002    2.4392    0.3481     1.368   164.914     8.335
 2864.5908   103.581    2.5113    0.3246     5.572   172.847     7.577
 2864.7432    87.928    2.4372    0.2126     4.816   200.000     7.806
 2864.8956    92.388    2.4702    0.3378     2.668   156.537     8.672
 2865.0480   100.383    2.4000    0.2967     0.958   187.692     8.631
 2865.2004    99.959    2.4186    0.3685     1.374   149.444     8.630
 2865.3528   120.354    2.4034    0.2731     1.056   200.000     8.912
 2865.5052    88.670    2.4519    0.2859     1.395   185.930     8.185
 2865.6576    82.865    2.4357    0.3104     1.915   176.176     8.325
 2865.8100   103.675    2.4941    0.2476     2.525   200.000     8.822
 2865.9624   109.314    2.4766    0.3235     1.709   167.090     8.538
 2866.1148   100.511    2.4437    0.3702     3.880   151.366     8.675
 2866.2672    87.548    2.3976    0.2997     3.819   179.657     8.877
 2866.4196    89.035    2.4286    0.3280     1.378   167.922     7.907
 2866.5720    95.817    2.4294    0.2544     2.558   200.000     8.731
 2866.7244   118.531    2.4888    0.3201     2.609   164.615     8.000
 2866.8768   102.459    2.4382    0.3174     2.839   183.017     8.059
 2867.0292   105.689    2.4255    0.3514     2.364   152.540     8.030
 2867.1816   115.240    2.4780    0.2653     4.926   200.000     8.768
 2867.3340    93.876    2.4503    0.1928     2.429   200.000     7.895
 2867.4864   101.534    2.4297    0.3036     1.488   183.727     8.515
 2867.6388   113.614    2.4013    0.2463     4.344   200.000     7.971
 2867.7912    83.813    2.4269    0.3191     0.706   167.378     7.935
 2867.9436   102.325    2.4838    0.3910     1.986   147.828     8.303
 2868.0960    95.969    2.4964    0.3289     4.005   169.257     8.731
 2868.2484   112.645    2.4847    0.3778     1.369   140.843     8.162
 2868.4008   102.274    2.4471    0.2291     0.652   200.000     8.922
 2868.5532    89.040    2.4505    0.3111     2.430   184.314     9.274
 2868.7056    79.869    2.4700    0.2896     1.429   188.465     7.957
 2868.8580   106.053    2.5048    0.2264     1.650   200.000     7.761
 2869.0104   124.681    2.4875    0.2909     1.567   189.706     8.734
 2869.1628    84.362    2.4860    0.2906     2.777   189.176     8.596
 2869.3152    84.288    2.4283    0.2309     1.009   200.000     9.068
 2869.4676   109.417    2.4674    0.2423     4.823   200.000     8.188
 2869.6200    69.520    2.4397    0.2423     2.322   200.000     9.092
 2869.7724   105.226    2.4596    0.3371     1.292   160.929     8.576
 2869.9248   100.583    2.5011    0.2852     1.704   196.894     8.891
 2870.0772    89.697    2.4494    0.3309     3.300   164.646     9.145
 2870.2296   106.664    2.4953    0.2458     1.426   200.000     8.498
 2870.3820   117.781    2.4986    0.3139     4.640   178.894     8.670
 2870.5344    79.945    2.5163    0.2948     3.032   185.737     8.612
 2870.6868   109.800    2.4491    0.3687     4.316   154.205     9.147
 2870.8392   107.594    2.3971    0.3472     3.994   157.035     8.644
 2870.9916    82.069    2.4595    0.2612     3.877   200.000     9.101
 2871.1440    91.294    2.4840    0.3173     2.550   169.173     8.095
 2871.2964    84.931    2.5508    0.2980     3.203   190.317     9.061
 2871.4488   111.855    2.4311    0.3076     1.809   187.789     8.144
 2871.6012    99.655    2.3511    0.3554     3.389   152.935     9.004
 2871.7536    77.235    2.3816    0.2841     2.016   193.332     8.410
 2871.9060   108.972    2.4504    0.3768     2.011   145.539     9.031
 2872.0584   104.737    2.5330    0.2598     1.635   200.000     8.966
 2872.2108    77.573    2.4328    0.2813     6.013   188.906     9.146
 2872.3632   114.717    2.4656    0.2952     2.139   182.861     8.439
 2872.5156    90.484    2.4658    0.3840     6.914   139.891     8.741
 2872.6680    99.512    2.4646    0.3113     3.442   181.983     8.002
 2872.8204   100.912    2.5035    0.3666     2.033   152.049     8.619
 2872.9728   102.564    2.4451    0.3788     5.340   138.686     8.480
 2873.1252    95.634    2.4654    0.3641     3.268   156.470     9.200
 2873.2776   100.789    2.5457    0.2718     3.274   194.040     8.997
 2873.4300    92.086    2.4047    0.3738     1.840   144.304     8.513
 2873.5824   104.623    2.4097    0.3577     1.883   157.166     8.586
 2873.7348    66.325    2.4617    0.3038     1.187   180.792     8.686
 2873.8872    85.412    2.4136    0.2806     1.881   200.000     8.892
 2874.0396    86.639    2.4429    0.3249     2.905   166.891     8.355
 2874.1920   107.626    2.4095    0.2351     1.429   200.000     8.129
 2874.3444    92.402    2.4918    0.3329     3.260   152.434     8.222
 2874.4968    85.299    2.4992    0.2821     1.885   193.805     8.090
 2874.6492   108.200    2.5924    0.3119     1.768   176.495     8.948
 2874.8016    92.144    2.4829    0.3578     1.801   162.938     8.497
