~VERSION INFORMATION
 VERS.                 2.0    : CWLS LOG ASCII STANDARD
 WRAP.                 NO     : ONE LINE PER DEPTH STEP
~WELL INFORMATION
 WELL.                 25/11-1    : Well name
 FLD .                 Troll         : Field
 CTRY.                 Norway       : Country
 STRT.M                1400.0000 : START DEPTH
 STOP.M                2200.0000   : STOP DEPTH
 STEP.M                0.1524        : STEP
 NULL.                 -999.25          : NULL VALUE
 SRVC.                 SubsurfAI        : Service company
~CURVE INFORMATION
 DEPT.M                              : Depth
 GR  .GAPI                           : Gamma Ray
 RHOB.G/C3                           : Bulk Density
 NPHI.V/V                            : Neutron Porosity
 RT  .OHMM                           : True Resistivity
 DT  .US/F                           : Sonic
 CALI.IN                             : Caliper
~PARAMETER INFORMATION
 LAT .                 60.6411   : Latitude
 LON .                 3.7033   : Longitude
 DESC.                 Troll Fm — shallow marine sandstone, giant gas field
~A  DEPT        GR        RHOB      NPHI      RT        DT        CALI
# ...
 1864.9724    26.871    2.2808    0.3102   130.428   166.357     8.161
 1865.1248    25.351    2.2310    0.3275   102.000   164.467     8.968
 1865.2772    32.180    2.2204    0.2741   197.072   200.000     9.083
 1865.4296    35.141    2.2420    0.2658   169.643   200.000     8.524
 1865.5820    31.213    2.2066    0.2733    43.785   200.000     8.409
 1865.7344    23.613    2.2569    0.3040    89.931   178.410     8.665
 1865.8868    22.186    2.2617    0.2342   215.453   200.000     8.784
 1866.0392    29.620    2.2568    0.3131    94.460   176.690     9.036
 1866.1916    25.844    2.3176    0.2580   186.401   200.000     8.558
 1866.3440    32.221    2.2793    0.2453    62.916   200.000     8.719
 1866.4964    18.138    2.2319    0.2325   167.112   200.000     8.565
 1866.6488    30.263    2.1706    0.2821    75.185   189.133     7.512
 1866.8012    29.668    2.2011    0.2115   117.411   200.000     7.685
 1866.9536    29.000    2.2472    0.1976   203.906   200.000     8.040
 1867.1060    24.553    2.2520    0.3163   165.892   178.938     8.936
 1867.2584    28.256    2.1834    0.2809   149.354   192.897     9.151
 1867.4108    33.754    2.2007    0.2287   117.912   200.000     8.600
 1867.5632    20.589    2.2428    0.2183   140.240   200.000     8.605
 1867.7156    28.473    2.2616    0.2516   150.184   200.000     9.299
 1867.8680    31.727    2.2453    0.2283    67.406   200.000     8.372
 1868.0204    28.189    2.3737    0.3323   204.138   163.549     8.233
 1868.1728    35.735    2.2052    0.2671   127.710   200.000     8.361
 1868.3252    29.228    2.2989    0.1766   107.295   200.000     8.434
 1868.4776    34.370    2.1793    0.3140   186.724   172.771     8.523
 1868.6300    28.186    2.2504    0.3274    79.238   172.297     8.567
 1868.7824    25.387    2.2087    0.2573   197.169   200.000     8.792
 1868.9348    35.284    2.2925    0.2430   110.442   200.000     8.187
 1869.0872    25.963    2.2958    0.2572    53.541   200.000     7.745
 1869.2396    22.509    2.2029    0.2607   100.487   200.000     8.535
 1869.3920    23.246    2.2089    0.2449   188.197   200.000     7.993
 1869.5444    31.344    2.1910    0.2405    69.389   200.000     8.172
 1869.6968    33.653    2.2948    0.3004    83.602   184.954     7.865
 1869.8492    28.433    2.1699    0.2217   172.626   200.000     8.605
 1870.0016    25.014    2.2205    0.2306   164.354   200.000     8.081
 1870.1540    28.020    2.2400    0.2521    86.372   200.000     8.734
 1870.3064    28.681    2.1735    0.2765   206.520   198.134     8.439
 1870.4588    23.982    2.2979    0.3225   115.586   171.543     8.296
 1870.6112    28.481    2.2194    0.2466   201.634   200.000     8.603
 1870.7636    28.412    2.2332    0.2762   144.663   195.131     8.361
 1870.9160    30.880    2.2352    0.2619   261.743   200.000     8.339
 1871.0684    21.936    2.2990    0.2881    80.684   192.795     8.663
 1871.2208    26.696    2.2452    0.2511   214.461   200.000     7.947
 1871.3732    25.496    2.2343    0.2384   187.914   200.000     8.590
 1871.5256    24.071    2.1428    0.2645    45.889   200.000     8.176
 1871.6780    29.754    2.2936    0.2455   147.096   200.000     7.977
 1871.8304    23.603    2.2715    0.2005    91.394   200.000     8.818
 1871.9828    35.462    2.2118    0.2056   439.273   200.000     8.339
 1872.1352    26.374    2.2758    0.2410    46.177   200.000     8.614
 1872.2876    37.548    2.2385    0.2303   230.638   200.000     9.062
 1872.4400    32.895    2.2385    0.2387    75.008   200.000     8.255
 1872.5924    35.489    2.2181    0.2767   110.907   194.736     8.061
 1872.7448    35.175    2.2043    0.2967    84.210   181.369     8.849
 1872.8972    34.996    2.3077    0.3595   106.120   154.568     8.641
 1873.0496    33.704    2.2373    0.2611    65.537   200.000     9.017
 1873.2020    30.948    2.2506    0.2203    79.386   200.000     7.521
 1873.3544    29.286    2.2437    0.3087   153.821   175.409     8.819
 1873.5068    28.182    2.2577    0.2867   143.696   196.932     8.214
 1873.6592    34.544    2.2768    0.2711   203.286   198.816     8.454
 1873.8116    27.777    2.1727    0.2607    88.484   200.000     8.421
 1873.9640    38.223    2.3039    0.2967   162.413   179.414     8.866
 1874.1164    26.159    2.3167    0.1981    83.180   200.000     8.247
 1874.2688    36.826    2.2233    0.2316    85.363   200.000     8.836
 1874.4212    32.621    2.2048    0.2395   218.365   200.000     9.107
 1874.5736    29.982    2.1950    0.3193   106.257   180.361     8.879
 1874.7260    28.891    2.3145    0.2657   157.887   200.000     8.357
 1874.8784    25.699    2.2186    0.2847    69.243   189.322     8.560
 1875.0308    38.172    2.2531    0.2733   137.869   196.949     7.672
 1875.1832    32.957    2.2276    0.2452   113.198   200.000     8.890
 1875.3356    41.761    2.2733    0.2392   126.001   200.000     8.641
 1875.4880    33.707    2.1970    0.2638   119.136   200.000     8.200
 1875.6404    35.659    2.1370    0.2852   154.118   193.412     8.486
 1875.7928    33.684    2.1989    0.2545   155.289   200.000     8.408
 1875.9452    31.901    2.1687    0.2712   117.975   200.000     8.016
 1876.0976    32.991    2.2394    0.2219   362.937   200.000     8.674
 1876.2500    29.000    2.2290    0.2475    93.168   200.000     8.722
 1876.4024    30.190    2.1965    0.3046    65.011   181.589     8.321
 1876.5548    36.091    2.3282    0.2068   126.519   200.000     7.990
 1876.7072    27.957    2.1864    0.2400    80.975   200.000     8.261
 1876.8596    30.928    2.3867    0.3098   169.154   173.375     8.238
 1877.0120    37.404    2.3470    0.2554    90.894   200.000     8.366
 1877.1644    35.957    2.2488    0.2546   176.485   200.000     8.421
 1877.3168    27.830    2.2196    0.2741    87.138   200.000     8.261
 1877.4692    35.219    2.2383    0.1879    99.849   200.000     8.880
 1877.6216    33.382    2.2764    0.3285   184.404   167.849     8.710
 1877.7740    26.723    2.2292    0.2672   115.691   200.000     8.463
 1877.9264    32.025    2.1951    0.2438   215.444   200.000     8.460
 1878.0788    31.659    2.2406    0.2329    81.098   200.000     8.854
 1878.2312    29.535    2.3051    0.3083    87.443   181.346     8.410
 1878.3836    20.408    2.2973    0.2475   210.063   200.000     8.752
 1878.5360    30.883    2.2993    0.2871    75.019   193.706     8.248
 1878.6884    32.578    2.2489    0.3019   157.115   180.750     8.724
 1878.8408    26.217    2.2736    0.2598   167.320   200.000     9.452
 1878.9932    24.671    2.1971    0.3215   118.326   161.160     8.809
 1879.1456    31.995    2.2319    0.3203   107.838   175.499     8.446
 1879.2980    22.873    2.2555    0.3036   167.935   167.271     7.987
 1879.4504    24.781    2.2632    0.2640    58.932   200.000     8.386
 1879.6028    31.031    2.2074    0.2558    75.657   200.000     8.417
 1879.7552    26.857    2.1894    0.2905   113.073   188.627     8.772
 1879.9076    38.966    2.1863    0.3061   178.554   181.786     9.184
 1880.0600    31.334    2.2496    0.1925   125.752   200.000     8.583
 1880.2124    33.837    2.2342    0.2294    78.910   200.000     8.742
 1880.3648    28.971    2.1490    0.2058   124.600   200.000     8.306
 1880.5172    36.330    2.2728    0.2607   225.240   200.000     8.842
 1880.6696    24.257    2.1983    0.3089   104.334   178.241     7.845
 1880.8220    32.146    2.2447    0.2641    41.169   200.000     8.952
 1880.9744    32.966    2.2654    0.2319   148.000   200.000     8.058
 1881.1268    24.050    2.2121    0.3217   116.148   176.326     8.258
 1881.2792    25.921    2.2443    0.2897   132.232   180.293     8.677
 1881.4316    29.153    2.2561    0.3027    83.279   180.078     7.935
 1881.5840    28.983    2.2085    0.2568   177.031   200.000     8.742
 1881.7364    31.415    2.2100    0.2277    93.727   200.000     8.983
 1881.8888    25.896    2.3331    0.3243   182.949   165.257     7.788
 1882.0412    35.808    2.1715    0.2247    99.148   200.000     8.414
