~VERSION INFORMATION
 VERS.                 2.0    : CWLS LOG ASCII STANDARD
 WRAP.                 NO     : ONE LINE PER DEPTH STEP
~WELL INFORMATION
 WELL.                 25/11-1    : Well name
 FLD .                 Troll         : Field
 CTRY.                 Norway       : Country
 STRT.M                1400.0000 : START DEPTH
 STOP.M                2200.0000   : STOP DEPTH
 STEP.M                0.1524        : STEP
 NULL.                 -999.25          : NULL VALUE
 SRVC.                 SubsurfAI        : Service company
~CURVE INFORMATION
 DEPT.M                              : Depth
 GR  .GAPI                           : Gamma Ray
 RHOB.G/C3                           : Bulk Density
 NPHI.V/V                            : Neutron Porosity
 RT  .OHMM                           : True Resistivity
 DT  .US/F                           : Sonic
 CALI.IN                             : Caliper
~PARAMETER INFORMATION
 LAT .                 60.6411   : Latitude
 LON .                 3.7033   : Longitude
 DESC.                 Troll Fm — shallow marine sandstone, giant gas field
~A  DEPT        GR        RHOB      NPHI      RT        DT        CALI
# ...
 1451.6636    83.515    2.4425    0.2599     2.294   200.000     8.642
 1451.8160    91.823    2.4300    0.2891     2.310   196.032     8.083
 1451.9684   102.581    2.4589    0.2266     3.131   200.000     8.732
 1452.1208   109.965    2.3121    0.3351     1.247   167.951     7.672
 1452.2732    85.026    2.3828    0.3013     1.983   181.809     8.259
 1452.4256    97.442    2.4046    0.3301     2.010   158.749     7.649
 1452.5780   104.407    2.4875    0.2912     2.046   198.094     8.759
 1452.7304   108.054    2.4113    0.2588     1.435   200.000     7.889
 1452.8828    96.417    2.3876    0.3368     1.286   158.850     9.033
 1453.0352    75.090    2.4777    0.2396     2.014   200.000     8.561
 1453.1876    88.380    2.4610    0.2279     3.358   200.000     8.190
 1453.3400    87.089    2.4990    0.1892     3.193   200.000     8.668
 1453.4924    84.217    2.4214    0.3056     2.522   176.848     8.726
 1453.6448    90.227    2.4727    0.2448     1.236   200.000     8.799
 1453.7972    92.992    2.4200    0.2580     2.750   200.000     7.874
 1453.9496    69.592    2.4390    0.2305     2.201   200.000     8.252
 1454.1020    90.204    2.5730    0.2773     3.323   200.000     9.105
 1454.2544    77.349    2.4506    0.2566     1.069   200.000     9.015
 1454.4068    96.259    2.5309    0.2838     1.383   193.871     8.622
 1454.5592   103.452    2.4330    0.3458     1.229   150.544     8.980
 1454.7116   103.704    2.5541    0.2999     1.972   182.074     8.134
 1454.8640    83.938    2.4193    0.2368     2.344   200.000     8.454
 1455.0164    67.567    2.3634    0.2588     0.938   200.000     8.049
 1455.1688    73.647    2.4182    0.2587     5.526   200.000     8.257
 1455.3212    89.188    2.4708    0.2945     1.569   188.259     9.390
 1455.4736    93.368    2.4328    0.2481     2.977   200.000     8.525
 1455.6260   100.206    2.4760    0.2495     2.535   200.000     9.103
 1455.7784    81.533    2.5354    0.3028     2.416   177.797     8.593
 1455.9308    93.275    2.4598    0.2737     1.500   196.133     8.246
 1456.0832    99.742    2.4142    0.3327     1.884   167.060     8.279
 1456.2356    80.617    2.4299    0.2352     0.591   200.000     9.149
 1456.3880    77.877    2.3110    0.2452     2.798   200.000     8.748
 1456.5404    78.502    2.4887    0.2782     2.607   200.000     8.643
 1456.6928    82.284    2.3900    0.2349     1.332   200.000     8.281
 1456.8452    79.347    2.5450    0.2285     1.140   200.000     8.660
 1456.9976    89.227    2.3337    0.2336     3.075   200.000     8.844
 1457.1500    88.948    2.4472    0.3422     1.859   155.620     8.518
 1457.3024    74.642    2.5050    0.2189     1.585   200.000     8.423
 1457.4548    72.188    2.4952    0.2684     2.805   200.000     8.792
 1457.6072    79.267    2.3772    0.3322     2.932   166.812     8.731
 1457.7596    75.965    2.3851    0.2571     1.724   200.000     8.312
 1457.9120    76.334    2.4080    0.2879     2.880   191.445     8.775
 1458.0644    94.980    2.4727    0.2563     1.655   200.000     8.484
 1458.2168   100.561    2.5044    0.2614     2.101   200.000     8.374
 1458.3692    77.264    2.4655    0.3072     1.178   175.387     7.545
 1458.5216    85.440    2.4171    0.3076     4.290   183.799     7.976
 1458.6740    78.203    2.4503    0.2404     1.071   200.000     7.741
 1458.8264    99.929    2.4087    0.2625     1.464   200.000     8.686
 1458.9788    86.625    2.3965    0.2644     2.550   200.000     8.525
 1459.1312   100.946    2.4513    0.2686     6.953   200.000     8.513
 1459.2836   107.234    2.3918    0.2345     1.387   200.000     8.263
 1459.4360    94.861    2.4706    0.2396     1.066   200.000     8.970
 1459.5884    65.185    2.4932    0.2559     2.236   200.000     8.505
 1459.7408    88.390    2.4665    0.2412     1.579   200.000     7.459
 1459.8932   112.258    2.4213    0.2941     1.698   191.188     8.163
 1460.0456    94.860    2.3952    0.2991     0.613   188.803     7.671
 1460.1980    69.494    2.4756    0.2824     1.618   190.791     8.854
 1460.3504   106.613    2.4209    0.2450     1.630   200.000     8.282
 1460.5028    90.034    2.4206    0.2443     4.206   200.000     8.532
 1460.6552    92.534    2.5288    0.2656     3.638   200.000     8.200
 1460.8076    83.268    2.4623    0.2404     1.278   200.000     9.022
 1460.9600    83.390    2.5260    0.3626     3.474   142.139     8.213
 1461.1124    90.042    2.4429    0.2912     0.990   186.021     9.160
 1461.2648    99.114    2.4621    0.2588     2.378   200.000     8.609
 1461.4172    92.204    2.4318    0.3750     1.628   149.342     8.553
 1461.5696   101.202    2.4674    0.3068     2.828   184.196     8.743
 1461.7220   100.270    2.4995    0.2936     1.047   185.765     8.676
 1461.8744    85.564    2.4279    0.3923     1.894   129.621     8.782
 1462.0268   102.263    2.5055    0.2265     2.204   200.000     8.372
 1462.1792    91.575    2.4458    0.2298     2.048   200.000     8.874
 1462.3316   104.732    2.4783    0.2619     2.131   200.000     8.490
 1462.4840    92.294    2.3552    0.2759     3.253   200.000     8.677
 1462.6364    80.844    2.4512    0.3169     1.736   179.509     8.307
 1462.7888    97.351    2.4657    0.3476     4.423   145.383     8.681
 1462.9412    89.287    2.4187    0.2612     1.761   200.000     8.504
 1463.0936   108.806    2.4548    0.2281     3.729   200.000     8.678
 1463.2460    96.630    2.5118    0.2655     2.392   200.000     8.538
 1463.3984    98.664    2.4695    0.2586     4.087   200.000     8.104
 1463.5508    93.884    2.3714    0.2177     1.959   200.000     7.813
 1463.7032    91.390    2.4296    0.2599     2.497   200.000     8.481
 1463.8556   119.172    2.5329    0.2638     1.807   200.000     8.325
 1464.0080    91.767    2.4477    0.2924     1.798   181.108     8.981
 1464.1604   107.824    2.4330    0.2317     3.522   200.000     8.116
 1464.3128    80.039    2.4910    0.2288     1.862   200.000     8.343
 1464.4652    76.980    2.4463    0.2465     1.797   200.000     8.265
 1464.6176    69.598    2.4442    0.2955     2.092   174.340     8.255
 1464.7700    94.894    2.4343    0.2866     1.790   178.139     8.281
 1464.9224    96.887    2.4651    0.1999     2.298   200.000     8.732
 1465.0748    83.806    2.4765    0.3364     1.731   169.933     8.827
 1465.2272    95.334    2.4764    0.3264     1.215   163.357     9.118
 1465.3796    84.724    2.3946    0.2929     1.683   194.936     8.608
 1465.5320    89.527    2.4338    0.1882     4.895   200.000     7.302
 1465.6844    94.263    2.3892    0.2795     3.889   195.810     8.909
 1465.8368   100.744    2.4234    0.3520     2.275   160.250     8.668
 1465.9892    91.053    2.4720    0.2121     1.320   200.000     8.245
 1466.1416    74.083    2.4787    0.2764     4.070   200.000     8.134
 1466.2940    90.498    2.4306    0.3181     2.471   168.614     8.293
 1466.4464    73.582    2.4832    0.2392     2.009   200.000     8.503
 1466.5988    93.791    2.4303    0.2318     3.056   200.000     8.998
 1466.7512    94.869    2.5159    0.2116     3.223   200.000     8.009
 1466.9036   105.256    2.4857    0.2292     1.981   200.000     8.320
 1467.0560    96.448    2.4526    0.3327     2.697   166.034     8.255
 1467.2084    99.425    2.4098    0.3429     2.054   153.561     9.492
 1467.3608   100.805    2.4276    0.2670     1.684   200.000     8.724
 1467.5132    93.392    2.4115    0.2725     1.150   191.690     8.309
 1467.6656    92.336    2.4776    0.2025     1.783   200.000     8.938
 1467.8180    80.021    2.5214    0.2537     1.763   200.000     8.394
 1467.9704    97.126    2.4470    0.3046     2.551   174.208     8.054
 1468.1228   110.504    2.4248    0.2641     5.017   200.000     7.852
 1468.2752   107.168    2.4698    0.2716     0.874   200.000     8.724
 1468.4276   118.829    2.4611    0.1633     2.467   200.000     8.681
 1468.5800    77.262    2.3978    0.2768     1.126   200.000     8.543
 1468.7324   103.956    2.4441    0.3083     2.817   183.856     8.573
