~VERSION INFORMATION
 VERS.                 2.0    : CWLS LOG ASCII STANDARD
 WRAP.                 NO     : ONE LINE PER DEPTH STEP
~WELL INFORMATION
 WELL.                 25/11-1    : Well name
 FLD .                 Troll         : Field
 CTRY.                 Norway       : Country
 STRT.M                1400.0000 : START DEPTH
 STOP.M                2200.0000   : STOP DEPTH
 STEP.M                0.1524        : STEP
 NULL.                 -999.25          : NULL VALUE
 SRVC.                 SubsurfAI        : Service company
~CURVE INFORMATION
 DEPT.M                              : Depth
 GR  .GAPI                           : Gamma Ray
 RHOB.G/C3                           : Bulk Density
 NPHI.V/V                            : Neutron Porosity
 RT  .OHMM                           : True Resistivity
 DT  .US/F                           : Sonic
 CALI.IN                             : Caliper
~PARAMETER INFORMATION
 LAT .                 60.6411   : Latitude
 LON .                 3.7033   : Longitude
 DESC.                 Troll Fm — shallow marine sandstone, giant gas field
~A  DEPT        GR        RHOB      NPHI      RT        DT        CALI
# ...
 1658.3180    23.711    2.2505    0.2591   187.175   200.000     8.932
 1658.4704    33.452    2.2053    0.2405   334.864   200.000     8.722
 1658.6228    16.448    2.2199    0.3156   229.924   175.210     8.116
 1658.7752    23.437    2.2494    0.2620   120.395   200.000     8.195
 1658.9276    20.800    2.2020    0.3264   150.167   176.278     8.749
 1659.0800    22.470    2.2187    0.3312    42.970   173.079     8.387
 1659.2324    23.347    2.2521    0.3137    94.935   180.913     8.341
 1659.3848    15.217    2.2786    0.2544   178.591   200.000     8.146
 1659.5372    21.206    2.2412    0.2064   287.491   200.000     8.936
 1659.6896    19.471    2.3191    0.2367   170.167   200.000     8.212
 1659.8420    21.038    2.2224    0.3043    70.066   190.088     8.587
 1659.9944    23.348    2.2249    0.2759   128.812   194.203     8.324
 1660.1468    26.378    2.1667    0.2327   153.424   200.000     8.825
 1660.2992    24.293    2.1716    0.2288   117.736   200.000     7.707
 1660.4516    24.547    2.2953    0.3668   307.453   164.341     8.468
 1660.6040    21.176    2.2774    0.3192   453.500   172.689     8.686
 1660.7564    19.807    2.1989    0.2204   171.722   200.000     8.782
 1660.9088    27.929    2.3000    0.2887    80.666   188.904     7.720
 1661.0612    22.984    2.2089    0.2562   117.338   200.000     9.029
 1661.2136    28.958    2.2584    0.3046    63.232   174.605     8.386
 1661.3660    22.228    2.1896    0.3266   311.517   157.666     9.072
 1661.5184    21.175    2.1463    0.2784   119.931   200.000     8.406
 1661.6708    19.764    2.1950    0.2259   117.431   200.000     8.811
 1661.8232    22.528    2.2271    0.2806    78.854   199.466     8.823
 1661.9756    28.619    2.1877    0.3156   201.182   183.812     8.652
 1662.1280    19.862    2.2169    0.3078   380.859   169.376     8.289
 1662.2804    18.404    2.2558    0.2134   162.326   200.000     8.433
 1662.4328    29.966    2.1965    0.3033   184.910   176.184     8.883
 1662.5852    34.112    2.2203    0.3070   180.763   179.617     7.867
 1662.7376    24.113    2.2266    0.2683   193.292   200.000     8.928
 1662.8900    32.977    2.2249    0.3152   162.612   175.526     8.696
 1663.0424    27.982    2.1869    0.3215    83.532   179.203     8.683
 1663.1948    23.084    2.1190    0.2489   143.520   200.000     7.867
 1663.3472    24.442    2.2043    0.3425   154.885   164.755     8.888
 1663.4996    32.695    2.2142    0.2281   230.739   200.000     8.819
 1663.6520    22.168    2.1982    0.2273    54.529   200.000     8.337
 1663.8044    22.668    2.2727    0.3364   173.896   160.693     8.422
 1663.9568    29.977    2.2278    0.2135    63.816   200.000     8.374
 1664.1092    26.617    2.2194    0.2572   205.280   200.000     8.439
 1664.2616    20.964    2.2724    0.2034   212.999   200.000     7.500
 1664.4140    24.604    2.2242    0.3234    93.923   162.328     7.800
 1664.5664    23.613    2.1739    0.2498    96.872   200.000     8.084
 1664.7188    19.651    2.2485    0.2935    99.955   189.233     8.443
 1664.8712    37.399    2.1645    0.3203   146.920   166.914     8.934
 1665.0236    22.783    2.2479    0.3489    96.576   160.708     8.282
 1665.1760    22.206    2.1705    0.3239   105.823   172.470     8.586
 1665.3284    22.196    2.2351    0.2657   253.042   200.000     8.394
 1665.4808    24.773    2.2343    0.2764   206.958   199.452     8.969
 1665.6332    24.714    2.2399    0.2991   178.778   186.938     7.997
 1665.7856    29.416    2.1662    0.2855   122.649   191.292     9.046
 1665.9380    26.349    2.3104    0.2905   256.063   184.584     8.937
 1666.0904    19.724    2.2068    0.2983   183.576   191.237     8.085
 1666.2428    20.828    2.2073    0.2674   254.866   200.000     8.769
 1666.3952    23.181    2.3211    0.3261   240.699   165.842     8.928
 1666.5476    21.088    2.1533    0.3392    78.156   159.625     8.275
 1666.7000    21.562    2.2491    0.3449   286.998   159.136     8.146
 1666.8524    29.058    2.2399    0.2076   131.833   200.000     8.078
 1667.0048    18.662    2.2348    0.2103   146.637   200.000     8.066
 1667.1572    21.098    2.1711    0.2914   110.928   200.000     8.278
 1667.3096    22.907    2.2728    0.2915   276.375   192.261     8.688
 1667.4620    32.837    2.1544    0.2457   121.285   200.000     8.747
 1667.6144    25.932    2.2310    0.3130    77.172   178.360     8.464
 1667.7668    20.561    2.1632    0.1923   265.558   200.000     7.817
 1667.9192    23.160    2.2488    0.3158   182.885   174.954     9.037
 1668.0716    20.442    2.2395    0.2446   246.046   200.000     8.930
 1668.2240    27.253    2.2175    0.2943   202.302   188.221     8.355
 1668.3764    27.862    2.2317    0.2594   231.651   200.000     8.950
 1668.5288    25.693    2.2085    0.2719   238.304   193.491     8.522
 1668.6812    23.338    2.2428    0.2935   132.493   188.563     8.418
 1668.8336    25.337    2.1516    0.3587   291.513   147.595     8.564
 1668.9860    24.655    2.2197    0.2748   278.502   195.600     8.343
 1669.1384    23.200    2.2261    0.2888   218.355   188.333     8.302
 1669.2908    27.969    2.2435    0.2374   181.662   200.000     8.086
 1669.4432    22.484    2.2114    0.2401    87.915   200.000     8.304
 1669.5956    20.326    2.2354    0.2599   125.944   200.000     9.074
 1669.7480    20.717    2.2990    0.2561   108.165   200.000     8.066
 1669.9004    27.176    2.1720    0.2738   225.985   200.000     8.262
 1670.0528    29.360    2.2034    0.3409   182.692   158.799     8.871
 1670.2052    21.698    2.1508    0.2428   170.284   200.000     7.806
 1670.3576    25.416    2.2066    0.2822   190.118   188.428     7.945
 1670.5100    24.373    2.2258    0.3134   154.003   175.445     8.371
 1670.6624    27.900    2.2367    0.3204    87.212   167.352     8.239
 1670.8148    25.855    2.1887    0.2431    75.919   200.000     8.882
 1670.9672    29.040    2.2539    0.2814   116.725   200.000     8.664
 1671.1196    30.820    2.1861    0.2394   202.773   200.000     8.737
 1671.2720    26.582    2.2728    0.3012    79.250   180.121     8.614
 1671.4244    20.374    2.1562    0.3080   224.259   172.099     8.616
 1671.5768    25.512    2.2556    0.2356   185.862   200.000     8.097
 1671.7292    27.964    2.2516    0.2048   131.735   200.000     8.537
 1671.8816    23.495    2.2612    0.3209    98.588   163.873     8.478
 1672.0340    30.148    2.2173    0.2743   114.424   200.000     8.186
 1672.1864    17.657    2.1829    0.2962   306.296   185.282     8.247
 1672.3388    27.019    2.1998    0.2966    94.536   194.724     8.533
 1672.4912    25.256    2.2238    0.3436   193.156   168.681     8.166
 1672.6436    22.552    2.2457    0.2982   120.186   184.954     8.328
 1672.7960    26.819    2.1726    0.2361   204.035   200.000     9.512
 1672.9484    31.815    2.2290    0.3033   254.974   182.733     7.909
 1673.1008    18.811    2.1550    0.1995   286.573   200.000     8.674
 1673.2532    29.899    2.2364    0.3004   173.385   176.424     8.678
 1673.4056    26.072    2.2268    0.3019   146.740   186.937     8.923
 1673.5580    21.824    2.1752    0.3372   146.522   162.409     8.553
 1673.7104    31.073    2.1846    0.3852   258.279   148.904     9.150
 1673.8628    23.611    2.2082    0.3339   106.624   174.098     8.819
 1674.0152    21.934    2.2508    0.2750   153.730   200.000     8.693
 1674.1676    29.222    2.2945    0.2729   253.375   200.000     8.623
 1674.3200    21.646    2.2279    0.2591   350.548   198.360     8.845
 1674.4724    27.454    2.2686    0.3062    44.084   180.777     8.156
 1674.6248    16.417    2.2143    0.2673   110.984   200.000     8.159
 1674.7772    19.823    2.1593    0.2871    99.142   196.809     8.312
 1674.9296    25.822    2.2630    0.3281   139.978   167.429     7.453
 1675.0820    26.083    2.2476    0.2799   296.373   200.000     8.194
 1675.2344    29.957    2.2347    0.2619   187.132   200.000     8.350
 1675.3868    33.523    2.1656    0.2727   188.330   196.141     8.661
