~VERSION INFORMATION
 VERS.                 2.0    : CWLS LOG ASCII STANDARD
 WRAP.                 NO     : ONE LINE PER DEPTH STEP
~WELL INFORMATION
 WELL.                 25/11-1    : Well name
 FLD .                 Troll         : Field
 CTRY.                 Norway       : Country
 STRT.M                1400.0000 : START DEPTH
 STOP.M                2200.0000   : STOP DEPTH
 STEP.M                0.1524        : STEP
 NULL.                 -999.25          : NULL VALUE
 SRVC.                 SubsurfAI        : Service company
~CURVE INFORMATION
 DEPT.M                              : Depth
 GR  .GAPI                           : Gamma Ray
 RHOB.G/C3                           : Bulk Density
 NPHI.V/V                            : Neutron Porosity
 RT  .OHMM                           : True Resistivity
 DT  .US/F                           : Sonic
 CALI.IN                             : Caliper
~PARAMETER INFORMATION
 LAT .                 60.6411   : Latitude
 LON .                 3.7033   : Longitude
 DESC.                 Troll Fm — shallow marine sandstone, giant gas field
~A  DEPT        GR        RHOB      NPHI      RT        DT        CALI
# ...
 1709.9816    26.175    2.2496    0.2952   109.543   184.314     8.514
 1710.1340    25.651    2.2296    0.2923   104.686   190.404     9.036
 1710.2864    28.018    2.2763    0.2834   165.744   188.502     8.152
 1710.4388    18.332    2.2084    0.2592   122.807   200.000     8.507
 1710.5912    35.394    2.2734    0.2889    87.566   197.021     8.438
 1710.7436    20.184    2.2046    0.3265   101.358   170.218     8.882
 1710.8960    27.478    2.2208    0.2888   363.665   191.404     7.726
 1711.0484    23.686    2.3132    0.2982    89.543   179.030     9.042
 1711.2008    20.891    2.2004    0.2867   173.664   190.771     8.833
 1711.3532    24.091    2.2771    0.2524   106.711   200.000     8.452
 1711.5056    21.642    2.2922    0.2833   305.184   190.557     8.735
 1711.6580    21.259    2.2204    0.2347   126.422   200.000     9.029
 1711.8104    24.137    2.1880    0.3105    59.248   174.897     9.014
 1711.9628    21.207    2.2554    0.2964    75.001   182.330     8.839
 1712.1152    25.946    2.2376    0.2817   212.302   194.830     9.650
 1712.2676    27.110    2.1753    0.2122   115.536   200.000     8.619
 1712.4200    34.024    2.1994    0.2677   135.569   200.000     8.715
 1712.5724    25.566    2.1406    0.2668   191.054   200.000     8.674
 1712.7248    30.388    2.1963    0.2811   388.922   193.961     9.101
 1712.8772    22.411    2.1942    0.2842   174.135   193.286     7.924
 1713.0296    28.776    2.2674    0.2535   236.710   200.000     8.903
 1713.1820    26.209    2.2170    0.2947   136.173   188.863     8.250
 1713.3344    28.157    2.2459    0.2588   117.524   200.000     8.436
 1713.4868    19.525    2.2495    0.2326   277.703   200.000     8.269
 1713.6392    25.502    2.2327    0.2742   129.127   200.000     8.210
 1713.7916    30.250    2.2816    0.3202   194.973   170.364     8.598
 1713.9440    24.334    2.1889    0.3667   104.931   142.469     7.721
 1714.0964    20.047    2.2573    0.2355   271.706   200.000     8.555
 1714.2488    30.178    2.2126    0.2164   206.104   200.000     8.605
 1714.4012    20.892    2.2042    0.3235   159.257   169.856     8.595
 1714.5536    29.918    2.1602    0.2832   400.088   189.090     7.822
 1714.7060    27.558    2.2151    0.2838    70.535   197.594     8.083
 1714.8584    25.530    2.3328    0.2545   113.388   200.000     9.136
 1715.0108    23.605    2.2025    0.2780    91.688   195.878     8.410
 1715.1632    19.783    2.2379    0.3159   214.310   169.709     8.420
 1715.3156    33.799    2.2192    0.2164   211.267   200.000     8.948
 1715.4680    26.682    2.2439    0.2723   306.452   195.979     7.826
 1715.6204    30.929    2.1743    0.2926   356.002   186.740     8.666
 1715.7728    26.273    2.1918    0.2661    78.000   200.000     8.256
 1715.9252    27.927    2.1297    0.3684   106.871   152.952     8.499
 1716.0776    20.716    2.1626    0.2667   165.445   200.000     8.786
 1716.2300    24.689    2.3130    0.2548   137.980   200.000     8.364
 1716.3824    20.561    2.2277    0.2316   204.880   200.000     8.215
 1716.5348    15.420    2.2164    0.3029   141.708   180.240     8.486
 1716.6872    22.840    2.2110    0.2582   120.097   200.000     8.347
 1716.8396    19.147    2.2621    0.2898    96.264   196.482     8.362
 1716.9920    29.699    2.1997    0.3456   165.038   149.683     8.431
 1717.1444    26.234    2.2612    0.2682   168.700   200.000     8.318
 1717.2968    23.787    2.2283    0.3218    97.899   164.152     8.623
 1717.4492    27.248    2.1561    0.2376   245.714   200.000     9.091
 1717.6016    30.009    2.2453    0.3086   172.543   183.818     8.315
 1717.7540    18.029    2.2482    0.2877   186.070   183.429     8.551
 1717.9064    25.163    2.2273    0.2106    83.216   200.000     8.431
 1718.0588    33.222    2.1831    0.2726   284.930   198.044     8.416
 1718.2112    24.638    2.1260    0.2526    95.871   200.000     8.391
 1718.3636    28.753    2.2699    0.3272   210.174   170.026     8.705
 1718.5160    21.161    2.2052    0.1949   202.517   200.000     8.302
 1718.6684    18.301    2.2400    0.2843    58.810   193.470     7.907
 1718.8208    29.666    2.2335    0.2485   109.178   200.000     8.746
 1718.9732    28.120    2.1914    0.3275   161.664   164.014     9.643
 1719.1256    26.307    2.2091    0.2895   159.828   188.995     8.600
 1719.2780    23.724    2.2077    0.2958   122.892   187.424     8.993
 1719.4304    22.819    2.1763    0.2681   194.890   200.000     7.699
 1719.5828    23.720    2.2044    0.2812   138.679   196.198     7.787
 1719.7352    32.821    2.1711    0.3215   291.097   174.121     8.199
 1719.8876    21.345    2.2202    0.2820   127.487   194.698     8.313
 1720.0400    21.634    2.2699    0.3167   162.646   172.537     8.779
 1720.1924    24.826    2.2462    0.2395   224.442   200.000     8.318
 1720.3448    20.180    2.2106    0.3346   322.714   166.316     8.284
 1720.4972    24.457    2.2955    0.3308   184.055   166.302     8.772
 1720.6496    21.664    2.1793    0.2322   123.087   200.000     7.827
 1720.8020    25.075    2.2229    0.2951    88.625   193.843     8.409
 1720.9544    25.120    2.1947    0.1984   179.749   200.000     8.281
 1721.1068    24.915    2.1708    0.2410   275.321   200.000     8.396
 1721.2592    31.475    2.2425    0.2767   147.463   197.861     9.001
 1721.4116    30.362    2.1927    0.2527   126.974   200.000     7.926
 1721.5640    24.793    2.2468    0.2610   202.595   200.000     8.545
 1721.7164    24.953    2.1166    0.2597   105.997   200.000     8.541
 1721.8688    25.136    2.1767    0.3346   178.128   163.645     8.598
 1722.0212    29.731    2.1589    0.2619   322.336   200.000     9.330
 1722.1736    30.694    2.1526    0.2273   159.262   200.000     8.093
 1722.3260    28.136    2.1779    0.2972    92.411   191.992     8.112
 1722.4784    31.861    2.2237    0.2253    95.380   200.000     8.967
 1722.6308    20.658    2.1700    0.3348   154.573   166.893     8.946
 1722.7832    31.158    2.2609    0.2334   104.975   200.000     8.182
 1722.9356    22.126    2.2054    0.2155   142.788   200.000     8.002
 1723.0880    23.568    2.1776    0.2619   207.192   200.000     9.194
 1723.2404    30.164    2.2691    0.2581   225.659   200.000     8.172
 1723.3928    26.386    2.1683    0.3088   124.511   180.634     8.867
 1723.5452    16.933    2.1608    0.2819   178.374   187.563     8.407
 1723.6976    20.186    2.2054    0.2294   215.211   200.000     8.489
 1723.8500    25.699    2.2780    0.2893   152.810   185.731     8.742
 1724.0024    28.097    2.1700    0.2577   177.095   200.000     7.942
 1724.1548    28.459    2.1949    0.2447   125.965   200.000     8.783
 1724.3072    24.088    2.1518    0.2406   166.464   200.000     9.033
 1724.4596    24.386    2.2713    0.2791   233.901   194.990     9.106
 1724.6120    26.839    2.2087    0.2953   270.144   178.340     8.286
 1724.7644    26.861    2.1577    0.2389   112.278   200.000     9.001
 1724.9168    22.090    2.2498    0.2944   298.336   188.084     9.104
 1725.0692    20.849    2.1441    0.2612   204.616   200.000     8.284
 1725.2216    22.559    2.2406    0.2682   344.274   200.000     8.281
 1725.3740    23.595    2.2028    0.3177   157.612   171.852     8.847
 1725.5264    32.984    2.2336    0.2967   160.068   184.303     8.987
 1725.6788    20.702    2.2673    0.2248   143.577   200.000     7.972
 1725.8312    26.891    2.2415    0.3334    94.425   163.310     8.538
 1725.9836    24.732    2.1992    0.2206    70.757   200.000     8.676
 1726.1360    25.078    2.2495    0.3319   190.214   164.438     8.574
 1726.2884    27.261    2.2270    0.2753   112.009   200.000     8.629
 1726.4408    28.372    2.1564    0.3417   136.241   157.199     8.115
 1726.5932    19.428    2.1996    0.2748    91.058   200.000     8.510
 1726.7456    28.038    2.2167    0.2193   111.864   200.000     8.527
 1726.8980    29.250    2.2190    0.2990   142.760   191.068     7.933
 1727.0504    22.992    2.2633    0.2574   132.861   200.000     7.495
