~VERSION INFORMATION
 VERS.                 2.0    : CWLS LOG ASCII STANDARD
 WRAP.                 NO     : ONE LINE PER DEPTH STEP
~WELL INFORMATION
 WELL.                 25/11-1    : Well name
 FLD .                 Troll         : Field
 CTRY.                 Norway       : Country
 STRT.M                1400.0000 : START DEPTH
 STOP.M                2200.0000   : STOP DEPTH
 STEP.M                0.1524        : STEP
 NULL.                 -999.25          : NULL VALUE
 SRVC.                 SubsurfAI        : Service company
~CURVE INFORMATION
 DEPT.M                              : Depth
 GR  .GAPI                           : Gamma Ray
 RHOB.G/C3                           : Bulk Density
 NPHI.V/V                            : Neutron Porosity
 RT  .OHMM                           : True Resistivity
 DT  .US/F                           : Sonic
 CALI.IN                             : Caliper
~PARAMETER INFORMATION
 LAT .                 60.6411   : Latitude
 LON .                 3.7033   : Longitude
 DESC.                 Troll Fm — shallow marine sandstone, giant gas field
~A  DEPT        GR        RHOB      NPHI      RT        DT        CALI
 1400.0000    96.837    2.4765    0.3510     2.143   152.452     8.501
 1400.1524    86.292    2.4861    0.2435     3.468   200.000     8.651
 1400.3048   103.587    2.5004    0.2317     1.603   200.000     8.462
 1400.4572    65.023    2.4550    0.2402     3.870   200.000     8.030
 1400.6096    90.352    2.4212    0.2909     3.514   189.400     8.506
 1400.7620    71.487    2.4223    0.2621     2.013   200.000     8.532
 1400.9144    75.231    2.3852    0.2504     2.403   200.000     8.521
 1401.0668    85.423    2.5456    0.3008     0.823   177.585     8.173
 1401.2192    89.818    2.4785    0.2513     1.563   200.000     7.639
 1401.3716    88.527    2.4701    0.3596     2.077   145.375     9.211
 1401.5240    85.773    2.4445    0.3174     3.249   176.615     8.256
 1401.6764    98.386    2.4470    0.2924     2.032   184.932     8.348
 1401.8288   102.072    2.4396    0.2607     4.074   200.000     8.556
 1401.9812   101.968    2.4594    0.3172     1.686   163.965     8.131
 1402.1336    79.160    2.4315    0.2780     2.158   200.000     8.340
 1402.2860    88.793    2.4585    0.2681     1.995   197.336     8.051
 1402.4384    76.525    2.4770    0.1925     1.340   200.000     8.866
 1402.5908   107.803    2.4262    0.3517     2.359   146.714     8.042
 1402.7432   101.318    2.3747    0.2874     3.745   188.634     8.397
 1402.8956    96.647    2.4162    0.2185     1.966   200.000     7.439
 1403.0480   112.004    2.3718    0.2609     1.446   200.000     8.102
 1403.2004    80.883    2.4481    0.2720     1.209   192.922     8.277
 1403.3528    93.845    2.4349    0.2619     1.080   200.000     8.292
 1403.5052    88.925    2.4341    0.3138     2.331   172.821     8.179
 1403.6576   119.389    2.4102    0.3115     0.652   177.152     8.678
 1403.8100    81.401    2.5336    0.2715     2.399   200.000     8.060
 1403.9624    95.704    2.4519    0.2904     2.288   189.421     8.767
 1404.1148    82.856    2.4853    0.3548     2.642   157.580     8.796
 1404.2672    77.717    2.4390    0.2626     2.555   200.000     8.652
 1404.4196    97.760    2.4135    0.2650     2.419   200.000     8.142
 1404.5720    84.792    2.4151    0.3375     0.581   156.928     8.395
 1404.7244    86.739    2.3871    0.1943     2.107   200.000     8.067
 1404.8768    95.456    2.4749    0.2380     2.271   200.000     7.900
 1405.0292    83.731    2.3980    0.2647     4.223   200.000     9.247
 1405.1816    81.518    2.4518    0.1987     1.867   200.000     8.491
 1405.3340    92.732    2.4886    0.2716     1.037   200.000     8.623
 1405.4864    89.402    2.4315    0.1867     0.834   200.000     8.247
 1405.6388    83.733    2.4789    0.2534     1.217   200.000     8.797
 1405.7912    96.585    2.4757    0.2756     1.829   200.000     7.448
 1405.9436   108.391    2.4312    0.2284     2.768   200.000     8.559
 1406.0960    79.431    2.5218    0.2646     1.567   200.000     8.699
 1406.2484    88.494    2.4516    0.2955     1.168   177.659     9.064
 1406.4008    69.347    2.4482    0.2651     0.979   200.000     8.209
 1406.5532    50.220    2.4366    0.2646     2.012   200.000     8.736
 1406.7056    75.258    2.4182    0.2973     0.847   186.440     8.633
 1406.8580    91.450    2.4524    0.2912     3.596   190.273     8.760
 1407.0104    91.663    2.3348    0.2703     1.258   200.000     8.385
 1407.1628   112.849    2.4684    0.2443     7.914   200.000     8.219
 1407.3152    92.348    2.4804    0.3265     0.755   172.657     8.786
 1407.4676    87.058    2.4172    0.2644     5.706   200.000     9.052
 1407.6200    82.733    2.5052    0.3215     0.593   175.605     8.630
 1407.7724   106.015    2.3679    0.3128     1.016   177.909     9.188
 1407.9248    85.772    2.4747    0.3311     0.491   164.301     8.756
 1408.0772   100.923    2.4285    0.2700     1.951   200.000     8.476
 1408.2296    76.018    2.4760    0.2526     2.610   200.000     7.771
 1408.3820   120.334    2.3841    0.2581     1.055   200.000     8.742
 1408.5344    69.159    2.5479    0.2604     1.878   200.000     8.576
 1408.6868    94.677    2.4420    0.2287     2.506   200.000     8.788
 1408.8392    87.056    2.3597    0.2450     1.270   200.000     8.628
 1408.9916    93.326    2.4173    0.2788     2.225   199.150     8.371
 1409.1440    85.303    2.4117    0.2575     1.282   200.000     8.887
 1409.2964    91.772    2.3321    0.3207     0.795   177.768     8.791
 1409.4488    90.069    2.4951    0.3070     1.795   175.845     8.364
 1409.6012    84.056    2.4299    0.2613     3.043   200.000     8.387
 1409.7536    72.765    2.4707    0.2941     3.939   184.894     8.468
 1409.9060   109.478    2.4477    0.2987     3.262   183.286     9.009
 1410.0584    91.291    2.4945    0.2316     2.200   200.000     8.770
 1410.2108    79.206    2.4526    0.3512     2.072   159.686     9.216
 1410.3632    93.330    2.5290    0.2918     1.743   192.368     8.121
 1410.5156    79.094    2.4084    0.1844     2.856   200.000     8.373
 1410.6680   101.555    2.4396    0.3179     4.451   174.408     8.122
 1410.8204    92.059    2.3901    0.2965     3.827   184.759     8.462
 1410.9728    88.964    2.4498    0.2334     2.168   200.000     8.750
 1411.1252    85.745    2.5101    0.3032     1.652   181.934     8.615
 1411.2776    92.849    2.4521    0.3143     1.298   169.334     8.119
 1411.4300    83.056    2.4641    0.2709     1.476   198.383     8.592
 1411.5824    89.951    2.4491    0.3096     2.389   183.586     8.351
 1411.7348    86.261    2.4163    0.3217     2.525   169.132     8.464
 1411.8872    85.354    2.4406    0.3374     2.111   165.815     8.085
 1412.0396    66.701    2.4635    0.2945     1.907   187.286     8.247
 1412.1920    79.777    2.4445    0.2894     1.757   180.213     9.162
 1412.3444    93.684    2.4153    0.2962     1.332   181.754     7.756
 1412.4968    94.195    2.5088    0.2265     1.841   200.000     9.310
 1412.6492    86.634    2.4159    0.2576     1.767   200.000     8.347
 1412.8016   103.816    2.4095    0.3220     0.871   168.905     8.116
 1412.9540    87.289    2.4720    0.2432     2.767   200.000     8.016
 1413.1064    94.041    2.3789    0.2185     5.329   200.000     8.135
 1413.2588    76.283    2.4541    0.3206     0.843   175.700     8.288
 1413.4112    95.773    2.4173    0.3452     2.934   163.153     9.144
 1413.5636    71.392    2.5241    0.3604     2.835   146.957     8.809
 1413.7160    97.950    2.5271    0.2930     4.049   177.958     8.000
 1413.8684    92.151    2.4415    0.2793     2.120   188.230     8.762
 1414.0208    89.682    2.4245    0.3018     1.964   180.647     9.240
 1414.1732    87.852    2.4303    0.3128     2.847   178.050     8.880
 1414.3256   104.209    2.5373    0.2727     2.794   200.000     8.400
 1414.4780    85.365    2.4499    0.2922     2.153   179.611     8.354
 1414.6304   106.320    2.3820    0.2643     2.658   200.000     9.144
 1414.7828    85.550    2.3700    0.2790     1.959   192.134     8.217
 1414.9352   105.314    2.3986    0.2444     3.026   200.000     8.623
 1415.0876    81.681    2.4493    0.2917     3.741   184.140     7.800
 1415.2400    93.316    2.5003    0.3075     3.706   181.849     8.256
 1415.3924    97.775    2.4404    0.2728     1.026   197.301     8.340
 1415.5448    69.856    2.3917    0.2064     1.922   200.000     8.624
 1415.6972   100.212    2.3584    0.2878     2.322   194.800     8.468
 1415.8496    92.555    2.3869    0.3117     0.773   175.739     7.832
 1416.0020    90.538    2.4774    0.2423     2.051   200.000     8.715
 1416.1544   107.829    2.4334    0.2891     2.150   187.991     9.042
 1416.3068   107.381    2.4689    0.2524     2.364   200.000     7.721
 1416.4592    92.823    2.4309    0.3099     2.134   169.613     8.765
 1416.6116    93.735    2.5477    0.3593     2.407   142.231     9.175
 1416.7640    85.387    2.4164    0.2650     7.074   200.000     8.572
 1416.9164    85.670    2.4790    0.2059     1.192   200.000     8.605
 1417.0688    81.685    2.3491    0.2750     0.949   194.095     8.388
