~VERSION INFORMATION
 VERS.                 2.0    : CWLS LOG ASCII STANDARD
 WRAP.                 NO     : ONE LINE PER DEPTH STEP
~WELL INFORMATION
 WELL.                 25/11-1    : Well name
 FLD .                 Troll         : Field
 CTRY.                 Norway       : Country
 STRT.M                1400.0000 : START DEPTH
 STOP.M                2200.0000   : STOP DEPTH
 STEP.M                0.1524        : STEP
 NULL.                 -999.25          : NULL VALUE
 SRVC.                 SubsurfAI        : Service company
~CURVE INFORMATION
 DEPT.M                              : Depth
 GR  .GAPI                           : Gamma Ray
 RHOB.G/C3                           : Bulk Density
 NPHI.V/V                            : Neutron Porosity
 RT  .OHMM                           : True Resistivity
 DT  .US/F                           : Sonic
 CALI.IN                             : Caliper
~PARAMETER INFORMATION
 LAT .                 60.6411   : Latitude
 LON .                 3.7033   : Longitude
 DESC.                 Troll Fm — shallow marine sandstone, giant gas field
~A  DEPT        GR        RHOB      NPHI      RT        DT        CALI
# ...
 1554.9908    82.112    2.5352    0.2372     3.339   200.000     8.295
 1555.1432    94.895    2.3497    0.3865     1.893   143.479     8.642
 1555.2956    92.848    2.4129    0.3160     0.962   179.635     8.258
 1555.4480    89.428    2.4279    0.3362     0.877   165.697     8.235
 1555.6004    88.695    2.3628    0.2755     2.769   200.000     9.189
 1555.7528    72.946    2.4240    0.3304     2.165   175.104     7.621
 1555.9052    87.630    2.5233    0.2615     1.367   200.000     8.582
 1556.0576    85.585    2.5183    0.2513     2.728   200.000     8.745
 1556.2100    83.939    2.4668    0.3006     1.492   181.329     8.463
 1556.3624    88.461    2.3838    0.3486     2.442   160.008     8.734
 1556.5148   110.878    2.4754    0.2579     0.763   200.000     8.509
 1556.6672   103.741    2.5137    0.3244     2.001   167.931     7.882
 1556.8196    98.216    2.5404    0.2757     1.451   194.029     8.942
 1556.9720    97.930    2.4534    0.3430     2.193   159.239     8.896
 1557.1244    89.761    2.4340    0.2354     3.026   200.000     8.848
 1557.2768    83.857    2.4180    0.3677     2.146   147.753     8.521
 1557.4292    84.778    2.4251    0.3056     1.323   173.486     8.593
 1557.5816    82.978    2.5024    0.2680     2.892   191.427     8.457
 1557.7340    94.165    2.4599    0.3081     1.652   177.985     8.462
 1557.8864    89.943    2.3725    0.3023     1.862   180.932     8.460
 1558.0388    99.199    2.4364    0.3163     3.336   175.476     8.097
 1558.1912    93.978    2.4439    0.3405     1.548   161.327     8.590
 1558.3436    86.852    2.3880    0.3119     1.412   172.761     8.088
 1558.4960    99.250    2.3883    0.3549     1.241   150.018     8.406
 1558.6484   108.308    2.4160    0.2467     1.453   200.000     8.954
 1558.8008    83.923    2.4524    0.3143     1.754   174.368     8.959
 1558.9532    90.828    2.4868    0.2604     2.667   200.000     7.569
 1559.1056    94.723    2.4855    0.2855     0.816   196.238     7.958
 1559.2580    87.937    2.4766    0.3425     1.346   159.201     7.986
 1559.4104    91.957    2.4113    0.2657     2.936   200.000     8.006
 1559.5628    93.943    2.5190    0.2616     8.839   200.000     7.810
 1559.7152    86.879    2.4468    0.3008     1.208   176.903     8.290
 1559.8676    94.798    2.3734    0.2748     1.604   200.000     8.574
 1560.0200    93.148    2.4153    0.3363     1.549   156.830     9.071
 1560.1724    82.421    2.4726    0.2529     1.774   200.000     8.580
 1560.3248   101.972    2.4860    0.2907     1.407   192.917     8.462
 1560.4772    83.266    2.4774    0.2091     4.997   200.000     8.656
 1560.6296   109.232    2.4584    0.2383     4.920   200.000     7.951
 1560.7820    93.145    2.4606    0.2242     1.764   200.000     8.661
 1560.9344   108.549    2.4521    0.2337     2.079   200.000     8.563
 1561.0868    81.286    2.4904    0.3198     4.633   183.781     8.867
 1561.2392    81.282    2.4334    0.2380     4.038   200.000     9.348
 1561.3916    78.544    2.4005    0.3244     1.679   175.771     8.533
 1561.5440    97.524    2.4703    0.2671     4.169   200.000     8.532
 1561.6964    95.296    2.3851    0.2725     1.247   199.960     8.348
 1561.8488    91.760    2.4157    0.2779     1.624   200.000     9.308
 1562.0012    88.515    2.3984    0.2488     1.345   200.000     8.641
 1562.1536    98.243    2.4357    0.2441     3.210   200.000     8.430
 1562.3060    94.915    2.4370    0.3261     2.810   171.995     8.051
 1562.4584    83.292    2.4109    0.3436     1.722   164.092     8.002
 1562.6108    92.610    2.3975    0.3390     1.994   159.929     8.723
 1562.7632    83.505    2.4843    0.2214     1.349   200.000     8.510
 1562.9156    99.407    2.3440    0.2882     1.462   193.613     8.457
 1563.0680    92.755    2.4064    0.2402     3.496   200.000     8.250
 1563.2204    92.254    2.4299    0.2661     1.151   200.000     8.110
 1563.3728    88.162    2.3951    0.2647     1.632   200.000     8.001
 1563.5252    82.758    2.3742    0.2493     1.072   200.000     9.505
 1563.6776   112.490    2.4296    0.2837     1.582   195.056     8.084
 1563.8300    86.301    2.4610    0.2473     1.179   200.000     7.710
 1563.9824    90.623    2.4266    0.3053     1.518   180.855     8.197
 1564.1348    76.191    2.4876    0.3201     1.895   169.412     8.552
 1564.2872   104.023    2.4944    0.3028     4.341   181.102     8.182
 1564.4396    67.895    2.4423    0.2278     0.913   200.000     9.367
 1564.5920   100.667    2.4152    0.2419     2.461   200.000     7.676
 1564.7444    96.308    2.4134    0.2104     1.157   200.000     9.071
 1564.8968    86.893    2.3624    0.3501     1.683   152.872     8.722
 1565.0492    96.200    2.4004    0.2403     1.350   200.000     7.938
 1565.2016    78.942    2.3416    0.2971     3.083   186.596     8.311
 1565.3540    66.679    2.3775    0.2444     1.303   200.000     8.780
 1565.5064    99.015    2.4945    0.2536     1.721   200.000     8.115
 1565.6588    99.480    2.4928    0.2356     1.775   200.000     9.119
 1565.8112    94.865    2.4478    0.2077     4.682   200.000     9.234
 1565.9636    76.261    2.4548    0.2863     1.686   200.000     8.559
 1566.1160   107.650    2.4331    0.2686     3.235   200.000     8.728
 1566.2684    90.259    2.4700    0.2038     1.130   200.000     9.010
 1566.4208    90.557    2.4286    0.2045     0.792   200.000     8.438
 1566.5732   101.471    2.3949    0.3067     1.720   174.689     8.942
 1566.7256   102.145    2.4260    0.2868     3.231   193.092     8.048
 1566.8780   100.546    2.4062    0.1623     2.399   200.000     8.039
 1567.0304    75.317    2.4356    0.3690     0.830   143.131     8.347
 1567.1828    98.224    2.4373    0.2780     2.143   189.002     9.193
 1567.3352    90.162    2.5818    0.2744     2.892   196.759     8.576
 1567.4876    73.110    2.5057    0.2309     1.522   200.000     9.178
 1567.6400    87.586    2.4796    0.1731     3.138   200.000     8.091
 1567.7924    83.545    2.4440    0.3312     1.506   162.812     8.473
 1567.9448    80.994    2.4723    0.2931     2.592   181.374     8.138
 1568.0972    80.475    2.4933    0.2241     1.588   200.000     8.448
 1568.2496    78.325    2.5026    0.2847     1.001   195.358     8.787
 1568.4020    91.654    2.4243    0.3201     1.176   178.201     9.074
 1568.5544   106.998    2.4437    0.2381     4.232   200.000     8.632
 1568.7068    89.753    2.4118    0.3416     0.857   163.752     8.906
 1568.8592    91.961    2.4265    0.2916     2.092   194.590     8.492
 1569.0116    88.012    2.4428    0.2939     0.800   190.822     8.031
 1569.1640    94.282    2.4921    0.2822     2.148   194.685     8.371
 1569.3164    73.983    2.4980    0.3016     4.417   181.461     8.224
 1569.4688    83.587    2.4148    0.3038     4.364   176.672     8.012
 1569.6212   101.305    2.4778    0.3074     2.442   171.243     8.501
 1569.7736    92.490    2.3303    0.2721     2.387   197.029     8.314
 1569.9260   105.698    2.4558    0.2875     2.835   200.000     8.123
 1570.0784    99.804    2.4672    0.3024     2.151   181.322     9.174
 1570.2308    77.928    2.4118    0.2583     2.399   200.000     8.493
 1570.3832    94.388    2.4476    0.2166     1.200   200.000     8.371
 1570.5356    97.367    2.4085    0.2978     1.620   189.263     7.935
 1570.6880   105.309    2.4324    0.3531     1.376   158.530     8.599
 1570.8404    83.887    2.4162    0.3437     3.228   160.686     8.544
 1570.9928   109.724    2.4873    0.2686     0.857   200.000     8.446
 1571.1452   107.874    2.4209    0.2541     3.766   200.000     8.370
 1571.2976    85.570    2.5017    0.2745     1.536   199.102     8.297
 1571.4500    71.892    2.5039    0.2198     4.492   200.000     8.323
 1571.6024    88.307    2.4565    0.2061     0.867   200.000     9.382
 1571.7548    92.795    2.4046    0.3145     1.527   179.353     8.416
 1571.9072    79.558    2.5148    0.2841     2.542   187.942     8.557
 1572.0596    70.027    2.4283    0.2891     3.754   186.924     8.216
