~VERSION INFORMATION
 VERS.                 2.0    : CWLS LOG ASCII STANDARD
 WRAP.                 NO     : ONE LINE PER DEPTH STEP
~WELL INFORMATION
 WELL.                 25/11-1    : Well name
 FLD .                 Troll         : Field
 CTRY.                 Norway       : Country
 STRT.M                1400.0000 : START DEPTH
 STOP.M                2200.0000   : STOP DEPTH
 STEP.M                0.1524        : STEP
 NULL.                 -999.25          : NULL VALUE
 SRVC.                 SubsurfAI        : Service company
~CURVE INFORMATION
 DEPT.M                              : Depth
 GR  .GAPI                           : Gamma Ray
 RHOB.G/C3                           : Bulk Density
 NPHI.V/V                            : Neutron Porosity
 RT  .OHMM                           : True Resistivity
 DT  .US/F                           : Sonic
 CALI.IN                             : Caliper
~PARAMETER INFORMATION
 LAT .                 60.6411   : Latitude
 LON .                 3.7033   : Longitude
 DESC.                 Troll Fm — shallow marine sandstone, giant gas field
~A  DEPT        GR        RHOB      NPHI      RT        DT        CALI
# ...
 1968.2996    27.223    2.2417    0.2897    78.667   196.031     8.815
 1968.4520    28.928    2.1998    0.2395   163.370   200.000     8.441
 1968.6044    25.487    2.2883    0.2088   219.023   200.000     8.006
 1968.7568    29.659    2.2559    0.2997   171.375   180.966     8.800
 1968.9092    39.158    2.2221    0.2658   432.880   200.000     8.149
 1969.0616    31.895    2.2737    0.2552   161.119   200.000     8.773
 1969.2140    27.429    2.2918    0.2308   283.434   200.000     8.231
 1969.3664    22.834    2.2066    0.2604   147.550   200.000     9.072
 1969.5188    26.169    2.2544    0.2548    93.169   200.000     8.133
 1969.6712    25.450    2.2540    0.2474    75.248   200.000     8.167
 1969.8236    43.350    2.2285    0.2674    76.345   200.000     9.315
 1969.9760    30.345    2.2835    0.2506   136.390   200.000     9.304
 1970.1284    33.726    2.2179    0.2711   104.346   197.161     8.634
 1970.2808    29.682    2.2192    0.2943   128.312   181.136     8.507
 1970.4332    33.623    2.3784    0.2518   157.111   200.000     8.261
 1970.5856    22.409    2.2992    0.2626   411.258   199.981     9.330
 1970.7380    37.877    2.2405    0.3418   110.746   157.019     8.401
 1970.8904    27.894    2.2086    0.2890   379.249   185.118     8.018
 1971.0428    23.257    2.1748    0.2669   262.493   200.000     8.237
 1971.1952    30.219    2.2939    0.2293    46.935   200.000     8.921
 1971.3476    34.630    2.3105    0.3016    48.957   176.477     9.019
 1971.5000    27.184    2.1881    0.2243   219.482   200.000     8.393
 1971.6524    25.296    2.1746    0.2553   172.053   200.000     8.250
 1971.8048    29.818    2.1865    0.2354   137.069   200.000     8.081
 1971.9572    28.288    2.2454    0.2092   102.803   200.000     8.222
 1972.1096    34.402    2.1819    0.2071   162.591   200.000     8.052
 1972.2620    30.854    2.2917    0.2705   160.594   200.000     8.015
 1972.4144    31.154    2.2653    0.2819   128.936   198.168     8.271
 1972.5668    28.301    2.1974    0.2574   126.802   200.000     8.818
 1972.7192    31.030    2.3358    0.3236   284.828   171.493     8.172
 1972.8716    26.780    2.1833    0.2105    85.070   200.000     8.680
 1973.0240    30.157    2.1758    0.3336   296.173   158.111     9.128
 1973.1764    24.923    2.2639    0.1918   133.348   200.000     8.290
 1973.3288    25.097    2.2453    0.2692   154.766   197.375     7.289
 1973.4812    24.162    2.1896    0.2593   169.793   200.000     8.653
 1973.6336    37.059    2.2117    0.2165    75.484   200.000     8.980
 1973.7860    26.057    2.1933    0.2865   119.925   193.790     8.314
 1973.9384    35.447    2.2068    0.2464    80.695   200.000     8.863
 1974.0908    29.992    2.1376    0.2654   201.941   200.000     8.338
 1974.2432    31.082    2.3145    0.2726   125.906   200.000     8.787
 1974.3956    32.038    2.2511    0.2950   151.141   186.499     8.712
 1974.5480    35.676    2.1664    0.3036   111.753   187.637     8.424
 1974.7004    45.397    2.2554    0.2857    71.691   190.906     8.378
 1974.8528    28.659    2.2339    0.2084    92.896   200.000     8.645
 1975.0052    29.067    2.2237    0.1627   147.511   200.000     7.956
 1975.1576    25.234    2.2385    0.2195   180.874   200.000     8.877
 1975.3100    33.611    2.2553    0.2637   171.673   200.000     9.111
 1975.4624    36.572    2.1326    0.2120   197.259   200.000     8.565
 1975.6148    31.966    2.2785    0.2361   171.354   200.000     7.420
 1975.7672    35.998    2.2072    0.2433   150.308   200.000     8.193
 1975.9196    18.539    2.1948    0.2250   135.887   200.000     8.353
 1976.0720    26.264    2.2263    0.2092   256.231   200.000     9.047
 1976.2244    24.956    2.1897    0.3085   155.654   175.320     8.540
 1976.3768    32.742    2.2455    0.2847   208.587   196.619     8.367
 1976.5292    20.754    2.2643    0.2105   107.252   200.000     8.952
 1976.6816    38.613    2.2445    0.2124   234.581   200.000     7.870
 1976.8340    28.419    2.3080    0.3033    51.994   178.177     8.553
 1976.9864    20.681    2.2731    0.2961   158.592   180.460     8.763
 1977.1388    35.918    2.2152    0.1763   201.553   200.000     8.633
 1977.2912    32.946    2.2081    0.3272   193.107   169.437     8.131
 1977.4436    30.328    2.1868    0.2229   166.879   200.000     7.723
 1977.5960    24.133    2.2067    0.2830   193.751   200.000     8.219
 1977.7484    29.094    2.2140    0.3078   111.279   171.724     8.597
 1977.9008    32.207    2.2246    0.2864    94.669   194.100     9.007
 1978.0532    27.768    2.1878    0.2010    96.809   200.000     8.903
 1978.2056    35.912    2.2681    0.2454   105.052   200.000     8.260
 1978.3580    29.445    2.1698    0.2893   124.391   179.979     8.666
 1978.5104    26.330    2.2704    0.2267   167.972   200.000     8.306
 1978.6628    25.392    2.2628    0.2438   118.237   200.000     7.979
 1978.8152    26.432    2.2851    0.2768   306.929   194.930     8.952
 1978.9676    25.060    2.2594    0.2186    99.563   200.000     8.453
 1979.1200    30.585    2.2840    0.2564   154.292   200.000     8.326
 1979.2724    34.352    2.2662    0.2496   111.558   200.000     7.876
 1979.4248    33.047    2.2859    0.2556    93.384   200.000     8.484
 1979.5772    28.093    2.2828    0.3013   154.071   176.530     7.856
 1979.7296    26.910    2.1526    0.2612   112.597   200.000     8.380
 1979.8820    33.623    2.2085    0.2440   102.994   200.000     8.456
 1980.0344    28.151    2.2055    0.1926   129.348   200.000     8.680
 1980.1868    27.495    2.2003    0.2111   135.014   200.000     8.460
 1980.3392    26.077    2.3175    0.2136   126.803   200.000     9.394
 1980.4916    28.535    2.2693    0.2247   155.756   200.000     8.491
 1980.6440    29.564    2.2875    0.2462   107.153   200.000     8.419
 1980.7964    24.061    2.1929    0.2996   158.971   191.947     9.081
 1980.9488    30.944    2.1889    0.2665   244.008   200.000     8.433
 1981.1012    32.345    2.2261    0.3699   240.293   153.642     8.516
 1981.2536    31.649    2.2983    0.2837   176.335   189.140     8.496
 1981.4060    35.576    2.1373    0.2648   109.527   200.000     8.353
 1981.5584    29.015    2.2717    0.2669   123.034   200.000     8.644
 1981.7108    24.631    2.2912    0.2295   169.828   200.000     8.114
 1981.8632    32.967    2.2309    0.2196    88.232   200.000     8.219
 1982.0156    27.773    2.2165    0.2588    72.535   200.000     9.046
 1982.1680    31.739    2.3272    0.1946    81.790   200.000     8.500
 1982.3204    30.224    2.2170    0.1996    54.960   200.000     8.731
 1982.4728    32.075    2.2221    0.2300   127.369   200.000     7.749
 1982.6252    22.440    2.2917    0.2559   262.762   200.000     8.127
 1982.7776    30.523    2.2338    0.2544   119.391   200.000     8.555
 1982.9300    35.732    2.2294    0.2666   112.911   200.000     8.565
 1983.0824    32.349    2.1944    0.2385    98.880   200.000     8.536
 1983.2348    23.548    2.2446    0.2631    30.906   198.689     8.558
 1983.3872    35.323    2.2643    0.2755    79.210   200.000     8.616
 1983.5396    32.176    2.3050    0.3236   168.283   174.427     7.796
 1983.6920    31.453    2.3035    0.1606   178.211   200.000     8.603
 1983.8444    20.911    2.2248    0.2316   210.547   200.000     8.233
 1983.9968    26.557    2.1556    0.2975   232.769   183.413     8.539
 1984.1492    23.304    2.2271    0.2709   113.869   198.144     8.464
 1984.3016    36.025    2.2443    0.1850    54.733   200.000     8.699
 1984.4540    24.894    2.2645    0.3310   198.092   170.593     8.378
 1984.6064    29.260    2.2410    0.2607   111.332   200.000     8.564
 1984.7588    25.044    2.2204    0.3048    92.951   188.636     8.540
 1984.9112    28.448    2.2920    0.2536   112.629   200.000     8.385
 1985.0636    22.566    2.2378    0.2356   167.665   200.000     8.774
 1985.2160    21.959    2.2100    0.2235    72.022   200.000     8.355
 1985.3684    38.328    2.2781    0.2468   147.841   200.000     9.008
