~VERSION INFORMATION
 VERS.                 2.0    : CWLS LOG ASCII STANDARD
 WRAP.                 NO     : ONE LINE PER DEPTH STEP
~WELL INFORMATION
 WELL.                 25/11-1    : Well name
 FLD .                 Troll         : Field
 CTRY.                 Norway       : Country
 STRT.M                1400.0000 : START DEPTH
 STOP.M                2200.0000   : STOP DEPTH
 STEP.M                0.1524        : STEP
 NULL.                 -999.25          : NULL VALUE
 SRVC.                 SubsurfAI        : Service company
~CURVE INFORMATION
 DEPT.M                              : Depth
 GR  .GAPI                           : Gamma Ray
 RHOB.G/C3                           : Bulk Density
 NPHI.V/V                            : Neutron Porosity
 RT  .OHMM                           : True Resistivity
 DT  .US/F                           : Sonic
 CALI.IN                             : Caliper
~PARAMETER INFORMATION
 LAT .                 60.6411   : Latitude
 LON .                 3.7033   : Longitude
 DESC.                 Troll Fm — shallow marine sandstone, giant gas field
~A  DEPT        GR        RHOB      NPHI      RT        DT        CALI
# ...
 1503.3272    99.693    2.3871    0.2779     1.225   196.846     8.162
 1503.4796    83.117    2.4300    0.2831     6.316   192.403     8.822
 1503.6320   102.265    2.4024    0.2674     3.000   200.000     8.016
 1503.7844    90.504    2.4826    0.3097     3.001   170.574     8.993
 1503.9368   102.203    2.4233    0.2426     2.298   200.000    10.185
 1504.0892    88.297    2.4597    0.3335     1.471   168.136     8.030
 1504.2416   107.450    2.3560    0.2968     2.074   185.743     8.319
 1504.3940    72.695    2.4693    0.2195     1.629   200.000     7.455
 1504.5464    85.879    2.4587    0.2699     1.431   197.742     8.996
 1504.6988   102.551    2.4240    0.2766     2.242   200.000     8.797
 1504.8512    88.811    2.4980    0.2484     1.656   200.000     9.238
 1505.0036    86.128    2.4966    0.2909     1.492   188.685     9.032
 1505.1560    89.761    2.3813    0.2794     2.539   200.000     8.542
 1505.3084    90.812    2.3716    0.3037     1.574   181.264     8.319
 1505.4608   108.496    2.4500    0.2778     2.265   199.169     8.488
 1505.6132    98.177    2.4596    0.2845     1.472   190.060     8.029
 1505.7656    81.355    2.4503    0.2997     0.904   186.118     8.413
 1505.9180   111.460    2.4478    0.3008     3.507   184.321     8.261
 1506.0704    86.736    2.3815    0.2951     1.701   185.461     8.828
 1506.2228    93.333    2.3878    0.2379     1.581   200.000     8.482
 1506.3752    95.410    2.4395    0.2565     1.930   200.000     8.690
 1506.5276   108.684    2.4441    0.2808     1.664   196.302     8.282
 1506.6800    81.880    2.5033    0.2775     4.049   200.000     8.195
 1506.8324    83.729    2.4306    0.2692     1.435   200.000     8.587
 1506.9848    68.760    2.5201    0.2843     1.925   189.343     8.123
 1507.1372    90.846    2.4568    0.3258     1.900   166.555     7.754
 1507.2896    81.256    2.3905    0.2631     1.417   200.000     8.698
 1507.4420   107.954    2.4722    0.2795     0.937   192.331     7.813
 1507.5944    61.555    2.5078    0.2842     4.623   200.000     8.782
 1507.7468   109.808    2.4948    0.2973     2.048   189.680     9.107
 1507.8992    96.128    2.4346    0.2623     1.554   200.000     8.863
 1508.0516    88.853    2.5019    0.2171     4.733   200.000     8.100
 1508.2040   103.997    2.4801    0.2214     3.122   200.000     7.762
 1508.3564    82.751    2.4311    0.2474     1.606   200.000     9.348
 1508.5088    83.733    2.4551    0.2519     0.655   200.000     8.087
 1508.6612    81.734    2.4016    0.2180     3.572   200.000     8.871
 1508.8136    88.548    2.4152    0.2619     2.912   200.000     8.789
 1508.9660    88.229    2.4398    0.2463     2.131   200.000     8.803
 1509.1184    91.913    2.4531    0.2412     2.674   200.000     8.156
 1509.2708   104.502    2.4255    0.3160     1.553   176.789     9.201
 1509.4232   112.015    2.4086    0.3128     3.209   177.771     8.360
 1509.5756   107.219    2.5250    0.2678     2.355   200.000     8.173
 1509.7280    97.627    2.4043    0.2930     2.246   187.751     9.091
 1509.8804    84.956    2.4546    0.3208     1.138   174.398     8.988
 1510.0328    89.958    2.4807    0.2518     1.866   200.000     8.767
 1510.1852    87.546    2.4629    0.2474     5.794   200.000     7.890
 1510.3376    91.902    2.4848    0.2733     1.739   200.000     8.935
 1510.4900    91.419    2.4112    0.2981     1.859   182.575     8.512
 1510.6424   107.143    2.5090    0.2394     2.338   200.000     8.592
 1510.7948    88.399    2.3843    0.3411     1.412   158.986     8.113
 1510.9472   106.537    2.3844    0.2797     1.709   198.191     8.430
 1511.0996    90.397    2.4993    0.2616     3.685   200.000     8.690
 1511.2520    94.203    2.4087    0.2436     1.298   200.000     9.261
 1511.4044    97.259    2.4560    0.3186     1.812   171.436     8.816
 1511.5568   101.415    2.4274    0.3061     2.042   181.289     8.306
 1511.7092    88.284    2.4655    0.3077     1.816   180.990     8.296
 1511.8616   110.943    2.3940    0.2967     3.675   186.497     8.906
 1512.0140    84.105    2.4013    0.2509     1.518   200.000     8.397
 1512.1664    96.414    2.4588    0.2629     2.069   200.000     8.756
 1512.3188    85.305    2.4182    0.2693     4.566   200.000     8.671
 1512.4712    75.716    2.4093    0.3383     2.352   159.214     8.058
 1512.6236    83.808    2.4064    0.2073     2.776   200.000     7.899
 1512.7760    95.986    2.3994    0.2949     2.671   187.147     8.545
 1512.9284    92.230    2.4525    0.2143     1.412   200.000     8.616
 1513.0808    69.850    2.4756    0.3214     0.942   163.813     8.837
 1513.2332   108.390    2.4419    0.3896     1.356   143.508     8.981
 1513.3856    63.395    2.4831    0.3274     3.808   168.625     8.037
 1513.5380   103.632    2.4961    0.2619     2.751   200.000     8.521
 1513.6904    91.959    2.3591    0.2275     1.583   200.000     8.033
 1513.8428    78.100    2.4308    0.3479     1.040   146.363     7.738
 1513.9952    87.338    2.3908    0.3343     4.580   167.772     8.592
 1514.1476    78.913    2.4981    0.3016     2.121   180.091     7.675
 1514.3000    99.698    2.4427    0.2770     2.763   200.000     8.783
 1514.4524    87.223    2.4964    0.3211     2.990   176.558     8.868
 1514.6048    84.046    2.5049    0.2933     2.472   194.025     7.910
 1514.7572    85.737    2.5307    0.2416     2.766   200.000     8.882
 1514.9096    85.073    2.4836    0.2446     1.938   200.000     8.677
 1515.0620   104.055    2.4832    0.2572     5.146   200.000     7.991
 1515.2144    86.313    2.4377    0.1966     1.097   200.000     8.578
 1515.3668    99.304    2.4631    0.2117     2.411   200.000     8.776
 1515.5192    92.132    2.4370    0.2660     1.249   200.000     8.461
 1515.6716    91.527    2.3940    0.2340     1.657   200.000     8.294
 1515.8240   103.425    2.4159    0.2534     5.676   200.000     8.833
 1515.9764   101.167    2.4773    0.2423     3.297   200.000     8.996
 1516.1288    80.464    2.4563    0.2433     2.401   200.000     8.654
 1516.2812    95.438    2.4780    0.3121     2.379   172.878     8.040
 1516.4336   105.105    2.4017    0.3096     1.566   178.822     8.826
 1516.5860    95.066    2.4353    0.1967     0.567   200.000     8.241
 1516.7384    95.461    2.4054    0.2751     2.539   199.580     9.131
 1516.8908    95.133    2.4358    0.2803     3.884   200.000     8.166
 1517.0432    84.235    2.3657    0.2256     1.730   200.000     8.780
 1517.1956    80.427    2.4726    0.2412     0.897   200.000     7.875
 1517.3480    96.371    2.4618    0.3384     2.580   160.215     8.936
 1517.5004    95.533    2.4462    0.3806     1.079   151.253     8.270
 1517.6528   104.697    2.4447    0.3503     2.037   147.868     8.288
 1517.8052    83.503    2.4173    0.3050     1.255   182.199     8.389
 1517.9576    87.017    2.4192    0.2570     1.927   200.000     8.155
 1518.1100    98.458    2.4539    0.2553     2.044   200.000     7.399
 1518.2624   104.326    2.4816    0.2692     1.101   200.000     8.459
 1518.4148    87.129    2.4372    0.2490     1.700   200.000     9.098
 1518.5672    75.420    2.3472    0.2368     1.592   200.000     8.702
 1518.7196    99.107    2.4749    0.2122     1.721   200.000     8.852
 1518.8720    75.696    2.4428    0.1920     2.386   200.000     8.385
 1519.0244    80.638    2.4437    0.2803     0.818   190.693     9.193
 1519.1768    93.014    2.4426    0.2936     0.760   192.164     8.880
 1519.3292    81.830    2.4909    0.3249     1.649   162.450     8.714
 1519.4816    79.679    2.4672    0.3522     2.891   150.291     8.524
 1519.6340    93.153    2.5184    0.2752     2.866   199.978     7.722
 1519.7864    86.369    2.3588    0.3005     0.881   183.944     8.862
 1519.9388   104.434    2.3024    0.2749     3.449   200.000     8.595
 1520.0912    71.706    2.4369    0.2675     4.557   200.000     8.394
 1520.2436    95.726    2.4965    0.2967     2.604   179.321     8.668
 1520.3960   102.587    2.4785    0.2216     3.492   200.000     8.507
