~VERSION INFORMATION
 VERS.                 2.0    : CWLS LOG ASCII STANDARD
 WRAP.                 NO     : ONE LINE PER DEPTH STEP
~WELL INFORMATION
 WELL.                 25/11-1    : Well name
 FLD .                 Troll         : Field
 CTRY.                 Norway       : Country
 STRT.M                1400.0000 : START DEPTH
 STOP.M                2200.0000   : STOP DEPTH
 STEP.M                0.1524        : STEP
 NULL.                 -999.25          : NULL VALUE
 SRVC.                 SubsurfAI        : Service company
~CURVE INFORMATION
 DEPT.M                              : Depth
 GR  .GAPI                           : Gamma Ray
 RHOB.G/C3                           : Bulk Density
 NPHI.V/V                            : Neutron Porosity
 RT  .OHMM                           : True Resistivity
 DT  .US/F                           : Sonic
 CALI.IN                             : Caliper
~PARAMETER INFORMATION
 LAT .                 60.6411   : Latitude
 LON .                 3.7033   : Longitude
 DESC.                 Troll Fm — shallow marine sandstone, giant gas field
~A  DEPT        GR        RHOB      NPHI      RT        DT        CALI
# ...
 1813.3088    38.871    2.1949    0.2613   175.215   200.000     8.277
 1813.4612    33.097    2.1194    0.2526    96.071   200.000     8.900
 1813.6136    26.039    2.2212    0.2666   102.731   200.000     8.132
 1813.7660    25.954    2.2037    0.3276   216.112   163.631     7.989
 1813.9184    29.443    2.2456    0.2719    65.342   200.000     7.874
 1814.0708    27.071    2.2444    0.2438   118.214   200.000     8.825
 1814.2232    34.480    2.2048    0.2700   126.044   200.000     8.901
 1814.3756    30.788    2.1307    0.3060    97.641   168.831     8.924
 1814.5280    24.580    2.2880    0.2606   115.601   200.000     8.568
 1814.6804    29.683    2.2437    0.2931   131.715   186.841     8.463
 1814.8328    27.194    2.2737    0.2993   101.919   189.426     8.203
 1814.9852    27.523    2.2006    0.3245   237.850   168.225     8.675
 1815.1376    29.420    2.3202    0.2041    90.151   200.000     8.568
 1815.2900    27.152    2.2491    0.2233    55.139   200.000     8.802
 1815.4424    28.060    2.1291    0.2660    60.025   200.000     7.979
 1815.5948    21.184    2.1811    0.2814   119.813   200.000     9.126
 1815.7472    21.789    2.2370    0.2581   104.110   200.000     8.771
 1815.8996    34.657    2.1602    0.2384    44.726   200.000     8.754
 1816.0520    29.746    2.2630    0.2683   109.999   200.000     8.355
 1816.2044    28.670    2.2147    0.1905   337.141   200.000     8.888
 1816.3568    30.028    2.1841    0.3660   241.181   153.623     8.224
 1816.5092    28.180    2.2630    0.2426   215.116   200.000     8.790
 1816.6616    31.122    2.2493    0.2404    83.269   200.000     8.530
 1816.8140    25.590    2.2122    0.2677    21.944   197.916     8.749
 1816.9664    33.305    2.2531    0.2707   144.947   200.000     9.346
 1817.1188    29.411    2.2165    0.3055   229.257   185.914     9.054
 1817.2712    35.702    2.2308    0.2903    70.303   192.213     8.678
 1817.4236    20.434    2.2191    0.1909    92.362   200.000     8.151
 1817.5760    30.874    2.2157    0.2749   103.182   197.680     9.202
 1817.7284    11.461    2.2044    0.3250   117.585   162.817     8.503
 1817.8808    38.690    2.2589    0.2995    49.705   182.150     7.993
 1818.0332    32.048    2.1776    0.2801    57.708   200.000     8.553
 1818.1856    30.222    2.1867    0.2491    53.718   200.000     7.634
 1818.3380    34.910    2.2335    0.2800    81.146   199.177     8.228
 1818.4904    31.710    2.2339    0.2604    82.260   200.000     8.746
 1818.6428    27.722    2.2457    0.2170   195.209   200.000     8.257
 1818.7952    25.001    2.2144    0.2859    86.855   185.115     9.125
 1818.9476    27.591    2.2435    0.2864   113.092   183.725     8.326
 1819.1000    32.395    2.2984    0.3029   237.233   178.232     8.293
 1819.2524    35.454    2.2751    0.2551    52.439   200.000     8.734
 1819.4048    31.297    2.1742    0.2936   132.972   180.270     8.382
 1819.5572    24.732    2.2595    0.2313    70.738   200.000     8.298
 1819.7096    42.062    2.2667    0.2249    84.335   200.000     8.565
 1819.8620    33.876    2.2774    0.2776    45.281   200.000     7.704
 1820.0144    26.885    2.2065    0.2982    44.635   185.101     9.171
 1820.1668    33.992    2.3004    0.2102    98.106   200.000     8.412
 1820.3192    18.830    2.2827    0.2473   272.350   200.000     8.487
 1820.4716    34.133    2.1865    0.2605   125.440   200.000     7.974
 1820.6240    30.954    2.2715    0.3097    76.933   173.210     8.260
 1820.7764    32.063    2.2666    0.2523   144.751   200.000     8.989
 1820.9288    35.132    2.2524    0.2695   167.671   200.000     8.334
 1821.0812    34.742    2.2085    0.2541   119.810   200.000     7.975
 1821.2336    37.817    2.2338    0.2144    91.682   200.000     8.972
 1821.3860    23.709    2.2689    0.2311   195.877   200.000     8.419
 1821.5384    30.843    2.2582    0.2403   119.121   200.000     8.794
 1821.6908    36.103    2.2757    0.2591   105.985   200.000     8.052
 1821.8432    37.092    2.2006    0.2533   155.328   200.000     8.740
 1821.9956    32.100    2.2324    0.3173    42.533   164.089     8.602
 1822.1480    32.392    2.2371    0.2610   175.176   200.000     7.819
 1822.3004    21.944    2.2719    0.3025   213.171   183.090     8.184
 1822.4528    27.676    2.2985    0.2861   139.791   200.000     9.137
 1822.6052    32.771    2.2918    0.3127   134.519   177.109     8.249
 1822.7576    39.455    2.2496    0.2687    93.649   200.000     8.361
 1822.9100    31.885    2.2870    0.2594   142.610   200.000     8.334
 1823.0624    30.107    2.2423    0.2608   169.947   200.000     7.916
 1823.2148    27.669    2.2175    0.2037   334.298   200.000     8.634
 1823.3672    35.409    2.2517    0.2708    94.808   200.000     8.465
 1823.5196    36.632    2.2267    0.2487   137.213   200.000     7.951
 1823.6720    25.895    2.2076    0.2092   122.978   200.000     8.283
 1823.8244    26.837    2.2864    0.2355   104.998   200.000     7.845
 1823.9768    29.965    2.2204    0.2558    84.177   200.000     8.138
 1824.1292    33.404    2.2857    0.2714   140.533   200.000     8.251
 1824.2816    27.969    2.2388    0.2825   175.468   190.950     8.105
 1824.4340    41.953    2.2311    0.3286    81.483   173.357     9.209
 1824.5864    35.514    2.2206    0.3501    91.416   163.112     9.268
 1824.7388    22.527    2.2098    0.2456   100.022   200.000     8.960
 1824.8912    32.087    2.2752    0.2851    38.333   196.096     8.341
 1825.0436    26.774    2.2399    0.2968   320.150   189.803     7.606
 1825.1960    35.544    2.2027    0.2631   132.657   200.000     8.502
 1825.3484    29.149    2.2336    0.1968   352.101   200.000     9.204
 1825.5008    34.700    2.2671    0.2688   195.639   199.540     8.117
 1825.6532    27.887    2.2139    0.3257   215.321   166.247     8.333
 1825.8056    31.111    2.1709    0.2954   165.711   187.651     8.891
 1825.9580    34.983    2.2319    0.2238   141.348   200.000     8.788
 1826.1104    42.528    2.2316    0.3298   228.038   167.212     8.918
 1826.2628    30.311    2.1470    0.2764   133.267   195.520     8.218
 1826.4152    32.259    2.2987    0.2871   148.529   198.136     8.775
 1826.5676    36.204    2.2684    0.2318   123.071   200.000     8.801
 1826.7200    35.297    2.2543    0.2794   185.908   199.201     8.911
 1826.8724    36.929    2.2372    0.2375    50.500   200.000     7.926
 1827.0248    27.658    2.2968    0.2336    59.710   200.000     8.227
 1827.1772    21.179    2.2148    0.2677   213.711   196.324     7.774
 1827.3296    14.806    2.2826    0.2195    70.976   200.000     9.118
 1827.4820    27.197    2.2771    0.2451   158.707   200.000     8.597
 1827.6344    31.347    2.1971    0.1742   121.009   200.000     8.709
 1827.7868    40.007    2.2386    0.2401   127.891   200.000     8.503
 1827.9392    34.480    2.1846    0.2306    58.265   200.000     8.337
 1828.0916    26.844    2.1845    0.2444    96.453   200.000     8.440
 1828.2440    25.589    2.3648    0.2404   263.931   200.000     7.729
 1828.3964    34.058    2.2010    0.2453   134.886   200.000     8.153
 1828.5488    32.311    2.2633    0.2681    75.195   200.000     8.775
 1828.7012    17.831    2.2169    0.2055   178.473   200.000     8.201
 1828.8536    26.663    2.1878    0.2792   108.808   197.415     8.457
 1829.0060    29.025    2.1585    0.2240    90.731   200.000     8.523
 1829.1584    23.677    2.2379    0.2353    93.816   200.000     8.998
 1829.3108    30.601    2.2335    0.2322   253.362   200.000     8.213
 1829.4632    24.646    2.2330    0.2820    89.177   191.918     8.225
 1829.6156    30.037    2.2792    0.2374   111.815   200.000     8.844
 1829.7680    32.599    2.1980    0.2701   192.851   200.000     8.595
 1829.9204    30.225    2.2334    0.2714    55.387   200.000     8.500
 1830.0728    26.618    2.1963    0.3126    72.450   176.273     8.428
 1830.2252    37.547    2.2112    0.2533   294.108   200.000     8.156
 1830.3776    29.509    2.2940    0.2532    70.047   200.000     8.895
