~VERSION INFORMATION
 VERS.                 2.0    : CWLS LOG ASCII STANDARD
 WRAP.                 NO     : ONE LINE PER DEPTH STEP
~WELL INFORMATION
 WELL.                 25/11-1    : Well name
 FLD .                 Troll         : Field
 CTRY.                 Norway       : Country
 STRT.M                1400.0000 : START DEPTH
 STOP.M                2200.0000   : STOP DEPTH
 STEP.M                0.1524        : STEP
 NULL.                 -999.25          : NULL VALUE
 SRVC.                 SubsurfAI        : Service company
~CURVE INFORMATION
 DEPT.M                              : Depth
 GR  .GAPI                           : Gamma Ray
 RHOB.G/C3                           : Bulk Density
 NPHI.V/V                            : Neutron Porosity
 RT  .OHMM                           : True Resistivity
 DT  .US/F                           : Sonic
 CALI.IN                             : Caliper
~PARAMETER INFORMATION
 LAT .                 60.6411   : Latitude
 LON .                 3.7033   : Longitude
 DESC.                 Troll Fm — shallow marine sandstone, giant gas field
~A  DEPT        GR        RHOB      NPHI      RT        DT        CALI
# ...
 1761.6452    28.833    2.1889    0.2403   152.058   200.000     8.310
 1761.7976    28.061    2.2537    0.2911   109.398   188.012     7.898
 1761.9500    25.570    2.2158    0.2740   175.962   198.473     7.761
 1762.1024    23.756    2.2241    0.2640   164.530   200.000     8.920
 1762.2548    21.821    2.1618    0.2257   365.216   200.000     8.509
 1762.4072    20.790    2.2447    0.2545   101.872   200.000     8.134
 1762.5596    26.484    2.2029    0.3036   182.090   174.312     8.903
 1762.7120    17.753    2.2097    0.2222   170.859   200.000     8.310
 1762.8644    26.076    2.1927    0.2484   223.843   200.000     8.579
 1763.0168    23.045    2.2092    0.2958   118.381   188.722     8.567
 1763.1692    24.635    2.1594    0.2878   442.144   182.736     7.876
 1763.3216    26.780    2.2044    0.3206   179.851   172.915     8.097
 1763.4740    25.809    2.1980    0.2593   167.232   200.000     8.525
 1763.6264    25.297    2.2418    0.2852    66.707   187.680     8.283
 1763.7788    30.875    2.2047    0.2926   204.370   186.161     8.831
 1763.9312    29.108    2.1748    0.3132   152.185   180.870     8.239
 1764.0836    27.611    2.1556    0.3126    88.695   173.392     8.825
 1764.2360    29.691    2.0961    0.2328    94.875   200.000     8.158
 1764.3884    27.167    2.2048    0.2733    77.914   195.868     8.579
 1764.5408    25.458    2.2343    0.2618   298.220   200.000     9.029
 1764.6932    30.387    2.2520    0.3334   379.284   169.975     8.631
 1764.8456    25.622    2.2651    0.3038    98.705   191.610     8.588
 1764.9980    19.768    2.1267    0.2185   170.719   200.000     9.195
 1765.1504    25.446    2.1628    0.2639   204.944   200.000     8.000
 1765.3028    25.446    2.2506    0.2906    67.522   191.316     8.424
 1765.4552    22.270    2.1675    0.3025   214.554   175.785     8.857
 1765.6076    31.038    2.1805    0.2434   118.429   200.000     8.859
 1765.7600    21.126    2.1972    0.2538   101.087   200.000     8.040
 1765.9124    32.853    2.2866    0.1990    99.357   200.000     8.974
 1766.0648    15.981    2.2690    0.2074   175.604   200.000     9.254
 1766.2172    19.307    2.2168    0.2935   119.323   181.735     7.834
 1766.3696    16.540    2.1499    0.2390   137.068   200.000     9.045
 1766.5220    25.535    2.2776    0.2505   158.576   200.000     8.895
 1766.6744    30.104    2.1904    0.2263   326.164   200.000     8.099
 1766.8268    26.698    2.2105    0.2750   236.781   200.000     8.290
 1766.9792    17.969    2.1471    0.3146   294.783   175.831     9.004
 1767.1316    21.282    2.2574    0.1907   407.457   200.000     8.353
 1767.2840    33.486    2.2067    0.3283    56.902   173.476     8.777
 1767.4364    33.968    2.2171    0.3077    89.999   178.348     8.164
 1767.5888    27.195    2.2170    0.2463   178.964   200.000     8.385
 1767.7412    28.012    2.2540    0.3398   181.586   159.601     8.855
 1767.8936    19.898    2.2400    0.2453   191.523   200.000     8.552
 1768.0460    19.723    2.2306    0.2641    68.544   200.000     8.791
 1768.1984    21.671    2.1788    0.3063   137.152   171.374     8.910
 1768.3508    21.915    2.2062    0.2647   168.556   200.000     8.754
 1768.5032    24.238    2.2099    0.2674   219.442   200.000     8.649
 1768.6556    20.367    2.2151    0.3019   135.696   183.229     8.437
 1768.8080    19.727    2.2654    0.3005    94.933   179.963     8.377
 1768.9604    28.560    2.2548    0.2783   104.361   199.857     8.235
 1769.1128    19.503    2.1771    0.2970   117.669   179.504     8.559
 1769.2652    19.484    2.2072    0.2973   129.337   178.514     8.528
 1769.4176    24.248    2.2544    0.2909   445.632   181.276     9.415
 1769.5700    14.730    2.1428    0.2956   241.869   194.163     8.566
 1769.7224    23.613    2.2446    0.2542   142.778   200.000     7.843
 1769.8748    22.167    2.2895    0.3230    81.664   173.127     8.051
 1770.0272    18.369    2.1896    0.2673   191.705   200.000     8.503
 1770.1796    18.349    2.2780    0.3313   177.877   164.541     8.567
 1770.3320    30.590    2.2030    0.2866    65.563   189.998     8.723
 1770.4844    17.563    2.2643    0.2198   150.570   200.000     8.745
 1770.6368    31.810    2.2482    0.2955   114.208   182.375     9.022
 1770.7892    17.226    2.2079    0.3262   174.510   166.150     8.555
 1770.9416    34.663    2.2089    0.2564   132.825   200.000     8.926
 1771.0940    25.256    2.2241    0.2885    88.888   196.298     8.996
 1771.2464    19.948    2.2336    0.2238    88.862   200.000     8.624
 1771.3988    26.946    2.2518    0.1903   219.545   200.000     8.325
 1771.5512    28.274    2.2624    0.2807   174.691   190.951     7.765
 1771.7036    28.873    2.1858    0.2859   117.970   193.868     9.107
 1771.8560    24.658    2.2159    0.2537    65.897   200.000     7.488
 1772.0084    20.675    2.2498    0.3600   120.029   150.569     8.207
 1772.1608    25.526    2.1941    0.3403   122.100   155.982     8.618
 1772.3132    22.626    2.2702    0.3515   106.362   152.122     8.661
 1772.4656    18.589    2.2493    0.3029   140.531   191.899     8.468
 1772.6180    20.149    2.3087    0.2873   104.633   192.181     8.423
 1772.7704    20.685    2.2103    0.2876    76.514   191.004     7.689
 1772.9228    15.322    2.1588    0.3027   166.983   188.771     7.519
 1773.0752    21.940    2.2435    0.2092   265.720   200.000     8.745
 1773.2276    26.162    2.2663    0.3431   173.054   163.343     8.421
 1773.3800    23.840    2.2303    0.2828   149.053   188.240     9.009
 1773.5324    30.066    2.3244    0.2961   141.791   186.533     8.454
 1773.6848    25.146    2.1937    0.3050   327.384   181.522     8.666
 1773.8372    25.088    2.2681    0.2524    70.476   200.000     9.217
 1773.9896    15.735    2.1982    0.2695    50.637   200.000     9.232
 1774.1420    26.925    2.2287    0.2819   104.559   194.498     9.042
 1774.2944    24.690    2.2417    0.3096    80.426   181.245     7.932
 1774.4468    23.746    2.1733    0.2517   214.090   200.000     8.646
 1774.5992    21.187    2.1863    0.2257   139.086   200.000     8.995
 1774.7516    33.267    2.2028    0.2619   171.664   200.000     9.098
 1774.9040    21.755    2.1308    0.2829    91.615   198.654     8.168
 1775.0564    22.376    2.2383    0.2442   330.630   200.000     8.416
 1775.2088    28.128    2.1680    0.2371    82.323   200.000     8.654
 1775.3612    25.095    2.2260    0.2409   192.268   200.000     8.510
 1775.5136    30.601    2.1735    0.2995   302.000   186.037     7.920
 1775.6660    29.188    2.2135    0.2588   145.890   200.000     8.403
 1775.8184    23.371    2.1208    0.2536    82.042   200.000     8.882
 1775.9708    23.563    2.2072    0.3109   119.879   173.699     8.718
 1776.1232    31.307    2.2285    0.2999   205.442   185.017     8.225
 1776.2756    31.968    2.2401    0.2777   256.518   190.617     7.753
 1776.4280    13.833    2.3142    0.2431    53.980   200.000    10.157
 1776.5804    19.971    2.1626    0.2331   171.445   200.000     8.520
 1776.7328    28.627    2.2512    0.3092    96.366   176.872     8.797
 1776.8852    19.989    2.1871    0.2636    47.172   200.000     7.986
 1777.0376    29.258    2.2088    0.2906    64.205   189.858     8.448
 1777.1900    28.190    2.1947    0.2167    89.294   200.000     8.518
 1777.3424    23.130    2.2302    0.2735   190.224   200.000     8.375
 1777.4948    21.738    2.1475    0.3183   215.777   173.487     9.212
 1777.6472    21.734    2.2061    0.2381   254.541   200.000     8.322
 1777.7996    28.014    2.2581    0.3548   217.824   155.725     8.589
 1777.9520    30.363    2.1821    0.1919   328.884   200.000     9.094
 1778.1044    26.399    2.3836    0.2972   108.052   192.134     8.600
 1778.2568    28.291    2.2350    0.2049   220.999   200.000     8.275
 1778.4092    21.798    2.2537    0.2735    74.279   200.000     8.428
 1778.5616    24.112    2.1559    0.1897   152.337   200.000     8.397
 1778.7140    28.833    2.2042    0.2519   186.677   200.000     8.803
