~VERSION INFORMATION
 VERS.                 2.0    : CWLS LOG ASCII STANDARD
 WRAP.                 NO     : ONE LINE PER DEPTH STEP
~WELL INFORMATION
 WELL.                 25/11-1    : Well name
 FLD .                 Troll         : Field
 CTRY.                 Norway       : Country
 STRT.M                1400.0000 : START DEPTH
 STOP.M                2200.0000   : STOP DEPTH
 STEP.M                0.1524        : STEP
 NULL.                 -999.25          : NULL VALUE
 SRVC.                 SubsurfAI        : Service company
~CURVE INFORMATION
 DEPT.M                              : Depth
 GR  .GAPI                           : Gamma Ray
 RHOB.G/C3                           : Bulk Density
 NPHI.V/V                            : Neutron Porosity
 RT  .OHMM                           : True Resistivity
 DT  .US/F                           : Sonic
 CALI.IN                             : Caliper
~PARAMETER INFORMATION
 LAT .                 60.6411   : Latitude
 LON .                 3.7033   : Longitude
 DESC.                 Troll Fm — shallow marine sandstone, giant gas field
~A  DEPT        GR        RHOB      NPHI      RT        DT        CALI
# ...
 1916.6360    34.768    2.2035    0.2185   231.610   200.000     8.887
 1916.7884    23.139    2.2588    0.1989    87.864   200.000     8.880
 1916.9408    40.684    2.2437    0.2167   139.670   200.000     8.468
 1917.0932    24.383    2.2055    0.2443    75.718   200.000     8.828
 1917.2456    34.328    2.2479    0.2527    55.526   200.000     8.509
 1917.3980    27.240    2.2044    0.3100   149.149   177.687     9.261
 1917.5504    40.741    2.2271    0.2290   116.663   200.000     8.065
 1917.7028    26.682    2.2998    0.2043   357.939   200.000     8.638
 1917.8552    27.001    2.2299    0.3226    63.907   178.131     9.128
 1918.0076    33.595    2.2806    0.2694   195.233   200.000     8.676
 1918.1600    35.088    2.2239    0.2259   117.206   200.000     8.426
 1918.3124    33.110    2.2617    0.2261   138.238   200.000     8.602
 1918.4648    31.941    2.2107    0.3172    58.450   169.453     8.877
 1918.6172    23.761    2.2162    0.2315    69.813   200.000     7.883
 1918.7696    31.109    2.3047    0.2977    98.301   186.213     8.123
 1918.9220    28.163    2.2917    0.2637    94.075   200.000     8.395
 1919.0744    27.130    2.2027    0.2692    99.266   200.000     8.486
 1919.2268    42.695    2.2222    0.3065    36.304   181.803     8.937
 1919.3792    32.471    2.1945    0.2484    77.248   200.000     8.588
 1919.5316    38.217    2.2522    0.2309   201.285   200.000     8.776
 1919.6840    25.580    2.2538    0.2816   141.898   200.000     8.327
 1919.8364    29.314    2.3125    0.1927   104.498   200.000     8.393
 1919.9888    35.419    2.1809    0.3359    86.245   164.775     8.307
 1920.1412    25.868    2.3197    0.2818    81.173   200.000     8.672
 1920.2936    32.471    2.3063    0.2357    84.494   200.000     9.681
 1920.4460    24.986    2.2225    0.3086   153.859   171.531     8.355
 1920.5984    28.934    2.2496    0.2733    94.427   200.000     8.154
 1920.7508    31.328    2.1992    0.2525   110.300   200.000     8.531
 1920.9032    22.004    2.2339    0.1981   103.053   200.000     8.072
 1921.0556    32.556    2.2668    0.2389    70.644   200.000     9.055
 1921.2080    28.094    2.2011    0.2685   150.785   200.000     8.300
 1921.3604    25.779    2.2932    0.2860    94.276   193.876     8.531
 1921.5128    37.243    2.2151    0.2445   147.569   200.000     8.398
 1921.6652    41.994    2.2951    0.2040   200.589   200.000     8.555
 1921.8176    33.477    2.2224    0.2506    88.178   200.000     7.744
 1921.9700    37.409    2.2064    0.2905   104.390   187.497     8.368
 1922.1224    32.844    2.2739    0.2027   156.802   200.000     7.959
 1922.2748    37.146    2.2099    0.2694   170.387   198.747     8.223
 1922.4272    31.998    2.2772    0.2303   141.914   200.000     8.261
 1922.5796    39.001    2.2169    0.2256   128.198   200.000     8.941
 1922.7320    29.413    2.2528    0.2095   122.749   200.000     8.035
 1922.8844    36.508    2.1483    0.2843   136.662   193.165     8.473
 1923.0368    20.083    2.2169    0.2064   134.838   200.000     9.313
 1923.1892    33.563    2.2075    0.2381    88.044   200.000     8.497
 1923.3416    32.222    2.2632    0.2725   357.359   197.923     8.219
 1923.4940    38.185    2.2407    0.2482   169.574   200.000     8.321
 1923.6464    33.205    2.2614    0.2991   112.105   188.708     8.764
 1923.7988    29.710    2.2364    0.2474    73.187   200.000     8.631
 1923.9512    33.019    2.1860    0.2392   120.066   200.000     8.748
 1924.1036    30.802    2.2056    0.2684    77.667   200.000     8.277
 1924.2560    25.636    2.2449    0.2469   140.449   200.000     8.184
 1924.4084    35.855    2.1552    0.2833   102.064   194.091     8.548
 1924.5608    34.922    2.2923    0.2511   126.929   200.000     8.434
 1924.7132    30.394    2.1995    0.2389    65.914   200.000     8.177
 1924.8656    26.030    2.2612    0.2839   115.796   197.645     8.590
 1925.0180    27.894    2.1933    0.2438   108.442   200.000     7.913
 1925.1704    37.936    2.2325    0.2391    69.313   200.000     8.700
 1925.3228    32.520    2.2161    0.1874   203.827   200.000     8.543
 1925.4752    21.213    2.2088    0.2516    98.695   200.000     9.026
 1925.6276    37.879    2.1625    0.3193   192.691   173.324     8.232
 1925.7800    32.801    2.3256    0.3473    92.138   166.530     8.463
 1925.9324    28.253    2.2319    0.2181   246.552   200.000     7.959
 1926.0848    34.247    2.2462    0.2855   103.385   194.752     8.068
 1926.2372    28.048    2.3375    0.2241   186.709   200.000     7.936
 1926.3896    27.161    2.2361    0.2852   147.269   194.029     7.993
 1926.5420    28.724    2.2262    0.2694    90.882   200.000     8.916
 1926.6944    33.777    2.2191    0.2779   210.279   196.235     7.611
 1926.8468    33.130    2.2513    0.3004   239.853   180.177     8.206
 1926.9992    27.855    2.1690    0.2805   121.383   196.139     8.933
 1927.1516    26.361    2.2254    0.2813   123.890   200.000     8.931
 1927.3040    31.575    2.2535    0.2521   135.923   200.000     8.852
 1927.4564    33.961    2.2113    0.2532    39.781   200.000     8.912
 1927.6088    29.305    2.2700    0.2780    83.578   199.967     8.354
 1927.7612    26.008    2.2788    0.2226   176.808   200.000     7.726
 1927.9136    32.399    2.2118    0.2800    94.864   194.987     8.110
 1928.0660    27.327    2.2652    0.2507   152.712   200.000     8.199
 1928.2184    29.453    2.2221    0.2638   108.438   200.000     8.380
 1928.3708    35.332    2.2438    0.3126    62.861   166.689     8.834
 1928.5232    29.622    2.2517    0.2773   182.207   196.135     8.744
 1928.6756    28.917    2.1858    0.3325   191.115   159.791     8.465
 1928.8280    27.775    2.2110    0.2137   151.740   200.000     8.429
 1928.9804    25.518    2.2125    0.2475    79.642   200.000     8.216
 1929.1328    27.266    2.2377    0.2505   230.195   200.000     9.062
 1929.2852    25.022    2.2383    0.2880   243.832   198.659     9.335
 1929.4376    31.618    2.2154    0.2026   184.336   200.000     8.469
 1929.5900    31.200    2.2844    0.2777   102.685   197.120     7.436
 1929.7424    29.622    2.2176    0.2550   244.631   200.000     9.293
 1929.8948    32.298    2.1941    0.2712   154.863   200.000     8.517
 1930.0472    40.768    2.3117    0.2542   399.509   200.000     7.636
 1930.1996    34.069    2.2380    0.2262   196.083   200.000     8.715
 1930.3520    30.550    2.2059    0.3242    88.424   174.979     8.647
 1930.5044    34.485    2.3009    0.2954   121.918   188.220     8.665
 1930.6568    30.544    2.2008    0.2831   132.509   195.990     8.645
 1930.8092    25.273    2.2091    0.2289   142.739   200.000     8.464
 1930.9616    23.886    2.1987    0.2646   133.864   200.000     8.648
 1931.1140    41.448    2.2807    0.2494   343.318   200.000     7.978
 1931.2664    23.688    2.2344    0.2805   121.250   196.660     8.646
 1931.4188    29.104    2.2841    0.2778    83.007   198.196     8.279
 1931.5712    29.190    2.2987    0.3555    39.375   146.996     8.625
 1931.7236    28.631    2.2813    0.2700   154.953   200.000     8.612
 1931.8760    31.169    2.1314    0.3184    73.438   178.247     7.961
 1932.0284    26.982    2.2728    0.2793   122.681   200.000     8.634
 1932.1808    32.118    2.2191    0.2347   332.230   200.000     8.552
 1932.3332    37.149    2.2628    0.1742    48.577   200.000     8.543
 1932.4856    27.690    2.2290    0.2557   414.453   200.000     8.264
 1932.6380    30.337    2.2883    0.2663   249.579   200.000     8.840
 1932.7904    29.745    2.1693    0.2846    78.464   193.148     8.268
 1932.9428    26.118    2.2176    0.1826   140.237   200.000     8.694
 1933.0952    38.442    2.2293    0.2118   135.167   200.000     7.988
 1933.2476    37.963    2.2155    0.3434    58.144   161.311     8.593
 1933.4000    25.173    2.2530    0.2777   221.392   198.316     9.024
 1933.5524    25.411    2.2048    0.2655   147.748   200.000     8.185
 1933.7048    34.576    2.2978    0.2730   214.025   200.000     8.822
