~VERSION INFORMATION
 VERS.                 2.0    : CWLS LOG ASCII STANDARD
 WRAP.                 NO     : ONE LINE PER DEPTH STEP
~WELL INFORMATION
 WELL.                 25/11-1    : Well name
 FLD .                 Troll         : Field
 CTRY.                 Norway       : Country
 STRT.M                1400.0000 : START DEPTH
 STOP.M                2200.0000   : STOP DEPTH
 STEP.M                0.1524        : STEP
 NULL.                 -999.25          : NULL VALUE
 SRVC.                 SubsurfAI        : Service company
~CURVE INFORMATION
 DEPT.M                              : Depth
 GR  .GAPI                           : Gamma Ray
 RHOB.G/C3                           : Bulk Density
 NPHI.V/V                            : Neutron Porosity
 RT  .OHMM                           : True Resistivity
 DT  .US/F                           : Sonic
 CALI.IN                             : Caliper
~PARAMETER INFORMATION
 LAT .                 60.6411   : Latitude
 LON .                 3.7033   : Longitude
 DESC.                 Troll Fm — shallow marine sandstone, giant gas field
~A  DEPT        GR        RHOB      NPHI      RT        DT        CALI
# ...
 2123.2904    65.056    2.4060    0.3010     1.503   174.390     7.991
 2123.4428    75.151    2.3896    0.2325     1.148   200.000     8.496
 2123.5952   104.630    2.3602    0.3044     2.232   181.829     8.954
 2123.7476    82.097    2.4946    0.3189     2.194   171.870     8.587
 2123.9000    75.440    2.4430    0.3076     2.370   181.443     8.347
 2124.0524    65.924    2.4456    0.2900     1.258   184.573     8.258
 2124.2048    86.099    2.4121    0.1996     3.011   200.000     9.289
 2124.3572   100.022    2.4803    0.2540     1.740   200.000     8.165
 2124.5096    83.258    2.4323    0.2281     1.343   200.000     8.713
 2124.6620    87.992    2.4805    0.2729     1.854   200.000     7.940
 2124.8144    90.206    2.4592    0.1869     1.798   200.000     8.145
 2124.9668    79.144    2.4535    0.3134     1.949   178.106     8.226
 2125.1192    91.758    2.4597    0.1824     2.604   200.000     8.297
 2125.2716    67.415    2.4858    0.2548     1.468   200.000     8.482
 2125.4240    97.507    2.3703    0.2598     1.637   200.000     8.277
 2125.5764    70.724    2.5349    0.3674     2.170   144.479     8.928
 2125.7288   103.775    2.3850    0.2494     2.250   200.000     9.158
 2125.8812   108.138    2.4149    0.2424     0.913   200.000     8.839
 2126.0336    92.304    2.4800    0.3401     2.871   151.491     8.446
 2126.1860    80.512    2.3308    0.3206     0.954   176.440     8.058
 2126.3384    72.136    2.3820    0.2742     3.043   198.463     8.299
 2126.4908    78.546    2.3707    0.2710     0.566   200.000     8.429
 2126.6432    79.084    2.3561    0.2185     1.372   200.000     8.855
 2126.7956    97.234    2.3510    0.2924     1.055   191.134     8.184
 2126.9480    86.446    2.4193    0.2124     1.825   200.000     8.350
 2127.1004    94.963    2.5079    0.3098     1.672   174.577     8.586
 2127.2528    88.460    2.3878    0.3302     2.248   162.348     8.484
 2127.4052    72.331    2.4041    0.2265     2.091   200.000     9.114
 2127.5576    85.385    2.4106    0.3533     3.114   157.976     8.626
 2127.7100    85.201    2.3777    0.2736     1.051   200.000     8.663
 2127.8624    85.063    2.4354    0.3228     2.317   173.687     7.947
 2128.0148    83.341    2.4340    0.3195     3.678   166.577     8.493
 2128.1672    90.666    2.4875    0.2807     0.918   190.268     8.316
 2128.3196    78.606    2.4756    0.3745     2.296   145.364     8.759
 2128.4720    98.103    2.3523    0.2562     0.685   200.000     8.688
 2128.6244    78.027    2.4854    0.3774     1.294   149.244     8.589
 2128.7768    83.804    2.4041    0.2981     4.620   191.714     7.967
 2128.9292   102.505    2.3887    0.3037     1.252   181.372     8.414
 2129.0816    96.282    2.4126    0.2328     2.742   200.000     9.072
 2129.2340    85.080    2.3928    0.2544     2.482   200.000     8.265
 2129.3864    89.438    2.3926    0.3299     0.605   174.511     8.740
 2129.5388   102.140    2.3825    0.2601     1.270   200.000     8.439
 2129.6912    89.458    2.4277    0.3644     1.893   146.667     8.802
 2129.8436    76.599    2.3692    0.2596     1.893   200.000     8.266
 2129.9960    81.832    2.4569    0.2963     0.953   186.645     8.118
 2130.1484    64.421    2.4636    0.3167     1.378   179.110     8.251
 2130.3008    91.497    2.5372    0.2197     2.080   200.000     8.835
 2130.4532    75.047    2.4389    0.2716     1.432   200.000     8.482
 2130.6056    78.376    2.4461    0.2519     1.196   200.000     7.988
 2130.7580    86.358    2.4887    0.2257     1.474   200.000     8.334
 2130.9104   104.604    2.4644    0.2901     1.599   195.943     8.562
 2131.0628    82.889    2.4429    0.2968     1.445   194.457     8.999
 2131.2152    94.837    2.4577    0.3247     1.403   161.995     8.105
 2131.3676    93.076    2.3487    0.3052     1.515   183.318     8.404
 2131.5200    82.174    2.4667    0.2283     1.787   200.000     9.210
 2131.6724    88.669    2.4781    0.3487     1.168   167.132     8.474
 2131.8248   100.155    2.4429    0.2028     2.162   200.000     8.261
 2131.9772   110.180    2.3702    0.2374     2.664   200.000     8.615
 2132.1296    78.727    2.4321    0.3438     2.699   153.032     7.921
 2132.2820    93.344    2.3909    0.2977     2.388   181.556     8.242
 2132.4344    86.354    2.4154    0.2575     1.947   200.000     8.156
 2132.5868    95.701    2.4931    0.2427     1.903   200.000     8.931
 2132.7392    97.049    2.4475    0.3128     1.029   180.100     8.103
 2132.8916    79.210    2.4848    0.1514     0.551   200.000     9.070
 2133.0440    79.739    2.3947    0.2447     1.617   200.000     7.985
 2133.1964    70.982    2.3950    0.3039     1.685   185.286     8.233
 2133.3488    78.028    2.4168    0.2611     1.173   200.000     8.554
 2133.5012    87.224    2.3899    0.2450     0.559   200.000     9.007
 2133.6536    74.024    2.3706    0.2848     1.270   189.883     8.634
 2133.8060   106.775    2.3444    0.2081     1.621   200.000     9.046
 2133.9584   111.251    2.4093    0.2120     1.772   200.000     7.676
 2134.1108    72.374    2.4322    0.3374     1.629   164.523     8.251
 2134.2632   107.163    2.4698    0.2261     2.470   200.000     7.915
 2134.4156    75.255    2.4322    0.2391     1.930   200.000     8.577
 2134.5680    92.165    2.4556    0.1950     2.665   200.000     8.790
 2134.7204    94.945    2.3442    0.2842     1.581   200.000     8.587
 2134.8728    61.486    2.3732    0.2219     3.955   200.000     8.273
 2135.0252    83.459    2.3898    0.2252     2.499   200.000     8.127
 2135.1776    89.424    2.4330    0.2870     1.268   188.592     8.905
 2135.3300    74.612    2.5180    0.2991     1.692   184.115     8.927
 2135.4824    83.445    2.4711    0.2901     1.538   189.450     7.937
 2135.6348    87.439    2.5739    0.2906     3.881   190.653     8.891
 2135.7872    87.579    2.4969    0.3620     1.352   148.839     8.839
 2135.9396    77.836    2.3925    0.2531     1.192   200.000     8.930
 2136.0920   100.558    2.4444    0.2576     1.540   200.000     8.119
 2136.2444    94.377    2.4186    0.2626     1.570   200.000     9.159
 2136.3968    89.261    2.3687    0.3102     2.775   176.597     9.184
 2136.5492    96.546    2.4769    0.3006     1.685   187.481     7.589
 2136.7016    92.227    2.4131    0.2779     1.025   197.831     8.071
 2136.8540   103.968    2.4003    0.2941     1.606   184.607     8.642
 2137.0064   111.239    2.4416    0.3724     0.664   146.105     8.394
 2137.1588    87.669    2.4055    0.2758     1.247   197.824     8.555
 2137.3112    74.918    2.4114    0.2248     0.804   200.000     8.968
 2137.4636    89.409    2.5203    0.2819     2.527   193.839     8.377
 2137.6160    68.312    2.3621    0.2225     2.989   200.000     7.779
 2137.7684    94.594    2.4167    0.2815     1.257   187.256     8.437
 2137.9208   102.848    2.5079    0.2283     1.259   200.000     8.307
 2138.0732    95.776    2.4070    0.2670     0.857   200.000     8.329
 2138.2256   114.800    2.4170    0.3123     2.129   176.838     8.530
 2138.3780    80.048    2.4858    0.2584     2.517   200.000     8.689
 2138.5304    75.687    2.4886    0.2887     2.681   190.522     8.503
 2138.6828   101.698    2.4148    0.2748     1.483   197.065     8.747
 2138.8352    78.115    2.4495    0.2818     1.409   193.126     7.855
 2138.9876   113.891    2.4848    0.3170     2.529   181.663     9.172
 2139.1400    85.675    2.3608    0.2355     2.134   200.000     8.709
 2139.2924    77.827    2.3608    0.2892     2.136   181.750     8.149
 2139.4448    89.460    2.5126    0.2483     1.440   200.000     8.567
 2139.5972    89.132    2.4263    0.2657     1.588   200.000     8.653
 2139.7496    96.266    2.4003    0.2976     3.029   180.951     8.198
 2139.9020    84.301    2.4201    0.3530     1.097   155.367     7.845
 2140.0544   107.435    2.3660    0.2911     4.555   198.734     8.641
 2140.2068    80.188    2.4558    0.2598     2.209   199.240     8.889
 2140.3592   104.309    2.4689    0.2650     2.450   200.000     8.360
