~VERSION INFORMATION
 VERS.                 2.0    : CWLS LOG ASCII STANDARD
 WRAP.                 NO     : ONE LINE PER DEPTH STEP
~WELL INFORMATION
 WELL.                 25/11-1    : Well name
 FLD .                 Troll         : Field
 CTRY.                 Norway       : Country
 STRT.M                1400.0000 : START DEPTH
 STOP.M                2200.0000   : STOP DEPTH
 STEP.M                0.1524        : STEP
 NULL.                 -999.25          : NULL VALUE
 SRVC.                 SubsurfAI        : Service company
~CURVE INFORMATION
 DEPT.M                              : Depth
 GR  .GAPI                           : Gamma Ray
 RHOB.G/C3                           : Bulk Density
 NPHI.V/V                            : Neutron Porosity
 RT  .OHMM                           : True Resistivity
 DT  .US/F                           : Sonic
 CALI.IN                             : Caliper
~PARAMETER INFORMATION
 LAT .                 60.6411   : Latitude
 LON .                 3.7033   : Longitude
 DESC.                 Troll Fm — shallow marine sandstone, giant gas field
~A  DEPT        GR        RHOB      NPHI      RT        DT        CALI
# ...
 2174.9540   103.731    2.5026    0.1665     2.445   200.000     8.340
 2175.1064    92.035    2.4506    0.2666     1.853   200.000     8.260
 2175.2588    83.858    2.3940    0.3217     7.242   166.319     8.135
 2175.4112    81.883    2.4634    0.3013     3.129   182.151     8.679
 2175.5636    72.279    2.4065    0.2534     0.830   200.000     8.581
 2175.7160    86.054    2.4083    0.2233     0.410   200.000     8.376
 2175.8684    91.369    2.3735    0.2826     4.965   191.344     8.738
 2176.0208    83.360    2.4485    0.1864     0.744   200.000     8.368
 2176.1732    60.316    2.3843    0.2908     1.418   197.419     7.803
 2176.3256    91.463    2.4637    0.2545     2.438   200.000     8.211
 2176.4780    89.065    2.3988    0.2410     2.458   200.000     8.809
 2176.6304    88.788    2.4153    0.2348     4.768   200.000     8.806
 2176.7828    95.958    2.4317    0.2796     0.729   192.039     8.684
 2176.9352   107.916    2.4269    0.2736     0.964   198.010     8.487
 2177.0876   104.554    2.3780    0.2892     2.679   194.522     7.988
 2177.2400    85.659    2.3053    0.3386     2.762   162.073     8.287
 2177.3924    76.824    2.3567    0.2576     1.578   200.000     8.693
 2177.5448   104.912    2.4284    0.3131     1.242   167.659     9.051
 2177.6972    56.491    2.4550    0.2365     2.521   200.000     8.866
 2177.8496    78.177    2.4801    0.2155     1.602   200.000     8.171
 2178.0020    79.818    2.4496    0.2838     1.993   192.686     7.824
 2178.1544    79.294    2.3347    0.2641     1.569   200.000     8.816
 2178.3068    96.274    2.4195    0.2457     1.480   200.000     9.546
 2178.4592    98.830    2.4116    0.2791     1.742   198.847     8.863
 2178.6116   102.036    2.3925    0.2430     1.387   200.000     8.706
 2178.7640   105.026    2.4187    0.2883     0.929   199.731     8.781
 2178.9164    89.028    2.4986    0.2126     2.474   200.000     8.042
 2179.0688    75.105    2.3609    0.2948     2.048   192.427     8.373
 2179.2212    69.579    2.4652    0.2822     3.719   195.714     7.501
 2179.3736    73.934    2.4356    0.2911     4.393   188.272     8.551
 2179.5260    93.362    2.3722    0.2667     1.100   200.000     8.506
 2179.6784    96.287    2.5159    0.2348     1.509   200.000     8.151
 2179.8308    88.240    2.4319    0.2662     1.203   200.000     8.627
 2179.9832    80.842    2.3407    0.2478     1.187   200.000     8.292
 2180.1356    80.836    2.4393    0.2834     2.487   193.135     8.712
 2180.2880    87.035    2.5124    0.2073     2.010   200.000     8.511
 2180.4404    91.251    2.4391    0.2201     1.972   200.000     7.834
 2180.5928    84.851    2.4271    0.2124     2.199   200.000     8.404
 2180.7452   100.306    2.4614    0.3205     0.958   168.935     8.396
 2180.8976    96.029    2.4582    0.2862     1.318   186.424     8.970
 2181.0500    82.095    2.4447    0.2712     2.419   196.318     8.537
 2181.2024    88.824    2.4616    0.3275     2.241   172.256     8.540
 2181.3548    74.769    2.4862    0.2827     1.555   200.000     8.452
 2181.5072    84.595    2.4458    0.2522     0.700   200.000     8.684
 2181.6596   112.400    2.5266    0.2689     1.831   200.000     8.931
 2181.8120    84.158    2.3573    0.2913     2.477   188.337     8.590
 2181.9644    76.857    2.4351    0.2989     0.496   188.574     8.694
 2182.1168    74.881    2.4352    0.2385     2.634   200.000     8.673
 2182.2692    89.744    2.4591    0.2575     0.442   200.000     8.535
 2182.4216    91.948    2.3595    0.1706     0.988   200.000     8.537
 2182.5740    78.043    2.4073    0.2388     1.227   200.000     9.433
 2182.7264    94.432    2.4228    0.2771     1.821   199.884     8.225
 2182.8788    83.332    2.4063    0.2851     0.894   197.463     8.793
 2183.0312    80.448    2.3809    0.2646     1.880   200.000     8.745
 2183.1836    74.892    2.3745    0.2863     2.205   191.695     8.089
 2183.3360    79.915    2.3750    0.2404     3.307   200.000     9.260
 2183.4884    69.737    2.4189    0.2901     0.675   183.163     8.290
 2183.6408    76.829    2.4157    0.3198     1.471   173.956     8.674
 2183.7932    68.267    2.4401    0.2902     0.999   189.256     8.527
 2183.9456    69.274    2.4012    0.2432     1.011   200.000     8.482
 2184.0980    89.894    2.4542    0.3001     1.991   180.014     8.257
 2184.2504    79.094    2.3941    0.2064     1.570   200.000     8.362
 2184.4028    82.926    2.3889    0.2339     0.907   200.000     7.778
 2184.5552    85.252    2.3274    0.2001     0.456   200.000     8.146
 2184.7076    82.940    2.4588    0.2873     0.944   195.734     8.421
 2184.8600    87.483    2.4024    0.2412     1.650   200.000     9.551
 2185.0124    83.628    2.3855    0.2864     2.095   184.871     8.607
 2185.1648    83.485    2.4710    0.2489     2.396   200.000     8.812
 2185.3172    68.371    2.3650    0.2134     1.708   200.000     8.921
 2185.4696    74.299    2.4535    0.3059     1.327   171.390     8.799
 2185.6220    74.001    2.3969    0.2143     3.548   200.000     8.308
 2185.7744    97.660    2.4844    0.1882     2.415   200.000     8.548
 2185.9268    60.983    2.4364    0.2594     1.371   200.000     8.830
 2186.0792    71.960    2.4349    0.2909     2.846   186.887     8.266
 2186.2316    87.167    2.3206    0.2935     1.700   184.399     7.517
 2186.3840    97.609    2.4370    0.2954     2.278   178.055     8.369
 2186.5364    82.205    2.3840    0.3047     0.949   177.387     8.689
 2186.6888    87.607    2.3989    0.3515     1.622   157.160     8.282
 2186.8412    95.065    2.3732    0.2440     0.949   200.000     8.261
 2186.9936    75.908    2.3778    0.2969     3.100   178.307     7.307
 2187.1460    80.383    2.5032    0.3122     1.778   180.816     8.248
 2187.2984   106.088    2.4544    0.2711     1.557   199.821     9.222
 2187.4508    99.726    2.4232    0.3302     0.616   163.637     8.504
 2187.6032    70.602    2.4259    0.2690     1.078   200.000     8.934
 2187.7556    73.153    2.4396    0.2724     2.127   198.980     8.173
 2187.9080    87.292    2.4782    0.2542     1.530   200.000     8.263
 2188.0604    98.264    2.3903    0.2824     5.603   187.232     8.330
 2188.2128    77.984    2.4948    0.3495     2.998   161.886     8.754
 2188.3652    86.394    2.4565    0.2905     0.986   197.089     8.042
 2188.5176    94.992    2.5396    0.2651     1.083   200.000     8.393
 2188.6700    82.365    2.4784    0.2806     1.548   190.601     8.432
 2188.8224    80.041    2.4072    0.2495     2.225   200.000     8.751
 2188.9748    90.872    2.3873    0.2576     0.989   200.000     8.138
 2189.1272    70.410    2.4587    0.2721     1.335   200.000     8.709
 2189.2796    80.380    2.4474    0.2619     1.192   200.000     8.111
 2189.4320    80.475    2.4483    0.2419     1.667   200.000     9.079
 2189.5844    99.165    2.4334    0.3133     2.265   173.488     8.534
 2189.7368   109.455    2.4513    0.2694     2.546   198.059     8.745
 2189.8892    80.775    2.4636    0.2965     1.399   183.815     8.638
 2190.0416    95.027    2.2744    0.2935     1.077   179.888     8.402
 2190.1940    97.153    2.4085    0.2994     3.058   188.829     8.289
 2190.3464    85.735    2.4285    0.2783     1.737   200.000     8.396
 2190.4988    94.550    2.4448    0.2513     1.900   200.000     8.665
 2190.6512    92.662    2.4803    0.2443     0.964   200.000     8.740
 2190.8036    81.332    2.4180    0.2808     1.566   190.729     8.047
 2190.9560    82.106    2.3880    0.2599     1.097   200.000     8.664
 2191.1084    79.424    2.4911    0.3002     2.105   184.076     7.943
 2191.2608   107.273    2.5044    0.2663     0.872   200.000     8.804
 2191.4132    87.221    2.4629    0.2424     1.113   200.000     8.540
 2191.5656    86.704    2.4329    0.2636     2.525   199.257     8.412
 2191.7180    88.262    2.4639    0.2957     0.803   184.906     8.413
 2191.8704    82.224    2.4686    0.2727     2.476   200.000     8.339
 2192.0228    90.831    2.4283    0.2466     3.788   200.000     8.248
