~VERSION INFORMATION
 VERS.                 2.0    : CWLS LOG ASCII STANDARD
 WRAP.                 NO     : ONE LINE PER DEPTH STEP
~WELL INFORMATION
 WELL.                 25/11-1    : Well name
 FLD .                 Troll         : Field
 CTRY.                 Norway       : Country
 STRT.M                1400.0000 : START DEPTH
 STOP.M                2200.0000   : STOP DEPTH
 STEP.M                0.1524        : STEP
 NULL.                 -999.25          : NULL VALUE
 SRVC.                 SubsurfAI        : Service company
~CURVE INFORMATION
 DEPT.M                              : Depth
 GR  .GAPI                           : Gamma Ray
 RHOB.G/C3                           : Bulk Density
 NPHI.V/V                            : Neutron Porosity
 RT  .OHMM                           : True Resistivity
 DT  .US/F                           : Sonic
 CALI.IN                             : Caliper
~PARAMETER INFORMATION
 LAT .                 60.6411   : Latitude
 LON .                 3.7033   : Longitude
 DESC.                 Troll Fm — shallow marine sandstone, giant gas field
~A  DEPT        GR        RHOB      NPHI      RT        DT        CALI
# ...
 1606.6544    24.037    2.2212    0.2829    63.049   196.926     8.270
 1606.8068    21.591    2.2219    0.2506   266.923   200.000     8.564
 1606.9592    29.386    2.1928    0.2953    92.824   183.904     8.024
 1607.1116    31.386    2.2339    0.3209   193.244   178.316     8.330
 1607.2640    18.907    2.2101    0.3604   194.724   147.588     8.213
 1607.4164    27.846    2.2841    0.2411   259.625   200.000     8.347
 1607.5688    22.053    2.2497    0.3213   265.528   161.873     8.613
 1607.7212    17.366    2.2491    0.2962   201.710   185.488     8.679
 1607.8736    23.396    2.2678    0.2128   374.450   200.000     8.245
 1608.0260    31.544    2.2054    0.3275   187.680   152.994     8.110
 1608.1784    28.196    2.1692    0.2974   152.073   188.661     8.711
 1608.3308    31.048    2.2625    0.2956   114.596   188.650     9.139
 1608.4832    26.517    2.2593    0.2457   123.187   200.000     8.296
 1608.6356    25.005    2.1564    0.3002   126.074   178.532     8.630
 1608.7880    29.573    2.2475    0.2977   310.754   190.755     8.382
 1608.9404    27.622    2.1825    0.2690   121.058   200.000     8.020
 1609.0928    31.126    2.1409    0.2497   225.265   200.000     8.409
 1609.2452    21.861    2.2285    0.3136   115.927   183.708     8.720
 1609.3976    21.657    2.2043    0.3013   461.707   182.966     8.972
 1609.5500    19.688    2.2163    0.2698   362.306   200.000     8.526
 1609.7024    23.490    2.2446    0.2919   188.668   186.268     8.601
 1609.8548    28.318    2.1712    0.2780    78.600   200.000     8.853
 1610.0072    25.935    2.2448    0.3590   143.475   145.070     8.431
 1610.1596    23.149    2.2281    0.2250   221.210   200.000     8.192
 1610.3120    33.035    2.1484    0.3289   136.943   174.870     8.382
 1610.4644    27.602    2.1830    0.2037   215.642   200.000     8.834
 1610.6168    25.876    2.2219    0.3352   184.283   179.079     8.696
 1610.7692    24.618    2.1445    0.2347   181.769   200.000     8.399
 1610.9216    30.466    2.2416    0.3692    81.364   150.799     8.843
 1611.0740    27.659    2.1877    0.2414   128.646   200.000     8.103
 1611.2264    20.475    2.1984    0.2687   106.491   200.000     8.228
 1611.3788    24.199    2.1737    0.2381   180.788   200.000     8.666
 1611.5312    19.862    2.1486    0.3097    76.562   173.032     8.688
 1611.6836    30.484    2.3564    0.3759   158.789   142.171     8.862
 1611.8360    21.001    2.2341    0.2560   135.572   200.000     8.623
 1611.9884    18.015    2.3023    0.2566   367.984   200.000     8.270
 1612.1408    27.480    2.2184    0.2511    94.599   200.000     8.545
 1612.2932    28.661    2.2489    0.2593    79.312   200.000     8.023
 1612.4456    17.006    2.2630    0.3274    69.714   164.640     9.003
 1612.5980    25.713    2.2133    0.2575   131.240   200.000     7.906
 1612.7504    22.712    2.1304    0.2199   106.872   200.000     8.060
 1612.9028    22.849    2.1714    0.3050    78.766   168.568     7.988
 1613.0552    24.297    2.2532    0.3459   176.921   165.544     9.291
 1613.2076    27.070    2.1573    0.3256   123.129   170.509     9.107
 1613.3600    29.646    2.2367    0.2169   137.388   200.000     8.042
 1613.5124    20.980    2.2284    0.2368   178.803   200.000     9.565
 1613.6648    21.797    2.2339    0.2200    96.797   200.000     9.060
 1613.8172    28.026    2.2115    0.3198    61.452   168.382     9.281
 1613.9696    16.045    2.2080    0.2578    87.670   200.000     8.233
 1614.1220    25.816    2.1382    0.2327    39.688   200.000     9.024
 1614.2744    25.493    2.1793    0.2607   104.841   200.000     8.184
 1614.4268    19.564    2.2701    0.2837   262.997   198.391     8.867
 1614.5792    31.014    2.2104    0.2966   104.504   190.939     8.525
 1614.7316    18.947    2.3067    0.3444   276.891   152.034     8.059
 1614.8840    31.662    2.1393    0.3712    90.334   145.286     8.707
 1615.0364    22.190    2.2220    0.2866   129.823   185.981     9.054
 1615.1888    24.000    2.1763    0.3135    96.426   171.334     7.953
 1615.3412    27.258    2.2066    0.2631   144.323   200.000     8.410
 1615.4936    27.274    2.1913    0.3053   253.694   170.440     8.266
 1615.6460    30.151    2.2142    0.2938   150.162   192.667     9.055
 1615.7984    27.453    2.2702    0.2812   131.573   198.654     9.220
 1615.9508    25.547    2.2461    0.3398   134.764   156.081     8.718
 1616.1032    30.819    2.1849    0.2834    90.581   196.856     8.028
 1616.2556    22.071    2.2200    0.3037    62.692   182.776     8.442
 1616.4080    21.117    2.2047    0.2805   148.467   195.223     8.814
 1616.5604    24.402    2.2299    0.2220   146.129   200.000     8.117
 1616.7128    22.786    2.2204    0.2838   140.563   192.637     8.539
 1616.8652    22.400    2.1739    0.2435   281.919   200.000     8.973
 1617.0176    25.173    2.2418    0.2879    50.006   189.490     8.121
 1617.1700    25.564    2.1468    0.2600    51.200   200.000     7.799
 1617.3224    34.316    2.2265    0.2306   134.775   200.000     8.537
 1617.4748    28.871    2.2676    0.3257   153.100   162.969     8.026
 1617.6272    19.016    2.2185    0.3300    90.413   171.754     8.620
 1617.7796    28.583    2.2176    0.3128   151.222   181.339     8.668
 1617.9320    30.020    2.1993    0.2689   159.364   189.693     8.421
 1618.0844    26.263    2.2808    0.2871   172.565   184.897     8.323
 1618.2368    35.021    2.2076    0.2840   134.955   192.687     8.978
 1618.3892    22.470    2.2151    0.1999   176.240   200.000     8.557
 1618.5416    27.160    2.1818    0.2829    90.388   199.152     7.647
 1618.6940    29.188    2.1628    0.3240   618.215   174.174     8.286
 1618.8464    26.166    2.3155    0.2566   124.515   200.000     8.895
 1618.9988    25.634    2.1789    0.3379   108.479   159.804     8.596
 1619.1512    27.162    2.2100    0.2648   284.323   200.000     8.411
 1619.3036    32.483    2.2318    0.2541   114.700   200.000     8.382
 1619.4560    27.336    2.2083    0.3347   166.119   162.690     8.371
 1619.6084    21.677    2.1915    0.2588    67.110   200.000     8.221
 1619.7608    15.586    2.1435    0.2328    50.120   200.000     8.210
 1619.9132    32.097    2.2617    0.2964   151.947   186.449     8.758
 1620.0656    26.605    2.2047    0.2534   237.268   200.000     8.699
 1620.2180    21.395    2.2306    0.2737   107.060   193.590     8.254
 1620.3704    22.032    2.2386    0.2465   216.122   200.000     8.798
 1620.5228    27.104    2.3005    0.1594   122.984   200.000     7.613
 1620.6752    26.260    2.2100    0.3060    98.112   178.914     7.778
 1620.8276    22.610    2.1813    0.3081   168.107   184.226     8.806
 1620.9800    20.278    2.3055    0.2310    91.592   200.000     9.015
 1621.1324    28.473    2.2667    0.3139   358.696   177.132     8.409
 1621.2848    27.906    2.2846    0.3278   128.930   167.195     8.651
 1621.4372    27.181    2.2588    0.2741   427.450   193.226     8.889
 1621.5896    26.358    2.2376    0.3140   181.562   173.157     8.699
 1621.7420    27.757    2.2569    0.2201   107.604   200.000     8.219
 1621.8944    27.201    2.2904    0.2802   238.189   193.945     8.761
 1622.0468    19.590    2.1840    0.3652   165.245   151.111     8.817
 1622.1992    25.549    2.2190    0.3474   335.473   165.731     8.563
 1622.3516    24.050    2.2090    0.3629    75.815   154.562     8.541
 1622.5040    26.457    2.2007    0.3521   236.822   155.634     8.812
 1622.6564    23.007    2.2689    0.2556   156.320   200.000     7.726
 1622.8088    23.522    2.2420    0.3458   299.831   160.381     9.101
 1622.9612    24.454    2.1785    0.2813    59.139   188.325     8.618
 1623.1136    30.647    2.1786    0.2483   165.312   200.000     8.593
 1623.2660    26.315    2.2393    0.1875   293.052   200.000     8.877
 1623.4184    23.837    2.1101    0.3139   196.346   176.669     8.121
 1623.5708    28.309    2.1663    0.2809   194.863   198.056     8.272
 1623.7232    25.941    2.1770    0.3511   160.285   158.704     8.656
