~VERSION INFORMATION
 VERS.                 2.0    : CWLS LOG ASCII STANDARD
 WRAP.                 NO     : ONE LINE PER DEPTH STEP
~WELL INFORMATION
 WELL.                 25/11-1    : Well name
 FLD .                 Troll         : Field
 CTRY.                 Norway       : Country
 STRT.M                1400.0000 : START DEPTH
 STOP.M                2200.0000   : STOP DEPTH
 STEP.M                0.1524        : STEP
 NULL.                 -999.25          : NULL VALUE
 SRVC.                 SubsurfAI        : Service company
~CURVE INFORMATION
 DEPT.M                              : Depth
 GR  .GAPI                           : Gamma Ray
 RHOB.G/C3                           : Bulk Density
 NPHI.V/V                            : Neutron Porosity
 RT  .OHMM                           : True Resistivity
 DT  .US/F                           : Sonic
 CALI.IN                             : Caliper
~PARAMETER INFORMATION
 LAT .                 60.6411   : Latitude
 LON .                 3.7033   : Longitude
 DESC.                 Troll Fm — shallow marine sandstone, giant gas field
~A  DEPT        GR        RHOB      NPHI      RT        DT        CALI
# ...
 2019.9632    87.622    2.5123    0.2599     2.325   200.000     9.134
 2020.1156   108.374    2.4448    0.2854     3.443   185.151     8.397
 2020.2680    80.541    2.4206    0.2696     5.104   200.000     8.391
 2020.4204    83.154    2.3968    0.2646     1.231   200.000     8.509
 2020.5728    77.502    2.3794    0.3173     2.134   180.999     9.131
 2020.7252    64.189    2.4145    0.2817     1.541   197.500     9.003
 2020.8776    90.907    2.4232    0.2238     1.591   200.000     8.408
 2021.0300    84.328    2.4096    0.2752     3.059   196.097     8.341
 2021.1824    91.852    2.4635    0.2956     0.828   182.750     8.140
 2021.3348    88.064    2.4296    0.3044     0.604   174.990     8.973
 2021.4872    97.251    2.4820    0.3012     2.580   190.229     8.078
 2021.6396    95.021    2.4035    0.3188     1.563   164.731     7.618
 2021.7920    83.326    2.4115    0.2202     2.179   200.000     8.218
 2021.9444    84.385    2.3616    0.3024     3.156   175.134     7.810
 2022.0968    90.856    2.4975    0.2846     2.678   183.254     8.006
 2022.2492    97.018    2.3605    0.2370     1.503   200.000     8.784
 2022.4016    77.112    2.4842    0.2617     0.796   200.000     7.986
 2022.5540    92.663    2.4422    0.3444     1.280   160.899     8.133
 2022.7064    90.252    2.4966    0.3055     3.796   183.827     8.426
 2022.8588    75.533    2.3852    0.2991     1.685   187.833     8.620
 2023.0112    89.353    2.4408    0.2464     2.805   200.000     8.497
 2023.1636    71.980    2.4401    0.2654     1.099   200.000     8.478
 2023.3160   102.269    2.3328    0.2710     2.631   200.000     9.101
 2023.4684    64.325    2.5482    0.2576     2.021   200.000     8.298
 2023.6208    92.618    2.4266    0.3027     0.712   179.771     9.027
 2023.7732    90.434    2.4110    0.2672     1.735   200.000     7.766
 2023.9256    93.329    2.4963    0.2131     2.345   200.000     8.670
 2024.0780    74.222    2.4051    0.2490     1.748   200.000     8.144
 2024.2304   113.061    2.4961    0.3185     3.077   177.875     8.297
 2024.3828    99.642    2.4391    0.1867     1.635   200.000     7.662
 2024.5352    92.394    2.5493    0.3330     1.660   165.491     9.116
 2024.6876    83.706    2.4700    0.3119     1.007   171.744     9.257
 2024.8400    81.434    2.4004    0.2087     2.022   200.000     9.091
 2024.9924    99.670    2.5074    0.2201     1.706   200.000     8.587
 2025.1448   102.176    2.4198    0.2713     2.215   200.000     8.036
 2025.2972    91.437    2.3952    0.3106     1.459   178.591     9.002
 2025.4496   106.471    2.4169    0.2528     1.871   200.000     8.522
 2025.6020    96.161    2.4357    0.3068     1.991   188.197     8.726
 2025.7544    96.206    2.4220    0.2730     1.347   199.657     8.907
 2025.9068    78.813    2.4039    0.2666     1.313   200.000     8.959
 2026.0592    79.292    2.4725    0.2869     4.987   191.231     7.828
 2026.2116    59.758    2.4077    0.2780     1.417   188.790     8.825
 2026.3640    72.382    2.4476    0.3426     0.896   168.738     8.139
 2026.5164    86.333    2.3256    0.2034     2.251   200.000     8.548
 2026.6688    63.128    2.3710    0.2623     4.442   200.000     8.583
 2026.8212    78.113    2.4414    0.2486     2.261   200.000     8.542
 2026.9736    71.625    2.3544    0.2535     1.527   200.000     8.501
 2027.1260    88.988    2.5903    0.2455     1.881   200.000     8.111
 2027.2784    95.413    2.4687    0.3032     1.377   182.712     9.041
 2027.4308    76.587    2.4414    0.2595     1.516   200.000     8.114
 2027.5832    93.515    2.3896    0.2787     1.864   200.000     8.780
 2027.7356    92.401    2.4762    0.2485     0.767   200.000     8.518
 2027.8880   101.813    2.4709    0.2111     2.132   200.000     8.383
 2028.0404    92.856    2.4114    0.2707     2.980   200.000     8.457
 2028.1928    97.355    2.3961    0.3343     2.660   163.812     8.832
 2028.3452    95.536    2.3757    0.3260     1.722   168.837     8.088
 2028.4976    81.664    2.4281    0.3259     3.384   167.604     8.090
 2028.6500    97.502    2.4502    0.2740     1.986   200.000     8.378
 2028.8024    99.083    2.4321    0.2875     1.917   192.036     8.733
 2028.9548    87.022    2.3885    0.3346     1.280   169.038     9.087
 2029.1072    82.601    2.5212    0.2453     1.339   200.000     9.198
 2029.2596    80.995    2.4269    0.3694     2.141   147.514     8.339
 2029.4120    99.730    2.4251    0.2110     2.711   200.000     8.273
 2029.5644   100.897    2.3995    0.3110     2.473   180.155     9.030
 2029.7168    78.779    2.3433    0.3681     4.648   154.728     8.236
 2029.8692    97.854    2.3607    0.2308     1.860   200.000     8.100
 2030.0216    99.206    2.4920    0.2739     2.073   199.676     8.720
 2030.1740   105.500    2.4281    0.2787     2.477   196.023     8.675
 2030.3264    86.330    2.3762    0.2813     2.607   195.974     9.116
 2030.4788   101.811    2.4758    0.2387     2.276   200.000     8.216
 2030.6312   105.106    2.4827    0.2430     1.483   200.000     8.279
 2030.7836    94.009    2.4963    0.3143     3.490   170.860     9.115
 2030.9360    90.435    2.4808    0.2470     2.442   200.000     8.466
 2031.0884    68.692    2.4231    0.3233     2.075   172.836     7.967
 2031.2408   103.086    2.4642    0.3247     1.280   168.605     7.969
 2031.3932    91.268    2.4634    0.2135     1.449   200.000     8.607
 2031.5456    81.701    2.4841    0.2285     1.452   200.000     8.486
 2031.6980    73.997    2.4422    0.2830     2.667   192.262     8.229
 2031.8504    99.573    2.4960    0.2129     0.672   200.000     8.486
 2032.0028    77.449    2.5018    0.2178     2.278   200.000     7.897
 2032.1552    87.531    2.4441    0.2605     1.133   200.000     9.189
 2032.3076    85.805    2.4702    0.2616     1.114   200.000     7.975
 2032.4600    68.624    2.4073    0.2972     0.915   183.577     8.962
 2032.6124    79.680    2.4409    0.3044     1.946   180.123     8.780
 2032.7648    84.682    2.3888    0.3028     1.279   172.018     8.074
 2032.9172    81.927    2.4303    0.2676     0.636   200.000     8.349
 2033.0696    93.504    2.4515    0.2512     1.923   200.000     8.523
 2033.2220    71.875    2.4498    0.2515     1.651   200.000     8.259
 2033.3744    79.662    2.4908    0.3012     1.550   185.018     8.768
 2033.5268    83.878    2.5014    0.2666     1.539   197.994     8.646
 2033.6792    80.962    2.3879    0.2484     0.863   200.000     9.166
 2033.8316    85.140    2.5436    0.1864     1.132   200.000     8.882
 2033.9840    94.575    2.4172    0.2465     1.169   200.000     8.761
 2034.1364    71.093    2.4073    0.2577     1.883   200.000     8.797
 2034.2888    86.112    2.4781    0.2832     1.795   197.568     8.474
 2034.4412    96.546    2.3668    0.2465     3.015   200.000     7.897
 2034.5936    76.348    2.3786    0.2817     1.021   197.196     9.003
 2034.7460    89.632    2.4823    0.2735     1.310   200.000     8.726
 2034.8984    95.859    2.3727    0.2037     1.137   200.000     7.725
 2035.0508   102.391    2.4565    0.2776     2.341   198.485     8.493
 2035.2032    99.107    2.4106    0.3071     1.168   174.844     8.340
 2035.3556    82.465    2.4839    0.2095     1.189   200.000     8.549
 2035.5080    85.036    2.4118    0.2535     5.160   200.000     9.120
 2035.6604    83.320    2.4541    0.2823     0.718   199.696     8.818
 2035.8128    75.222    2.3878    0.2184     2.710   200.000     8.606
 2035.9652   103.251    2.4110    0.3073     1.770   170.848     8.710
 2036.1176    90.095    2.4909    0.2864     1.668   199.919     8.677
 2036.2700    92.882    2.4711    0.2609     0.797   200.000     9.002
 2036.4224   106.412    2.4646    0.2764     1.123   200.000     8.422
 2036.5748    74.906    2.4855    0.2784     1.106   200.000     9.026
 2036.7272   103.392    2.4358    0.2976     1.744   182.199     8.303
 2036.8796    90.235    2.3580    0.2228     2.621   200.000     8.527
 2037.0320   103.744    2.3837    0.1768     1.826   200.000     8.378
