~VERSION INFORMATION
 VERS.                 2.0    : CWLS LOG ASCII STANDARD
 WRAP.                 NO     : ONE LINE PER DEPTH STEP
~WELL INFORMATION
 WELL.                 25/11-1    : Well name
 FLD .                 Troll         : Field
 CTRY.                 Norway       : Country
 STRT.M                1400.0000 : START DEPTH
 STOP.M                2200.0000   : STOP DEPTH
 STEP.M                0.1524        : STEP
 NULL.                 -999.25          : NULL VALUE
 SRVC.                 SubsurfAI        : Service company
~CURVE INFORMATION
 DEPT.M                              : Depth
 GR  .GAPI                           : Gamma Ray
 RHOB.G/C3                           : Bulk Density
 NPHI.V/V                            : Neutron Porosity
 RT  .OHMM                           : True Resistivity
 DT  .US/F                           : Sonic
 CALI.IN                             : Caliper
~PARAMETER INFORMATION
 LAT .                 60.6411   : Latitude
 LON .                 3.7033   : Longitude
 DESC.                 Troll Fm — shallow marine sandstone, giant gas field
~A  DEPT        GR        RHOB      NPHI      RT        DT        CALI
# ...
 2071.6268    93.169    2.4460    0.2554     3.476   200.000     8.047
 2071.7792    82.485    2.4028    0.2217     1.526   200.000     9.005
 2071.9316   104.067    2.3981    0.2868     1.546   187.669     8.772
 2072.0840    79.629    2.3967    0.2977     1.244   194.239     8.822
 2072.2364    95.979    2.3971    0.3512     1.610   156.275     7.962
 2072.3888    85.052    2.4372    0.2687     3.135   200.000     8.080
 2072.5412    84.018    2.3589    0.2480     1.435   200.000     9.204
 2072.6936    91.105    2.3798    0.2689     1.449   200.000     8.680
 2072.8460    78.674    2.4732    0.2858     3.036   197.147     8.244
 2072.9984    81.436    2.4181    0.2075     4.247   200.000     8.720
 2073.1508    73.518    2.4604    0.3072     1.276   174.235     7.982
 2073.3032    98.543    2.4999    0.2754     1.455   200.000     9.249
 2073.4556    91.473    2.5091    0.2469     2.386   200.000     8.524
 2073.6080   108.563    2.4757    0.3060     1.834   187.933     8.199
 2073.7604    73.898    2.4764    0.2866     1.846   186.327     9.059
 2073.9128    80.283    2.4610    0.3142     1.842   174.380     8.218
 2074.0652    97.014    2.4634    0.2024     1.029   200.000     8.684
 2074.2176   102.172    2.5064    0.2801     3.983   194.014     9.290
 2074.3700   100.687    2.3772    0.3156     3.086   178.567     8.389
 2074.5224    90.239    2.4120    0.2791     0.617   193.227     8.450
 2074.6748    85.502    2.4093    0.3031     1.469   188.072     8.317
 2074.8272    87.865    2.4484    0.2840     1.029   197.939     8.845
 2074.9796    82.661    2.5090    0.2864     1.222   188.390     8.332
 2075.1320    85.284    2.4234    0.2133     2.175   200.000     8.674
 2075.2844    90.600    2.4290    0.2790     2.817   196.003     8.201
 2075.4368    99.891    2.3679    0.3527     1.811   163.124     8.823
 2075.5892    98.498    2.4684    0.2390     1.476   200.000     8.470
 2075.7416    66.958    2.4974    0.2234     1.898   200.000     8.930
 2075.8940    91.236    2.4655    0.2998     3.317   180.177     8.766
 2076.0464    90.209    2.4887    0.2866     2.755   196.240     9.364
 2076.1988   105.461    2.3618    0.2640     1.186   200.000     8.963
 2076.3512    83.787    2.4174    0.2212     2.227   200.000     9.133
 2076.5036    75.329    2.3927    0.2359     1.912   200.000     8.586
 2076.6560    80.076    2.4314    0.2500     3.599   200.000     8.528
 2076.8084    75.072    2.4933    0.2610     1.688   200.000     8.389
 2076.9608    86.949    2.4678    0.1716     1.277   200.000     8.037
 2077.1132   111.531    2.4584    0.2268     1.007   200.000     8.006
 2077.2656   104.261    2.4005    0.2497     5.331   200.000     9.021
 2077.4180    92.776    2.4604    0.2916     2.303   183.016     9.540
 2077.5704    79.102    2.4822    0.3171     1.620   176.378     8.241
 2077.7228    71.615    2.4460    0.1969     1.402   200.000     8.116
 2077.8752    89.523    2.4043    0.2384     1.893   200.000     8.621
 2078.0276    99.667    2.4312    0.2889     2.284   188.094     9.130
 2078.1800    65.435    2.4587    0.3001     1.757   189.100     9.232
 2078.3324    56.525    2.4285    0.2653     4.818   200.000     8.881
 2078.4848    96.326    2.4069    0.1927     0.717   200.000     8.802
 2078.6372    91.254    2.4952    0.2160     0.937   200.000     7.758
 2078.7896    67.201    2.4814    0.2522     1.437   200.000     8.431
 2078.9420    93.632    2.3400    0.3280     4.587   170.369     8.097
 2079.0944    74.160    2.4692    0.2448     1.392   200.000     8.935
 2079.2468    93.519    2.4555    0.3081     1.035   182.683     8.803
 2079.3992    85.124    2.3498    0.2134     2.929   200.000     8.624
 2079.5516    92.739    2.4596    0.2397     1.103   200.000     9.014
 2079.7040    95.967    2.3895    0.2800     2.764   197.079     8.478
 2079.8564    79.901    2.4904    0.2588     3.441   200.000     8.672
 2080.0088    88.192    2.4847    0.2079     1.910   200.000     8.721
 2080.1612    93.879    2.4259    0.3434     1.622   161.394     8.690
 2080.3136    87.338    2.4592    0.3233     3.843   174.945     8.995
 2080.4660    57.557    2.3974    0.2718     2.640   196.887     8.764
 2080.6184    92.077    2.4765    0.3201     2.064   167.997     8.046
 2080.7708    82.001    2.4623    0.2683     1.004   200.000     8.488
 2080.9232    80.703    2.4435    0.2319     1.202   200.000     7.815
 2081.0756    77.398    2.3869    0.2621     1.123   200.000     7.924
 2081.2280    93.953    2.4657    0.3099     2.717   179.633     7.734
 2081.3804    57.616    2.4109    0.2320     4.775   200.000     8.926
 2081.5328   102.909    2.4445    0.2576     0.768   200.000     9.132
 2081.6852    84.392    2.4078    0.2464     0.899   200.000     9.109
 2081.8376    93.482    2.4497    0.3193     2.287   168.151     8.928
 2081.9900   102.330    2.4148    0.2854     2.084   190.504     8.713
 2082.1424    78.477    2.3751    0.2761     2.890   200.000     8.098
 2082.2948   100.768    2.4545    0.2756     3.196   200.000     8.497
 2082.4472   120.769    2.3386    0.2695     1.162   198.853     8.753
 2082.5996    76.401    2.4560    0.2647     3.328   200.000     9.306
 2082.7520    99.822    2.3562    0.3331     0.984   166.062     8.403
 2082.9044    95.826    2.4184    0.2611     0.996   200.000     8.980
 2083.0568    87.765    2.4170    0.2605     3.725   200.000     8.460
 2083.2092   109.199    2.4360    0.2590     1.421   200.000     8.755
 2083.3616    88.797    2.3566    0.3235     1.690   165.463     8.621
 2083.5140    89.364    2.3938    0.2603     2.022   200.000     8.638
 2083.6664    63.037    2.3390    0.1939     2.122   200.000     8.754
 2083.8188    80.332    2.4767    0.3927     2.157   139.532     7.592
 2083.9712    85.962    2.4943    0.2724     1.314   195.294     8.719
 2084.1236   101.366    2.3380    0.2980     1.693   186.634     8.421
 2084.2760   110.468    2.4606    0.2836     1.705   190.104     8.713
 2084.4284    79.695    2.4402    0.2648     2.114   200.000     9.260
 2084.5808    82.052    2.3789    0.3253     0.744   162.394     8.908
 2084.7332   102.938    2.4761    0.2103     0.796   200.000     8.557
 2084.8856    78.922    2.4589    0.3119     0.894   172.772     8.834
 2085.0380    79.402    2.4231    0.1981     2.195   200.000     8.060
 2085.1904    83.632    2.5017    0.2947     1.535   187.148     8.684
 2085.3428   102.149    2.4600    0.3162     0.984   170.113     7.932
 2085.4952    93.602    2.4067    0.2945     0.991   195.813     8.445
 2085.6476    96.106    2.4777    0.2069     1.480   200.000     8.304
 2085.8000    78.165    2.4447    0.3233     1.891   170.131     8.859
 2085.9524   100.319    2.4516    0.2514     1.650   200.000     8.159
 2086.1048   102.325    2.3772    0.2970     0.934   188.061     8.615
 2086.2572    74.131    2.4042    0.2423     3.533   200.000     8.483
 2086.4096    83.951    2.5027    0.2628     3.587   200.000     8.513
 2086.5620    71.855    2.3667    0.2895     1.760   179.872     8.116
 2086.7144    87.215    2.3867    0.2515     1.465   200.000     8.475
 2086.8668   100.223    2.4513    0.2000     1.075   200.000     8.506
 2087.0192    92.828    2.4817    0.2363     1.449   200.000     8.361
 2087.1716    84.656    2.4034    0.3106     4.160   169.141     8.653
 2087.3240    93.496    2.4212    0.2888     1.845   194.283     8.665
 2087.4764    97.103    2.5043    0.2561     2.233   200.000     8.091
 2087.6288    80.092    2.3947    0.2850     1.768   194.329     8.110
 2087.7812    93.361    2.5056    0.3055     4.285   170.938     8.352
 2087.9336    93.991    2.3964    0.2969     1.595   181.820     9.009
 2088.0860    80.385    2.4470    0.1645     1.810   200.000     8.716
 2088.2384    89.317    2.4204    0.3097     1.173   183.593     7.621
 2088.3908    84.400    2.3953    0.2789     2.248   196.188     8.583
 2088.5432    87.257    2.5033    0.3385     2.332   150.402     8.737
 2088.6956    87.181    2.3724    0.2335     1.543   200.000     8.722
