~VERSION INFORMATION
 VERS.                 2.0    : CWLS LOG ASCII STANDARD
 WRAP.                 NO     : ONE LINE PER DEPTH STEP
~WELL INFORMATION
 WELL.                 34/10-23    : Well name
 FLD .                 Oseberg         : Field
 CTRY.                 Norway       : Country
 STRT.M                1900.0000 : START DEPTH
 STOP.M                3100.0000   : STOP DEPTH
 STEP.M                0.1524        : STEP
 NULL.                 -999.25          : NULL VALUE
 SRVC.                 SubsurfAI        : Service company
~CURVE INFORMATION
 DEPT.M                              : Depth
 GR  .GAPI                           : Gamma Ray
 RHOB.G/C3                           : Bulk Density
 NPHI.V/V                            : Neutron Porosity
 RT  .OHMM                           : True Resistivity
 DT  .US/F                           : Sonic
 CALI.IN                             : Caliper
~PARAMETER INFORMATION
 LAT .                 60.5041   : Latitude
 LON .                 2.7833   : Longitude
 DESC.                 Oseberg Fm — Brent/Statfjord sandstone reservoir
~A  DEPT        GR        RHOB      NPHI      RT        DT        CALI
# ...
 1986.1060   107.577    2.4813    0.2817     0.506   197.150     8.258
 1986.2584   120.232    2.3413    0.2943     1.424   180.453     8.420
 1986.4108    85.849    2.3829    0.4085     2.127   128.898     7.816
 1986.5632    92.298    2.5215    0.3109     2.025   172.630     8.669
 1986.7156    95.140    2.5126    0.3586     0.772   153.292     8.201
 1986.8680    95.721    2.4480    0.2668     1.673   200.000     7.929
 1987.0204    94.116    2.4370    0.3180     3.395   171.437     7.619
 1987.1728   103.991    2.5274    0.2877     2.220   186.809     7.546
 1987.3252   111.829    2.4647    0.2507     1.611   200.000     9.188
 1987.4776    99.236    2.4637    0.3302     2.456   161.923     8.935
 1987.6300   107.761    2.5061    0.3349     2.720   170.689     7.533
 1987.7824   111.445    2.4708    0.3269     4.134   167.535     8.000
 1987.9348    91.285    2.4521    0.2126     4.025   200.000     8.623
 1988.0872    94.052    2.4263    0.2628     3.116   200.000     7.982
 1988.2396   106.424    2.4996    0.3352     1.301   161.418     8.234
 1988.3920    93.443    2.4931    0.2725     1.323   200.000     8.847
 1988.5444   106.924    2.4998    0.2627     0.951   200.000     8.110
 1988.6968   107.635    2.4064    0.3685     3.025   157.837     8.617
 1988.8492   122.350    2.4134    0.3130     2.297   167.770     7.722
 1989.0016   115.458    2.4818    0.3374     3.436   159.372     8.047
 1989.1540   115.199    2.4840    0.2755     2.934   199.091     8.801
 1989.3064   102.171    2.4655    0.3395     1.576   156.258     8.691
 1989.4588   113.636    2.4038    0.3209     1.953   179.810     9.095
 1989.6112    99.690    2.5969    0.3384     3.066   157.449     7.895
 1989.7636   118.227    2.5295    0.3379     1.792   159.228     8.594
 1989.9160    97.158    2.4999    0.3742     1.333   147.455     7.908
 1990.0684    98.498    2.5271    0.3339     1.448   164.715     8.455
 1990.2208    95.500    2.3765    0.3369     3.968   164.558     8.424
 1990.3732    94.129    2.5298    0.3103     0.804   173.159     8.095
 1990.5256    93.417    2.5396    0.2695     1.774   200.000     8.770
 1990.6780    99.382    2.5444    0.2689     2.163   200.000     8.158
 1990.8304    92.402    2.4675    0.3032     0.937   180.122     8.948
 1990.9828   104.083    2.4660    0.3135     2.325   181.049     8.912
 1991.1352    92.597    2.4649    0.3260     1.142   173.610     8.782
 1991.2876   101.249    2.5013    0.2932     2.900   184.378     8.862
 1991.4400    67.499    2.4823    0.3127     1.833   176.313     8.607
 1991.5924    98.432    2.4546    0.2834     2.365   186.910     8.399
 1991.7448    85.046    2.4608    0.2453     2.705   200.000     8.617
 1991.8972   117.482    2.4000    0.3232     1.430   170.734     8.638
 1992.0496    91.446    2.4596    0.3757     0.965   152.036     8.060
 1992.2020    98.774    2.4671    0.2941     3.822   192.612     8.227
 1992.3544    97.085    2.4654    0.3744     3.132   135.927     8.424
 1992.5068   106.740    2.5018    0.2674     1.859   200.000     8.937
 1992.6592   103.694    2.4829    0.2957     1.568   194.209     8.751
 1992.8116   101.183    2.4268    0.2839     1.284   197.307     8.039
 1992.9640    90.987    2.4393    0.3271     4.364   165.620     8.702
 1993.1164   104.648    2.5772    0.2823     2.541   193.983     9.069
 1993.2688   106.190    2.4782    0.3057     2.157   180.516     8.152
 1993.4212   104.794    2.4810    0.2786     2.289   183.786     8.183
 1993.5736   100.523    2.5009    0.3669     2.561   155.686     8.638
 1993.7260   104.104    2.4092    0.2746     0.747   199.328     8.593
 1993.8784    88.436    2.4805    0.2570     3.695   200.000     8.889
 1994.0308    69.279    2.4726    0.3155     2.516   165.353     8.847
 1994.1832   102.825    2.4948    0.3366     4.125   161.918     7.625
 1994.3356   121.077    2.4645    0.3062     2.598   180.980     8.737
 1994.4880   114.178    2.4559    0.2469     4.058   200.000     8.546
 1994.6404    85.840    2.5293    0.3118     1.541   178.525     8.440
 1994.7928   113.117    2.4210    0.3909     1.596   136.019     7.906
 1994.9452    94.953    2.4187    0.3514     3.330   162.835     8.779
 1995.0976    83.938    2.3892    0.3001     1.175   186.339     8.359
 1995.2500   114.469    2.5381    0.3349     3.289   156.882     8.124
 1995.4024    89.082    2.4638    0.4038     2.705   131.863     8.646
 1995.5548    92.348    2.4889    0.2255     0.606   200.000     8.463
 1995.7072   120.223    2.3965    0.3766     7.463   141.211     8.355
 1995.8596    87.561    2.4925    0.3605     1.859   161.017     8.900
 1996.0120   108.761    2.4950    0.2369     6.100   200.000     8.607
 1996.1644    90.800    2.5015    0.3967     3.323   145.176     9.041
 1996.3168    68.629    2.4061    0.3957     1.850   137.906     8.711
 1996.4692   117.505    2.4467    0.3700     1.318   139.802     8.570
 1996.6216   105.970    2.5049    0.3144     3.067   178.298     8.441
 1996.7740    83.686    2.3864    0.3126     1.701   168.239     7.757
 1996.9264    96.398    2.4673    0.3205     2.615   174.852     8.537
 1997.0788   104.707    2.3649    0.2480     1.796   200.000     8.016
 1997.2312    83.990    2.4884    0.2895     2.037   191.659     8.239
 1997.3836    95.415    2.4568    0.3383     1.495   164.738     8.904
 1997.5360   101.385    2.4886    0.2888     2.333   180.306     8.785
 1997.6884   117.522    2.4938    0.3016     0.996   173.670     8.043
 1997.8408    97.490    2.4977    0.2836     3.505   198.786     8.702
 1997.9932    86.735    2.5334    0.3022     3.143   179.184     8.242
 1998.1456    92.345    2.4206    0.3074     2.296   175.118     8.592
 1998.2980   110.333    2.4517    0.3070     1.980   179.968     8.177
 1998.4504   103.400    2.5257    0.3269     4.386   163.380     8.625
 1998.6028    76.631    2.5106    0.3628     0.831   145.881     8.808
 1998.7552   103.128    2.4597    0.3824     1.328   145.814     8.712
 1998.9076    80.200    2.4349    0.3242     3.055   169.510     8.457
 1999.0600    73.919    2.5337    0.3067     4.777   176.336     7.953
 1999.2124    76.684    2.4203    0.2982     1.134   182.757     8.651
 1999.3648    99.053    2.5039    0.2925     2.513   193.334     7.686
 1999.5172    99.715    2.4636    0.2838     0.937   198.275     7.740
 1999.6696   123.164    2.4432    0.3625     1.088   152.565     8.240
 1999.8220    94.560    2.6250    0.2770     3.154   193.611     8.733
 1999.9744   101.541    2.4683    0.2493     2.241   200.000     8.112
 2000.1268   102.207    2.4354    0.3910     3.388   136.932     8.201
 2000.2792    78.227    2.5911    0.2613     1.308   200.000     7.768
 2000.4316    93.005    2.4812    0.2685     1.756   200.000     8.594
 2000.5840   117.249    2.4276    0.2771     2.239   192.992     8.416
 2000.7364    64.479    2.4054    0.2727     1.943   200.000     8.544
 2000.8888   103.598    2.4073    0.3226     1.140   169.880     8.668
 2001.0412    85.912    2.4319    0.3250     8.974   173.908     8.783
 2001.1936    95.357    2.5557    0.3256     2.689   170.411     8.235
 2001.3460    85.957    2.4397    0.2255     2.832   200.000     8.937
 2001.4984   112.009    2.5338    0.3082     0.895   173.388     8.402
 2001.6508    74.516    2.4235    0.3236     1.122   175.138     7.785
 2001.8032    94.382    2.4570    0.4069     1.015   136.753     8.597
 2001.9556   109.435    2.4320    0.2613     2.249   200.000     8.547
 2002.1080   106.040    2.4599    0.2943     0.925   187.730     8.554
 2002.2604    95.980    2.4866    0.3723     2.986   154.399     7.652
 2002.4128   119.173    2.4568    0.3096     0.838   175.573     9.437
 2002.5652    98.007    2.5424    0.2997     1.182   178.963     8.574
 2002.7176    83.306    2.4686    0.3405     1.899   152.776     8.959
 2002.8700    88.303    2.5133    0.2838     2.770   196.599     8.510
 2003.0224    97.906    2.4381    0.2499     2.739   200.000     8.472
 2003.1748    99.983    2.4526    0.2619     3.669   200.000     8.040
