~VERSION INFORMATION
 VERS.                 2.0    : CWLS LOG ASCII STANDARD
 WRAP.                 NO     : ONE LINE PER DEPTH STEP
~WELL INFORMATION
 WELL.                 34/10-23    : Well name
 FLD .                 Oseberg         : Field
 CTRY.                 Norway       : Country
 STRT.M                1900.0000 : START DEPTH
 STOP.M                3100.0000   : STOP DEPTH
 STEP.M                0.1524        : STEP
 NULL.                 -999.25          : NULL VALUE
 SRVC.                 SubsurfAI        : Service company
~CURVE INFORMATION
 DEPT.M                              : Depth
 GR  .GAPI                           : Gamma Ray
 RHOB.G/C3                           : Bulk Density
 NPHI.V/V                            : Neutron Porosity
 RT  .OHMM                           : True Resistivity
 DT  .US/F                           : Sonic
 CALI.IN                             : Caliper
~PARAMETER INFORMATION
 LAT .                 60.5041   : Latitude
 LON .                 2.7833   : Longitude
 DESC.                 Oseberg Fm — Brent/Statfjord sandstone reservoir
~A  DEPT        GR        RHOB      NPHI      RT        DT        CALI
# ...
 2382.1936    17.484    2.5736    0.0689    74.583   200.000     7.853
 2382.3460    18.442    2.6563    0.0806    48.757   200.000     8.470
 2382.4984    18.782    2.6444    0.0852    57.893   200.000     8.220
 2382.6508    13.045    2.6656    0.0769   106.691   200.000     8.785
 2382.8032    16.883    2.6540    0.0821    94.129   200.000     8.443
 2382.9556    22.774    2.6645    0.0730   196.043   200.000     8.409
 2383.1080    24.730    2.5775    0.0821    86.866   200.000     8.537
 2383.2604    11.849    2.6019    0.0757    93.265   200.000     8.209
 2383.4128    19.856    2.6325    0.0876    41.580   200.000     8.613
 2383.5652    18.686    2.7846    0.0876    94.283   200.000     8.253
 2383.7176    22.409    2.6843    0.0769   107.806   200.000     9.289
 2383.8700    12.542    2.6549    0.0925    79.136   200.000     8.303
 2384.0224    18.415    2.7168    0.0701   123.793   200.000     8.096
 2384.1748    18.768    2.6755    0.0826    98.837   200.000     7.916
 2384.3272    16.289    2.6168    0.0660    51.702   200.000     8.855
 2384.4796    13.420    2.7290    0.0782    95.929   200.000     7.795
 2384.6320    20.130    2.6739    0.0699    65.783   200.000     8.753
 2384.7844    21.645    2.7049    0.1020    92.170   200.000     8.839
 2384.9368    11.452    2.6324    0.0751   219.264   200.000     8.173
 2385.0892    23.060    2.6190    0.0825   152.935   200.000     8.493
 2385.2416    20.961    2.6747    0.0727    46.723   200.000     8.188
 2385.3940    22.439    2.6865    0.0839   158.485   200.000     8.407
 2385.5464    16.285    2.6600    0.0930   193.669   200.000     9.212
 2385.6988    19.582    2.6519    0.0656   266.267   200.000     9.383
 2385.8512    14.217    2.5705    0.0739    62.792   200.000     9.177
 2386.0036    13.591    2.6447    0.0966   200.934   200.000     8.907
 2386.1560    18.667    2.6468    0.0913    43.016   200.000     8.493
 2386.3084    14.995    2.5710    0.0651    88.864   200.000     8.142
 2386.4608    19.977    2.6969    0.0561    95.473   200.000     8.953
 2386.6132    17.031    2.6221    0.0785   136.190   200.000     8.539
 2386.7656    16.033    2.6695    0.0900    49.290   200.000     8.098
 2386.9180    21.654    2.7063    0.0788   184.746   200.000     8.687
 2387.0704    18.880    2.6433    0.0674   299.069   200.000     8.771
 2387.2228    21.645    2.6612    0.0711   125.166   200.000     8.541
 2387.3752    15.712    2.6714    0.0596   312.303   200.000     8.570
 2387.5276    18.287    2.6229    0.0811   227.622   200.000     9.135
 2387.6800    13.501    2.6185    0.0773    73.829   200.000     8.759
 2387.8324    11.969    2.6499    0.0762   106.189   200.000     8.640
 2387.9848    16.881    2.7036    0.0646   126.749   200.000     7.313
 2388.1372    15.998    2.7157    0.0778    76.691   200.000     7.756
 2388.2896    16.088    2.6387    0.0693    78.011   200.000     8.325
 2388.4420    24.578    2.6710    0.0645    83.079   200.000     8.643
 2388.5944    17.556    2.6537    0.0761   144.402   200.000     8.143
 2388.7468    19.101    2.6953    0.0843   145.856   200.000     7.789
 2388.8992    18.489    2.6265    0.0738   158.208   200.000     9.067
 2389.0516    16.555    2.6891    0.0867    75.011   200.000     8.694
 2389.2040    14.538    2.5357    0.0876   150.428   200.000     7.908
 2389.3564    14.936    2.7186    0.0801   113.471   200.000     8.369
 2389.5088    20.708    2.5835    0.1015    71.734   200.000     8.432
 2389.6612    20.584    2.6976    0.0933    73.572   200.000     8.139
 2389.8136    17.120    2.6965    0.0614   226.598   200.000     8.464
 2389.9660    17.496    2.6651    0.0963   187.725   200.000     8.714
 2390.1184    23.578    2.6101    0.0889    84.568   200.000     8.663
 2390.2708    14.815    2.6612    0.0618    65.048   200.000     8.623
 2390.4232    20.539    2.7213    0.0870   199.206   200.000     8.675
 2390.5756    17.613    2.5459    0.0859   129.401   200.000     7.428
 2390.7280    20.879    2.6982    0.0933    98.758   200.000     8.205
 2390.8804    15.970    2.5913    0.0809   212.978   200.000     8.309
 2391.0328    15.273    2.7026    0.0649    79.118   200.000     7.834
 2391.1852    12.474    2.6931    0.0854   507.981   200.000     8.502
 2391.3376    21.414    2.6792    0.0816    57.952   200.000     8.364
 2391.4900    21.845    2.6799    0.0854   122.850   200.000     8.767
 2391.6424    18.063    2.6877    0.0748   232.840   200.000     8.420
 2391.7948    13.290    2.6476    0.0697    70.981   200.000     8.724
 2391.9472    20.058    2.7403    0.1028    98.288   200.000     9.770
 2392.0996    19.760    2.5988    0.0942   269.851   200.000     8.506
 2392.2520    19.015    2.6624    0.0800    99.665   200.000     9.043
 2392.4044    14.516    2.5898    0.0762   135.696   200.000     8.536
 2392.5568    20.677    2.6024    0.0666    71.284   200.000     9.113
 2392.7092    12.775    2.6092    0.0776   113.133   200.000     7.434
 2392.8616    11.526    2.6470    0.0725   133.403   200.000     8.822
 2393.0140    16.248    2.6833    0.0882    59.591   200.000     8.408
 2393.1664    23.277    2.5740    0.0730   121.415   200.000     8.833
 2393.3188    21.901    2.6728    0.0876   167.610   200.000     7.832
 2393.4712    22.051    2.7552    0.0776   305.387   200.000     8.427
 2393.6236    22.307    2.5718    0.0947    83.115   200.000     8.216
 2393.7760    10.204    2.6413    0.0769    79.531   200.000     8.128
 2393.9284    18.751    2.6266    0.0884   148.366   200.000     9.002
 2394.0808    18.870    2.6527    0.1049    88.569   200.000     9.130
 2394.2332    21.379    2.7139    0.0690   119.793   200.000     8.846
 2394.3856    17.207    2.7071    0.0794    34.436   200.000     8.139
 2394.5380    15.420    2.7425    0.0792    50.778   200.000     8.550
 2394.6904    21.266    2.5692    0.0572    77.917   200.000     8.790
 2394.8428    16.558    2.6815    0.0757   139.458   200.000     8.769
 2394.9952    19.241    2.6560    0.0736   173.237   200.000     8.517
 2395.1476    17.713    2.6335    0.0670   109.296   200.000     8.704
 2395.3000    19.701    2.5659    0.0754   114.302   200.000     7.958
 2395.4524    11.296    2.6703    0.0837    92.348   200.000     7.705
 2395.6048    15.293    2.6389    0.0660   333.146   200.000     9.287
 2395.7572    10.693    2.6742    0.0955   126.414   200.000     8.217
 2395.9096    18.296    2.7727    0.0625   373.527   200.000     9.021
 2396.0620    14.123    2.7439    0.0856   122.048   200.000     7.975
 2396.2144    16.136    2.6466    0.0836    69.960   200.000     8.402
 2396.3668    15.736    2.5521    0.0816    70.631   200.000     8.537
 2396.5192    25.236    2.6315    0.0811    69.281   200.000     8.821
 2396.6716    17.071    2.6991    0.0719   131.234   200.000     7.768
 2396.8240    24.267    2.6694    0.0733    83.601   200.000     9.137
 2396.9764    21.079    2.6153    0.0928    40.676   200.000     9.336
 2397.1288    16.385    2.7425    0.0567   194.500   200.000     8.072
 2397.2812    21.815    2.5160    0.0906   208.433   200.000     8.495
 2397.4336    18.221    2.7071    0.0707    62.383   200.000     8.186
 2397.5860    14.169    2.5803    0.0961   106.410   200.000     8.297
 2397.7384    17.479    2.6103    0.0743   115.733   200.000     8.679
 2397.8908    15.431    2.6066    0.0762    74.729   200.000     9.164
 2398.0432    29.361    2.7562    0.0930   167.668   200.000     8.474
 2398.1956    22.795    2.6714    0.0984   127.583   200.000     8.104
 2398.3480    19.616    2.7292    0.0722    33.802   200.000     8.890
 2398.5004    20.919    2.6457    0.0726   469.015   200.000     8.392
 2398.6528    22.737    2.5999    0.0838   102.623   200.000     8.079
 2398.8052     9.894    2.6389    0.0930   171.715   200.000     7.784
 2398.9576    20.354    2.5964    0.0786    96.508   200.000     8.760
 2399.1100    15.566    2.7095    0.0541   172.109   200.000     8.617
 2399.2624    13.248    2.6372    0.0676    54.684   200.000     8.652
