~VERSION INFORMATION
 VERS.                 2.0    : CWLS LOG ASCII STANDARD
 WRAP.                 NO     : ONE LINE PER DEPTH STEP
~WELL INFORMATION
 WELL.                 34/10-23    : Well name
 FLD .                 Oseberg         : Field
 CTRY.                 Norway       : Country
 STRT.M                1900.0000 : START DEPTH
 STOP.M                3100.0000   : STOP DEPTH
 STEP.M                0.1524        : STEP
 NULL.                 -999.25          : NULL VALUE
 SRVC.                 SubsurfAI        : Service company
~CURVE INFORMATION
 DEPT.M                              : Depth
 GR  .GAPI                           : Gamma Ray
 RHOB.G/C3                           : Bulk Density
 NPHI.V/V                            : Neutron Porosity
 RT  .OHMM                           : True Resistivity
 DT  .US/F                           : Sonic
 CALI.IN                             : Caliper
~PARAMETER INFORMATION
 LAT .                 60.5041   : Latitude
 LON .                 2.7833   : Longitude
 DESC.                 Oseberg Fm — Brent/Statfjord sandstone reservoir
~A  DEPT        GR        RHOB      NPHI      RT        DT        CALI
# ...
 2054.9908   100.581    2.4211    0.2497     1.640   200.000     8.949
 2055.1432    84.576    2.4511    0.2429     2.579   200.000     8.567
 2055.2956    97.656    2.4823    0.2430     4.007   200.000     8.332
 2055.4480   103.282    2.5082    0.2799     1.487   195.513     8.718
 2055.6004    98.303    2.4522    0.2665     1.436   200.000     8.044
 2055.7528    95.686    2.5456    0.3306     4.741   161.221     8.723
 2055.9052   125.292    2.4814    0.3346     2.646   160.882     8.532
 2056.0576   107.506    2.4877    0.3354     4.483   159.633     8.402
 2056.2100   122.059    2.5017    0.2845     3.476   189.861     8.310
 2056.3624    94.519    2.4146    0.3012     0.778   183.336     7.591
 2056.5148    96.480    2.5063    0.3262     1.712   167.899     8.542
 2056.6672    89.017    2.4255    0.3094     3.275   176.140     7.688
 2056.8196    81.809    2.5520    0.2634     1.053   200.000     8.072
 2056.9720    64.893    2.4528    0.2928     2.199   189.912     8.391
 2057.1244   103.543    2.5609    0.3764     3.597   139.597     8.288
 2057.2768   115.409    2.4881    0.2499     0.459   200.000     8.825
 2057.4292   102.233    2.4107    0.2411     1.468   200.000     8.525
 2057.5816   107.289    2.4342    0.3511     8.759   143.850     9.657
 2057.7340    99.940    2.4778    0.3807     5.343   147.226     8.963
 2057.8864   103.245    2.5145    0.2945     1.511   188.363     8.866
 2058.0388    93.594    2.4412    0.2698     2.412   199.272     9.273
 2058.1912   102.780    2.5258    0.2988     4.017   181.928     8.228
 2058.3436    89.163    2.4740    0.2398     0.842   200.000     8.529
 2058.4960    95.584    2.4573    0.3468     2.749   151.781     8.464
 2058.6484   113.744    2.4850    0.3169     1.936   168.341     8.768
 2058.8008    98.710    2.4588    0.3125     2.667   168.914     7.671
 2058.9532   105.419    2.3835    0.3926     2.563   140.194     8.818
 2059.1056   116.352    2.4532    0.3812     1.667   152.556     8.818
 2059.2580   112.343    2.4308    0.2231     1.345   200.000     8.487
 2059.4104   103.434    2.4570    0.3400     6.361   159.830     8.707
 2059.5628    95.807    2.4231    0.3284     1.085   162.896     9.252
 2059.7152   108.257    2.4651    0.2851     1.711   200.000     8.418
 2059.8676    95.840    2.4394    0.3006     2.041   173.482     8.790
 2060.0200   100.458    2.5475    0.3763     1.836   146.692     8.560
 2060.1724   110.797    2.4614    0.2893     2.343   186.601     8.742
 2060.3248   103.910    2.4409    0.2576     1.965   200.000     8.750
 2060.4772   101.486    2.4506    0.3059     2.543   182.501     8.610
 2060.6296   112.021    2.4671    0.3234     2.456   167.607     8.989
 2060.7820    91.462    2.5273    0.2328     2.015   200.000     9.127
 2060.9344    99.484    2.5415    0.2787     0.600   196.010     8.318
 2061.0868    96.814    2.5018    0.2540     0.776   200.000     8.995
 2061.2392   116.780    2.5167    0.2801     3.053   197.979     8.809
 2061.3916    99.640    2.4816    0.3086     2.641   175.063     9.123
 2061.5440    81.620    2.4210    0.2665     4.394   200.000     8.284
 2061.6964    85.021    2.5989    0.1658     2.633   200.000     8.182
 2061.8488   100.705    2.4555    0.3233     4.684   172.512     8.579
 2062.0012    91.027    2.5593    0.3744     5.973   142.492     8.937
 2062.1536    88.726    2.5276    0.3462     3.828   156.612     8.771
 2062.3060   110.356    2.5411    0.3439     1.147   167.391     7.886
 2062.4584   113.251    2.4844    0.2600     3.079   200.000     7.967
 2062.6108    98.173    2.4261    0.3502     2.331   149.735     8.557
 2062.7632   108.878    2.3733    0.4141     3.312   137.952     8.381
 2062.9156   101.531    2.4055    0.3114     3.114   175.514     8.269
 2063.0680    89.003    2.3804    0.2475     6.927   200.000     7.880
 2063.2204    87.445    2.4667    0.2575     1.366   200.000     8.629
 2063.3728    67.121    2.4838    0.3633     3.999   158.940     8.753
 2063.5252   124.922    2.4521    0.2797     1.881   200.000     8.550
 2063.6776   133.967    2.4088    0.3241     1.977   171.147     9.120
 2063.8300    95.385    2.4814    0.3323     2.192   170.913     8.639
 2063.9824   105.441    2.4100    0.2512     8.516   200.000     8.539
 2064.1348    74.961    2.4581    0.2554     1.139   200.000     8.963
 2064.2872    98.766    2.4109    0.3143     1.634   177.752     9.141
 2064.4396   115.860    2.4237    0.2627     2.219   200.000     8.128
 2064.5920    90.932    2.4818    0.3648     1.329   153.350     8.373
 2064.7444   103.776    2.4259    0.2993     1.286   184.971     8.449
 2064.8968    87.262    2.4737    0.2848     2.296   200.000     8.332
 2065.0492   104.097    2.5193    0.3433     2.427   161.341     8.763
 2065.2016    92.368    2.4320    0.3273     1.306   170.523     8.347
 2065.3540   106.853    2.4684    0.2914     4.486   185.502     8.827
 2065.5064   114.203    2.4593    0.2595     1.942   200.000     8.584
 2065.6588    94.428    2.5163    0.2703     5.941   193.815     8.347
 2065.8112    91.117    2.5394    0.3397     0.639   163.229     8.970
 2065.9636   119.230    2.5253    0.2715     1.535   200.000     8.269
 2066.1160   101.524    2.4794    0.3350     2.238   165.789     8.582
 2066.2684   115.706    2.4940    0.2646     1.778   200.000     8.014
 2066.4208   109.068    2.5035    0.3357     3.137   158.268     8.718
 2066.5732    93.469    2.5069    0.3025     1.351   187.236     7.673
 2066.7256    66.498    2.4981    0.3431     0.902   162.262     8.562
 2066.8780   114.119    2.4691    0.3862     0.936   137.781     7.963
 2067.0304    97.541    2.5103    0.3350     2.311   170.347     9.170
 2067.1828    95.013    2.5100    0.3127     2.359   183.863     9.195
 2067.3352   108.165    2.4998    0.2905     1.615   195.287     8.691
 2067.4876   111.159    2.4453    0.3126     1.353   170.622     9.228
 2067.6400    97.884    2.4547    0.3317     1.553   166.104     8.482
 2067.7924    88.083    2.5227    0.3031     1.771   182.111     8.916
 2067.9448   124.009    2.4723    0.2744     1.707   199.589     9.184
 2068.0972    92.321    2.4176    0.3785     1.287   148.788     9.042
 2068.2496   104.439    2.4990    0.2737     2.480   198.847     8.610
 2068.4020    84.662    2.5226    0.2757     2.107   193.515     8.570
 2068.5544    94.710    2.6234    0.2599     3.479   200.000     8.080
 2068.7068   102.832    2.4826    0.3622     2.130   141.580     8.379
 2068.8592   125.247    2.5007    0.3370     0.598   164.484     8.146
 2069.0116    97.650    2.4887    0.2548     4.726   200.000     8.843
 2069.1640   104.748    2.4367    0.3000     1.343   183.485     8.302
 2069.3164    65.959    2.5199    0.3216     1.111   168.959     8.912
 2069.4688    95.036    2.4689    0.2993     4.939   184.756     8.516
 2069.6212    93.032    2.4625    0.2707     1.240   200.000     9.144
 2069.7736   115.806    2.4742    0.2776     1.543   198.129     8.049
 2069.9260   106.654    2.5001    0.3350     1.613   163.779     8.426
 2070.0784   109.452    2.4629    0.3036     0.942   183.218     8.507
 2070.2308   108.500    2.3874    0.2659     1.757   200.000     8.825
 2070.3832   104.749    2.4553    0.3806     1.654   142.887     8.965
 2070.5356   109.398    2.3928    0.3065     2.122   178.938     9.103
 2070.6880   109.786    2.4633    0.3221     1.333   173.540     8.456
 2070.8404   101.824    2.4472    0.2811     2.682   194.188     9.219
 2070.9928    99.017    2.4679    0.2520     1.045   200.000     8.693
 2071.1452   103.531    2.3960    0.2824     1.202   197.273     8.237
 2071.2976   103.917    2.4564    0.2070     2.126   200.000     8.799
 2071.4500   108.375    2.5730    0.3590     3.438   147.200     8.589
 2071.6024   117.007    2.5823    0.3727     2.902   133.180     8.703
 2071.7548   111.167    2.4865    0.2797     3.211   198.164     8.088
 2071.9072   102.154    2.5512    0.3642     3.959   155.753     8.618
 2072.0596    90.936    2.4775    0.2576     1.512   200.000     8.426
