~VERSION INFORMATION
 VERS.                 2.0    : CWLS LOG ASCII STANDARD
 WRAP.                 NO     : ONE LINE PER DEPTH STEP
~WELL INFORMATION
 WELL.                 34/10-23    : Well name
 FLD .                 Oseberg         : Field
 CTRY.                 Norway       : Country
 STRT.M                1900.0000 : START DEPTH
 STOP.M                3100.0000   : STOP DEPTH
 STEP.M                0.1524        : STEP
 NULL.                 -999.25          : NULL VALUE
 SRVC.                 SubsurfAI        : Service company
~CURVE INFORMATION
 DEPT.M                              : Depth
 GR  .GAPI                           : Gamma Ray
 RHOB.G/C3                           : Bulk Density
 NPHI.V/V                            : Neutron Porosity
 RT  .OHMM                           : True Resistivity
 DT  .US/F                           : Sonic
 CALI.IN                             : Caliper
~PARAMETER INFORMATION
 LAT .                 60.5041   : Latitude
 LON .                 2.7833   : Longitude
 DESC.                 Oseberg Fm — Brent/Statfjord sandstone reservoir
~A  DEPT        GR        RHOB      NPHI      RT        DT        CALI
# ...
 2209.9816    21.061    2.2546    0.1506    22.293   200.000     8.975
 2210.1340    26.918    2.2818    0.1705   110.574   200.000     8.525
 2210.2864    26.858    2.1926    0.1265   137.046   200.000     8.959
 2210.4388    29.481    2.2927    0.1551    52.498   200.000     9.142
 2210.5912    32.047    2.2418    0.1648   125.192   200.000     9.328
 2210.7436    26.124    2.2511    0.1695    53.680   200.000     7.702
 2210.8960    38.311    2.2104    0.2131    70.395   200.000     8.054
 2211.0484    27.709    2.2343    0.1861   111.827   200.000     8.005
 2211.2008    25.992    2.3332    0.1987    39.712   200.000     8.135
 2211.3532    25.111    2.2103    0.1308   106.788   200.000     8.849
 2211.5056    22.176    2.2359    0.1606    64.879   200.000     8.386
 2211.6580    31.922    2.2164    0.1471    49.775   200.000     7.878
 2211.8104    31.272    2.2810    0.1595    51.835   200.000     8.746
 2211.9628    23.548    2.2011    0.1843   150.798   200.000     8.350
 2212.1152    34.660    2.2112    0.1386    72.139   200.000     7.982
 2212.2676    39.647    2.3036    0.1493   111.373   200.000     8.303
 2212.4200    23.364    2.2680    0.1697    66.331   200.000     8.769
 2212.5724    27.589    2.2425    0.1321    51.260   200.000     8.411
 2212.7248    31.095    2.2728    0.1367    31.424   200.000     8.164
 2212.8772    30.809    2.1871    0.1781    48.001   200.000     8.037
 2213.0296    24.286    2.2549    0.1478    84.974   200.000     8.265
 2213.1820    22.524    2.2745    0.1511   116.585   200.000     8.297
 2213.3344    33.652    2.2935    0.1736   123.786   200.000     9.054
 2213.4868    27.605    2.3313    0.1903    26.134   200.000     8.519
 2213.6392    31.344    2.2502    0.1764    55.763   200.000     9.053
 2213.7916    24.157    2.2586    0.1932    39.581   200.000     8.741
 2213.9440    28.446    2.2567    0.1663    48.186   200.000     8.938
 2214.0964    27.552    2.2089    0.1576    41.234   200.000     8.286
 2214.2488    27.832    2.2754    0.2000    17.667   200.000     8.551
 2214.4012    36.530    2.2099    0.1560    54.663   200.000     8.197
 2214.5536    32.023    2.2853    0.2097   130.499   200.000     8.114
 2214.7060    27.014    2.2179    0.2172   148.752   200.000     8.343
 2214.8584    25.272    2.2523    0.1420    41.338   200.000     8.768
 2215.0108    32.944    2.2909    0.1827    61.447   200.000     7.908
 2215.1632    26.440    2.2760    0.1459    69.502   200.000     9.351
 2215.3156    38.687    2.2648    0.1778    69.106   200.000     8.263
 2215.4680    33.804    2.3388    0.1571    41.982   200.000     7.943
 2215.6204    38.132    2.2567    0.1516    36.411   200.000     8.142
 2215.7728    31.403    2.2037    0.1801    55.059   200.000     8.331
 2215.9252    31.017    2.2395    0.1414    80.984   200.000     8.866
 2216.0776    26.956    2.2374    0.1632    43.305   200.000     8.212
 2216.2300    20.069    2.2545    0.1978    99.786   200.000     8.352
 2216.3824    28.577    2.1770    0.1308    37.506   200.000     8.370
 2216.5348    29.864    2.3128    0.1782    51.123   200.000     7.981
 2216.6872    24.692    2.2929    0.1826    67.360   200.000     8.897
 2216.8396    26.740    2.2334    0.1674    47.930   200.000     8.194
 2216.9920    26.467    2.2943    0.1793    38.433   200.000     8.679
 2217.1444    40.093    2.2080    0.1731   109.086   200.000     8.835
 2217.2968    37.078    2.2395    0.1142    73.055   200.000     8.352
 2217.4492    24.969    2.2804    0.2175    48.366   200.000     8.683
 2217.6016    33.618    2.3321    0.1483   172.869   200.000     8.303
 2217.7540    30.128    2.2740    0.1860    83.470   200.000     8.812
 2217.9064    30.507    2.2010    0.1578    49.053   200.000     8.567
 2218.0588    24.806    2.2921    0.1602    57.268   200.000     8.433
 2218.2112    30.376    2.2652    0.1486   126.326   200.000     8.896
 2218.3636    31.798    2.2880    0.1974    48.956   200.000     8.116
 2218.5160    26.665    2.2450    0.1922    63.110   200.000     8.707
 2218.6684    21.385    2.3506    0.2000    64.291   200.000     8.905
 2218.8208    29.079    2.1216    0.1474    62.040   200.000     7.658
 2218.9732    21.739    2.2268    0.1447    15.735   200.000     8.310
 2219.1256    34.576    2.2875    0.1959    64.728   200.000     8.086
 2219.2780    25.121    2.2912    0.1537    57.402   200.000     8.443
 2219.4304    29.439    2.2433    0.1676    36.932   200.000     8.029
 2219.5828    30.099    2.1555    0.1613    63.768   200.000     8.696
 2219.7352    23.143    2.2127    0.1679    33.351   200.000     8.576
 2219.8876    29.211    2.3069    0.2131    61.326   200.000     7.857
 2220.0400    21.160    2.2596    0.1467    80.744   200.000     8.943
 2220.1924    25.848    2.2948    0.1917    78.276   200.000     8.536
 2220.3448    25.893    2.2410    0.1520    82.737   200.000     7.771
 2220.4972    28.433    2.2456    0.1762    80.409   200.000     8.625
 2220.6496    30.590    2.2539    0.1754    85.767   200.000     8.854
 2220.8020    24.956    2.2002    0.1766    14.984   200.000     8.072
 2220.9544    30.991    2.2753    0.1976    31.294   200.000     8.137
 2221.1068    30.458    2.2741    0.1555    52.009   200.000     8.323
 2221.2592    34.452    2.2631    0.1322    38.197   200.000     8.350
 2221.4116    37.256    2.2506    0.1559    34.796   200.000     8.410
 2221.5640    34.293    2.2586    0.1676    91.633   200.000     7.956
 2221.7164    31.608    2.2240    0.1403    45.524   200.000     8.413
 2221.8688    30.053    2.2792    0.1753   102.958   200.000     8.349
 2222.0212    28.988    2.2966    0.1298    63.932   200.000     8.898
 2222.1736    30.326    2.2154    0.1606    45.179   200.000     7.460
 2222.3260    35.380    2.3218    0.1705    28.487   200.000     9.094
 2222.4784    26.648    2.2344    0.1386    39.070   200.000     8.370
 2222.6308    32.682    2.2502    0.1151    42.982   200.000     8.334
 2222.7832    26.673    2.2251    0.2066    51.179   200.000     8.663
 2222.9356    20.265    2.2909    0.1710    82.001   200.000     7.654
 2223.0880    31.770    2.2361    0.1492    86.296   200.000     8.277
 2223.2404    31.681    2.2708    0.1462    31.646   200.000     8.453
 2223.3928    28.185    2.2411    0.1682    46.347   200.000     8.826
 2223.5452    37.823    2.2387    0.1754    40.120   200.000     8.554
 2223.6976    29.730    2.1660    0.1743   122.955   200.000     8.671
 2223.8500    35.941    2.2591    0.1687    41.440   200.000     8.920
 2224.0024    33.274    2.2393    0.1596    61.974   200.000     8.351
 2224.1548    27.853    2.3266    0.1880    69.662   200.000     8.487
 2224.3072    29.213    2.2303    0.1754    78.395   200.000     8.702
 2224.4596    30.150    2.2810    0.2002    38.888   200.000     8.103
 2224.6120    23.188    2.2046    0.1589    68.214   200.000     8.290
 2224.7644    26.970    2.2671    0.1899    32.104   200.000     8.559
 2224.9168    30.534    2.3124    0.1391    80.127   200.000     8.708
 2225.0692    30.289    2.3074    0.1640    55.179   200.000     8.504
 2225.2216    29.840    2.1924    0.1941    36.116   200.000     8.157
 2225.3740    26.244    2.2065    0.1402    21.170   200.000     8.028
 2225.5264    23.567    2.2399    0.1457   107.093   200.000     8.991
 2225.6788    33.279    2.2613    0.1676    79.228   200.000     8.532
 2225.8312    35.525    2.2798    0.2000    70.484   200.000     8.588
 2225.9836    23.631    2.2118    0.1756    39.877   200.000     8.515
 2226.1360    37.630    2.3083    0.1967   187.153   200.000     8.812
 2226.2884    30.044    2.2709    0.1597    79.392   200.000     8.906
 2226.4408    26.645    2.2980    0.1724   198.807   200.000     8.590
 2226.5932    37.291    2.2235    0.1889    26.983   200.000     8.402
 2226.7456    37.297    2.2684    0.1358    60.067   200.000     8.778
 2226.8980    34.001    2.2705    0.1576    84.171   200.000     8.313
 2227.0504    22.065    2.2687    0.1649    45.875   200.000     8.111
