~VERSION INFORMATION
 VERS.                 2.0    : CWLS LOG ASCII STANDARD
 WRAP.                 NO     : ONE LINE PER DEPTH STEP
~WELL INFORMATION
 WELL.                 34/10-23    : Well name
 FLD .                 Oseberg         : Field
 CTRY.                 Norway       : Country
 STRT.M                1900.0000 : START DEPTH
 STOP.M                3100.0000   : STOP DEPTH
 STEP.M                0.1524        : STEP
 NULL.                 -999.25          : NULL VALUE
 SRVC.                 SubsurfAI        : Service company
~CURVE INFORMATION
 DEPT.M                              : Depth
 GR  .GAPI                           : Gamma Ray
 RHOB.G/C3                           : Bulk Density
 NPHI.V/V                            : Neutron Porosity
 RT  .OHMM                           : True Resistivity
 DT  .US/F                           : Sonic
 CALI.IN                             : Caliper
~PARAMETER INFORMATION
 LAT .                 60.5041   : Latitude
 LON .                 2.7833   : Longitude
 DESC.                 Oseberg Fm — Brent/Statfjord sandstone reservoir
~A  DEPT        GR        RHOB      NPHI      RT        DT        CALI
# ...
 2606.0692    25.726    2.5956    0.0985   216.527   200.000     8.046
 2606.2216    19.574    2.7060    0.0886   218.966   200.000     8.650
 2606.3740    22.085    2.5470    0.0777   108.004   200.000     8.771
 2606.5264    18.844    2.7038    0.0932   133.226   200.000     8.252
 2606.6788    18.825    2.6126    0.0839   141.416   200.000     9.012
 2606.8312    18.095    2.6813    0.0431   230.982   200.000     8.865
 2606.9836    26.948    2.5698    0.0747    93.219   200.000     8.080
 2607.1360    12.914    2.5956    0.0717   106.610   200.000     9.204
 2607.2884    19.080    2.5747    0.0625   151.108   200.000     9.062
 2607.4408    21.820    2.5345    0.0837   136.078   200.000     8.718
 2607.5932    12.734    2.5380    0.1026   120.242   200.000     9.466
 2607.7456    15.117    2.6759    0.0673   324.822   200.000     9.224
 2607.8980    15.049    2.5860    0.0560   184.469   200.000     9.274
 2608.0504    19.088    2.7141    0.0730   260.253   200.000     8.636
 2608.2028    21.244    2.6300    0.0879    72.027   200.000     8.882
 2608.3552    19.425    2.6315    0.0852    83.852   200.000     8.208
 2608.5076    11.828    2.6832    0.0814    66.506   200.000     8.739
 2608.6600    23.283    2.6472    0.0613    85.495   200.000     9.452
 2608.8124    11.196    2.6685    0.0792   108.652   200.000     8.057
 2608.9648    16.758    2.6718    0.0774   145.973   200.000     8.874
 2609.1172    20.168    2.6411    0.0798    81.702   200.000     7.764
 2609.2696    15.682    2.7487    0.0558    50.889   200.000     8.968
 2609.4220    22.945    2.5943    0.0847   288.618   200.000     7.857
 2609.5744    21.355    2.6092    0.0982   129.870   200.000     8.159
 2609.7268    24.781    2.6213    0.0770   121.284   200.000     8.826
 2609.8792    21.962    2.6324    0.0921   181.801   200.000     9.201
 2610.0316    14.937    2.7232    0.0634   115.335   200.000     8.329
 2610.1840    14.117    2.6594    0.0943   100.571   200.000     8.437
 2610.3364    21.304    2.6564    0.0779    82.707   200.000     8.060
 2610.4888    20.004    2.6240    0.0876    67.785   200.000     8.247
 2610.6412    13.974    2.6034    0.0693    89.395   200.000     8.325
 2610.7936    16.269    2.7768    0.0806    75.468   200.000     8.733
 2610.9460    19.244    2.6532    0.0693   196.702   200.000     8.574
 2611.0984    20.132    2.6004    0.0993   269.700   200.000     8.152
 2611.2508    22.549    2.6704    0.0861   163.916   200.000     8.407
 2611.4032    14.643    2.6774    0.0937   301.714   200.000     8.980
 2611.5556    18.009    2.6306    0.1039    71.674   200.000     8.093
 2611.7080    26.988    2.5733    0.0744   208.710   200.000     9.013
 2611.8604    20.584    2.6212    0.0817   134.399   200.000     8.621
 2612.0128     6.747    2.6377    0.0911    67.066   200.000     8.534
 2612.1652    16.392    2.6962    0.0600    57.999   200.000     8.099
 2612.3176    14.765    2.6965    0.0779   212.178   200.000     8.418
 2612.4700    20.907    2.6472    0.0648   372.396   200.000     8.140
 2612.6224    15.234    2.6621    0.0837   105.329   200.000     8.652
 2612.7748    12.359    2.6093    0.0827    87.926   200.000     8.220
 2612.9272    24.348    2.6102    0.0770    78.429   200.000     8.486
 2613.0796    19.629    2.7295    0.0769   412.674   200.000     8.213
 2613.2320    17.779    2.6686    0.0680   118.372   200.000     8.382
 2613.3844    14.518    2.7044    0.0727    71.253   200.000     8.371
 2613.5368    15.470    2.6589    0.0744   146.705   200.000     8.054
 2613.6892    16.749    2.5958    0.0681   114.438   200.000     8.829
 2613.8416    18.375    2.6363    0.0864   113.827   200.000     8.592
 2613.9940    18.631    2.7386    0.0909   222.936   200.000     8.300
 2614.1464    18.209    2.5972    0.0868    99.599   200.000     8.768
 2614.2988    24.426    2.6097    0.0900    68.915   200.000     8.168
 2614.4512    21.960    2.7401    0.0835   165.390   200.000     8.248
 2614.6036    15.906    2.6540    0.0705   228.521   200.000     8.518
 2614.7560    22.834    2.6395    0.0847    61.213   200.000     7.901
 2614.9084    24.402    2.6431    0.0865   106.754   200.000     8.366
 2615.0608    20.600    2.6605    0.0865   298.590   200.000     8.818
 2615.2132    22.901    2.6350    0.0806    84.092   200.000     8.549
 2615.3656    15.987    2.6182    0.0713    65.349   200.000     7.982
 2615.5180    19.071    2.6758    0.0490   130.265   200.000     8.245
 2615.6704    10.862    2.6598    0.0638   400.279   200.000     8.590
 2615.8228    16.581    2.5895    0.0621   117.506   200.000     8.608
 2615.9752    23.963    2.7015    0.0852   319.802   200.000     8.589
 2616.1276    22.119    2.6341    0.0679    90.630   200.000     7.933
 2616.2800    14.500    2.6709    0.0673    70.179   200.000     8.561
 2616.4324    15.318    2.6148    0.0788   132.954   200.000     8.576
 2616.5848    15.770    2.6140    0.0879    64.642   200.000     8.763
 2616.7372    22.547    2.6312    0.0877    67.929   200.000     7.997
 2616.8896    18.102    2.6185    0.0604    74.146   200.000     8.248
 2617.0420    15.468    2.7082    0.0647   104.345   200.000     8.983
 2617.1944    17.182    2.5742    0.0877   185.315   200.000     8.274
 2617.3468    14.611    2.6118    0.0870   105.120   200.000     8.315
 2617.4992    19.096    2.6005    0.0672   115.009   200.000     9.386
 2617.6516    22.422    2.6718    0.1035   123.919   200.000     8.482
 2617.8040    17.400    2.7239    0.0727   138.725   200.000     8.723
 2617.9564    10.401    2.6249    0.0861   238.166   200.000     8.566
 2618.1088    18.819    2.6168    0.0933   266.120   200.000     8.478
 2618.2612    18.109    2.6520    0.0800   330.838   200.000     7.734
 2618.4136    18.981    2.7012    0.0773    67.244   200.000     9.203
 2618.5660    19.556    2.5691    0.0777   235.971   200.000     8.204
 2618.7184    15.979    2.5734    0.0731   214.536   200.000     8.586
 2618.8708    15.619    2.6623    0.0808   229.549   200.000     8.521
 2619.0232    19.747    2.7137    0.0968   196.109   200.000     8.128
 2619.1756    12.678    2.7047    0.0750    64.527   200.000     8.503
 2619.3280    18.567    2.5981    0.1078   195.818   200.000     7.950
 2619.4804    15.334    2.6962    0.0730   102.001   200.000     8.433
 2619.6328    16.301    2.5866    0.0756   166.399   200.000     7.592
 2619.7852    17.103    2.7138    0.0804   115.177   200.000     8.390
 2619.9376    14.727    2.6401    0.0761    68.302   200.000     8.292
 2620.0900    38.234    2.2796    0.1936   102.074   200.000     8.395
 2620.2424    31.441    2.2983    0.1749    87.807   200.000     8.275
 2620.3948    37.896    2.3469    0.1763    13.040   200.000     8.425
 2620.5472    36.060    2.3170    0.2470    43.112   200.000     8.474
 2620.6996    37.084    2.2639    0.2176    37.352   200.000     8.709
 2620.8520    33.300    2.2754    0.1626    12.021   200.000     8.449
 2621.0044    34.911    2.2797    0.2069    22.626   200.000     9.337
 2621.1568    28.259    2.2780    0.1981     9.956   200.000     8.390
 2621.3092    37.140    2.3257    0.1729    46.998   200.000     8.563
 2621.4616    34.571    2.3272    0.2318    23.404   200.000     8.270
 2621.6140    36.938    2.2512    0.2166    26.971   200.000     8.099
 2621.7664    29.872    2.3243    0.1569    27.881   200.000     8.430
 2621.9188    40.017    2.2763    0.2699    34.207   200.000     8.711
 2622.0712    30.201    2.2246    0.2237    25.072   200.000     8.717
 2622.2236    41.182    2.3165    0.1864    30.568   200.000     8.277
 2622.3760    39.656    2.2693    0.1699    39.584   200.000     8.875
 2622.5284    36.081    2.3301    0.2091    29.272   200.000     8.175
 2622.6808    32.312    2.2581    0.1944    55.047   200.000     8.900
 2622.8332    46.581    2.2560    0.1852    29.617   200.000     8.576
 2622.9856    32.811    2.3050    0.1999    29.417   200.000     8.557
 2623.1380    46.270    2.3117    0.1873    35.695   200.000     8.547
