~VERSION INFORMATION
 VERS.                 2.0    : CWLS LOG ASCII STANDARD
 WRAP.                 NO     : ONE LINE PER DEPTH STEP
~WELL INFORMATION
 WELL.                 34/10-23    : Well name
 FLD .                 Oseberg         : Field
 CTRY.                 Norway       : Country
 STRT.M                1900.0000 : START DEPTH
 STOP.M                3100.0000   : STOP DEPTH
 STEP.M                0.1524        : STEP
 NULL.                 -999.25          : NULL VALUE
 SRVC.                 SubsurfAI        : Service company
~CURVE INFORMATION
 DEPT.M                              : Depth
 GR  .GAPI                           : Gamma Ray
 RHOB.G/C3                           : Bulk Density
 NPHI.V/V                            : Neutron Porosity
 RT  .OHMM                           : True Resistivity
 DT  .US/F                           : Sonic
 CALI.IN                             : Caliper
~PARAMETER INFORMATION
 LAT .                 60.5041   : Latitude
 LON .                 2.7833   : Longitude
 DESC.                 Oseberg Fm — Brent/Statfjord sandstone reservoir
~A  DEPT        GR        RHOB      NPHI      RT        DT        CALI
# ...
 3002.1568   108.350    2.4686    0.2853     2.767   185.741     8.743
 3002.3092    68.660    2.3885    0.1991     2.649   200.000     8.188
 3002.4616   117.470    2.3830    0.3338     7.396   170.569     8.916
 3002.6140    98.263    2.3840    0.2730     2.993   200.000     8.275
 3002.7664   110.115    2.4129    0.2337     2.903   200.000     8.013
 3002.9188    97.130    2.4632    0.2421     3.095   200.000     8.608
 3003.0712    94.687    2.4342    0.3410     0.828   157.653     7.773
 3003.2236    84.593    2.4606    0.3613     1.856   152.130     8.403
 3003.3760    84.332    2.4230    0.2964     5.509   186.515     9.082
 3003.5284   104.232    2.4149    0.2614     0.875   200.000     8.825
 3003.6808    90.503    2.5441    0.1820     5.120   200.000     8.848
 3003.8332    86.811    2.4061    0.2376     0.965   200.000     7.718
 3003.9856    92.994    2.3614    0.3001     1.823   190.608     8.338
 3004.1380   108.366    2.4689    0.2925     4.893   190.166     8.313
 3004.2904   103.217    2.3714    0.2192     1.318   200.000     8.807
 3004.4428    97.580    2.4774    0.2191     2.811   200.000     8.272
 3004.5952    92.481    2.4315    0.2798     2.278   186.106     8.961
 3004.7476    87.869    2.4500    0.3128     1.664   174.576     7.756
 3004.9000    99.089    2.4385    0.3417     1.532   157.122     8.897
 3005.0524    90.340    2.4284    0.3718     4.595   151.138     7.862
 3005.2048   105.745    2.4986    0.3693     4.668   146.171     8.914
 3005.3572    94.555    2.4002    0.2780     4.453   191.676     8.776
 3005.5096    76.885    2.3522    0.3080     3.653   177.216     8.295
 3005.6620   117.871    2.3914    0.3354     6.767   155.562     8.324
 3005.8144   126.030    2.4125    0.2656     1.351   200.000     8.276
 3005.9668    82.709    2.4641    0.2203     1.856   200.000     8.702
 3006.1192    83.445    2.4822    0.3643     2.072   144.907     8.906
 3006.2716    83.307    2.3023    0.3012     3.391   183.276     8.259
 3006.4240   102.282    2.5308    0.3647     1.375   149.939     8.030
 3006.5764    69.327    2.4272    0.3492     0.832   159.492     7.904
 3006.7288    80.849    2.4315    0.2852     1.597   189.729     7.888
 3006.8812   114.437    2.3897    0.3424     1.763   160.651     8.265
 3007.0336   104.592    2.4759    0.2829     2.780   192.219     8.929
 3007.1860    81.019    2.4265    0.2042     3.948   200.000     8.722
 3007.3384    77.087    2.4628    0.3039     2.122   183.553     8.197
 3007.4908   124.160    2.4698    0.2575     4.511   200.000     8.745
 3007.6432   109.325    2.4490    0.2923     3.743   186.283     8.613
 3007.7956    97.219    2.5016    0.3463     1.939   157.096     8.672
 3007.9480    97.034    2.4294    0.1957     0.732   200.000     8.655
 3008.1004    85.638    2.5291    0.2672     2.347   200.000     8.487
 3008.2528    96.183    2.5394    0.2944     1.414   195.159     8.831
 3008.4052   104.236    2.4007    0.2677     1.166   200.000     7.554
 3008.5576    95.051    2.4259    0.2206     1.349   200.000     8.230
 3008.7100    78.696    2.4084    0.2997     2.577   185.601     8.849
 3008.8624   111.446    2.5644    0.3068     1.652   171.894     8.768
 3009.0148    99.791    2.4074    0.2823     1.680   189.548     9.437
 3009.1672   105.804    2.4373    0.2564     1.989   200.000     8.916
 3009.3196    96.565    2.5488    0.2456     1.456   200.000     7.837
 3009.4720   120.458    2.4387    0.2666     2.503   200.000     8.773
 3009.6244   102.862    2.3973    0.3125     0.986   179.507     8.841
 3009.7768    76.611    2.5377    0.1785     2.862   200.000     8.565
 3009.9292    82.452    2.3969    0.3623     2.770   161.805     8.665
 3010.0816    87.984    2.5571    0.2386     2.939   200.000     8.824
 3010.2340   102.859    2.4315    0.2815     2.407   198.166     8.441
 3010.3864    87.723    2.5243    0.2979     1.733   188.366     9.235
 3010.5388   108.762    2.4270    0.3132     2.787   174.593     8.396
 3010.6912    80.618    2.3933    0.2902     1.808   183.923     8.202
 3010.8436   100.249    2.4654    0.3052     2.021   179.982     9.444
 3010.9960    82.329    2.3416    0.3064     2.896   175.342     8.390
 3011.1484   102.088    2.3758    0.2170     0.891   200.000     8.718
 3011.3008   108.204    2.3949    0.3213     2.033   176.655     8.694
 3011.4532    89.364    2.4333    0.2849     1.439   189.572     7.958
 3011.6056   108.928    2.4157    0.3151     1.768   175.988     8.417
 3011.7580    88.250    2.3983    0.3369     4.315   161.531     9.126
 3011.9104    90.967    2.4614    0.2740     2.535   200.000     8.036
 3012.0628    84.475    2.4602    0.3532     2.022   168.754     8.302
 3012.2152    86.292    2.4682    0.2631     3.232   200.000     8.507
 3012.3676    86.524    2.4562    0.2788     1.233   198.693     7.943
 3012.5200    85.825    2.3666    0.2115     3.012   200.000     8.951
 3012.6724    91.991    2.4858    0.1678     5.653   200.000     7.857
 3012.8248   107.842    2.3812    0.2859     2.611   188.290     8.494
 3012.9772   115.530    2.4821    0.3149     3.479   178.744     8.169
 3013.1296    95.914    2.4909    0.2868     1.224   192.595     7.980
 3013.2820    87.295    2.4056    0.2159     3.341   200.000     7.819
 3013.4344    92.306    2.4155    0.3634     3.447   157.177     8.428
 3013.5868   101.364    2.4908    0.3493     2.423   158.207     8.842
 3013.7392    86.505    2.4663    0.2494     2.107   200.000     8.422
 3013.8916    96.424    2.4803    0.2573     9.025   200.000     7.833
 3014.0440   103.623    2.4332    0.2559     1.249   200.000     9.347
 3014.1964    91.134    2.5290    0.2281     1.764   200.000     8.486
 3014.3488    98.944    2.4436    0.2449     2.832   200.000     8.414
 3014.5012    84.194    2.4837    0.3069     1.536   175.185     8.999
 3014.6536   111.070    2.5002    0.2791     1.215   195.990     8.576
 3014.8060   105.681    2.3658    0.2817     4.928   192.481     8.481
 3014.9584    78.715    2.3441    0.1983     2.337   200.000     8.840
 3015.1108   103.132    2.4701    0.2912     2.259   193.254     8.729
 3015.2632   122.184    2.4587    0.2586     5.266   200.000     7.956
 3015.4156    71.444    2.4620    0.2712     1.745   200.000     8.070
 3015.5680   102.940    2.4103    0.2821     4.646   200.000     8.316
 3015.7204   109.751    2.5081    0.2488     2.325   200.000     8.795
 3015.8728    91.373    2.4799    0.3168     0.974   168.576     8.187
 3016.0252    86.621    2.4110    0.3087     1.186   177.979     8.487
 3016.1776    97.441    2.3611    0.2787     1.161   197.733     8.954
 3016.3300    83.884    2.4276    0.3296     1.581   162.845     9.120
 3016.4824    81.025    2.4581    0.3801     7.015   137.602     9.112
 3016.6348    98.380    2.4490    0.3035     2.491   181.208     8.079
 3016.7872    90.047    2.3770    0.3160     3.255   173.970     8.960
 3016.9396    96.911    2.5458    0.2790     3.267   199.173     7.840
 3017.0920   103.775    2.4447    0.2685     1.535   192.188     8.362
 3017.2444    94.650    2.5138    0.2496     2.083   200.000     8.036
 3017.3968    99.848    2.4819    0.3212     3.164   177.925     8.253
 3017.5492    78.217    2.4595    0.3068     1.058   180.515     8.035
 3017.7016    87.365    2.4072    0.3590     2.339   150.094     9.090
 3017.8540    99.404    2.4441    0.3250     2.012   178.376     8.156
 3018.0064    95.669    2.4201    0.2868     2.923   192.223     8.429
 3018.1588   108.781    2.4703    0.2860     1.573   189.368     8.327
 3018.3112    91.980    2.4864    0.3065     2.130   183.187     7.897
 3018.4636   105.605    2.4822    0.3283     3.872   173.269     8.016
 3018.6160   102.648    2.4847    0.3837     2.215   140.153     9.065
 3018.7684    89.359    2.4801    0.2920     6.210   181.165     8.136
 3018.9208    96.044    2.4611    0.3070     3.925   185.929     8.684
 3019.0732    95.917    2.4442    0.3319     2.297   172.208     9.135
 3019.2256    98.235    2.4195    0.3062    12.812   181.173     8.878
