~VERSION INFORMATION
 VERS.                 2.0    : CWLS LOG ASCII STANDARD
 WRAP.                 NO     : ONE LINE PER DEPTH STEP
~WELL INFORMATION
 WELL.                 34/10-23    : Well name
 FLD .                 Oseberg         : Field
 CTRY.                 Norway       : Country
 STRT.M                1900.0000 : START DEPTH
 STOP.M                3100.0000   : STOP DEPTH
 STEP.M                0.1524        : STEP
 NULL.                 -999.25          : NULL VALUE
 SRVC.                 SubsurfAI        : Service company
~CURVE INFORMATION
 DEPT.M                              : Depth
 GR  .GAPI                           : Gamma Ray
 RHOB.G/C3                           : Bulk Density
 NPHI.V/V                            : Neutron Porosity
 RT  .OHMM                           : True Resistivity
 DT  .US/F                           : Sonic
 CALI.IN                             : Caliper
~PARAMETER INFORMATION
 LAT .                 60.5041   : Latitude
 LON .                 2.7833   : Longitude
 DESC.                 Oseberg Fm — Brent/Statfjord sandstone reservoir
~A  DEPT        GR        RHOB      NPHI      RT        DT        CALI
 1900.0000    75.013    2.5161    0.3702     5.858   144.114     8.398
 1900.1524   115.196    2.4342    0.2924     2.466   192.945     8.546
 1900.3048    94.459    2.4083    0.3519     3.273   153.945     8.540
 1900.4572    84.943    2.5383    0.2757     1.223   200.000     8.647
 1900.6096    79.761    2.5021    0.2382     1.098   200.000     9.229
 1900.7620    85.671    2.4475    0.3346     2.783   166.608     8.398
 1900.9144   116.940    2.4583    0.2079     1.860   200.000     8.319
 1901.0668   110.535    2.4629    0.3558     3.261   155.234     8.237
 1901.2192    84.404    2.4561    0.3025     1.001   167.636     8.531
 1901.3716   109.926    2.6438    0.3300     1.782   171.049     8.462
 1901.5240   111.163    2.4721    0.2705     1.523   200.000     8.604
 1901.6764   101.515    2.4069    0.3056     2.523   179.993     8.968
 1901.8288   119.077    2.3995    0.3264     2.123   171.231     8.571
 1901.9812    98.787    2.4796    0.2055     5.073   200.000     7.894
 1902.1336   110.399    2.4079    0.3115     3.620   175.359     9.030
 1902.2860    92.759    2.6057    0.2878     1.363   195.462     8.380
 1902.4384   106.780    2.4768    0.3136     2.497   173.002     8.294
 1902.5908    78.807    2.5092    0.2669     2.031   200.000     8.285
 1902.7432   114.561    2.4755    0.3077     2.651   178.207     9.044
 1902.8956    92.337    2.4603    0.2460     2.448   200.000     7.997
 1903.0480    73.717    2.4523    0.2971     1.959   190.335     8.064
 1903.2004   102.064    2.4486    0.3135     1.055   165.204     8.920
 1903.3528   105.476    2.4620    0.2275     2.539   200.000     8.084
 1903.5052    96.281    2.4683    0.2777     2.776   194.453     8.966
 1903.6576    96.991    2.4033    0.3416     1.377   167.752     8.014
 1903.8100   130.556    2.5076    0.2878     1.494   196.514     8.373
 1903.9624   102.358    2.3852    0.2798     2.630   200.000     7.780
 1904.1148   114.372    2.4517    0.3159     0.619   178.382     8.642
 1904.2672    82.793    2.4576    0.3632     3.449   147.707     8.069
 1904.4196   106.434    2.4677    0.3659     3.337   158.182     8.555
 1904.5720   105.420    2.4407    0.2920     1.567   191.264     8.692
 1904.7244   102.316    2.4793    0.1961     1.704   200.000     8.469
 1904.8768   109.021    2.5006    0.2521     0.826   200.000     8.536
 1905.0292   103.258    2.5468    0.3274     1.550   163.597     9.303
 1905.1816   105.588    2.4716    0.3207     4.816   176.526     8.542
 1905.3340    82.368    2.4433    0.3928     2.044   138.649     8.188
 1905.4864   105.681    2.4983    0.3211     3.378   175.230     8.582
 1905.6388    84.288    2.4625    0.2774     1.578   200.000     8.316
 1905.7912   118.639    2.4848    0.2154     1.132   200.000     8.924
 1905.9436    88.053    2.4769    0.2874     1.584   191.322     8.376
 1906.0960   106.417    2.4893    0.2820     2.820   190.520     8.902
 1906.2484   103.591    2.5707    0.2825     3.561   189.701     8.854
 1906.4008   100.337    2.4346    0.2802     1.095   197.755     8.651
 1906.5532   113.297    2.5394    0.3211     0.586   168.016     9.113
 1906.7056    83.082    2.4957    0.3713     0.991   141.478     8.647
 1906.8580    99.373    2.3995    0.2957     1.872   184.396     8.073
 1907.0104    97.855    2.4596    0.3219     2.811   167.211     7.949
 1907.1628    95.916    2.4911    0.3312     3.353   167.044     8.442
 1907.3152   100.944    2.4620    0.2928     1.906   185.142     8.364
 1907.4676    97.272    2.5517    0.2991     3.162   191.098     8.125
 1907.6200   113.331    2.4731    0.2634     2.089   200.000     9.081
 1907.7724    97.813    2.4677    0.3031     1.138   183.569     8.299
 1907.9248   111.869    2.4295    0.2881     1.818   189.141     8.706
 1908.0772   123.500    2.4961    0.3979     2.281   131.550     8.463
 1908.2296    97.251    2.5115    0.3026     2.936   182.240     9.036
 1908.3820   102.377    2.5753    0.3026     3.192   179.970     8.225
 1908.5344    90.799    2.4544    0.2595     1.305   200.000     8.553
 1908.6868    97.065    2.4034    0.2620     6.241   200.000     8.319
 1908.8392   119.873    2.5378    0.3190     2.845   171.534     8.813
 1908.9916   102.165    2.4797    0.3108     0.984   184.994     8.304
 1909.1440   100.719    2.4444    0.2733     2.083   200.000     9.249
 1909.2964   105.153    2.3946    0.2532     1.670   200.000     8.379
 1909.4488   100.121    2.4773    0.3990     1.344   133.730     7.966
 1909.6012   101.643    2.4219    0.3278     1.960   170.548     8.390
 1909.7536   100.881    2.4478    0.3344     2.968   170.343     8.578
 1909.9060    77.433    2.4696    0.2607     1.366   200.000     8.362
 1910.0584   110.912    2.5035    0.3889     1.551   142.892     8.090
 1910.2108    95.123    2.4902    0.3249     2.265   167.086     8.368
 1910.3632   100.499    2.4371    0.3258     0.813   163.906     8.547
 1910.5156    72.029    2.4697    0.2984     0.630   182.231     8.310
 1910.6680   100.341    2.5702    0.3349     2.033   156.833     8.253
 1910.8204    86.131    2.4978    0.2478     2.390   200.000     7.787
 1910.9728   102.100    2.4931    0.3156     2.057   176.279     8.742
 1911.1252   111.146    2.4558    0.3049     2.122   180.915     8.099
 1911.2776   101.668    2.3579    0.3406     2.273   171.067     8.846
 1911.4300   109.411    2.4553    0.3504     2.073   162.126     8.474
 1911.5824   118.579    2.4502    0.4238     2.048   133.321     8.062
 1911.7348    86.448    2.4594    0.3007     2.286   195.175     8.309
 1911.8872    99.733    2.4964    0.2954     2.956   183.921     8.631
 1912.0396   104.962    2.4537    0.3864     1.265   148.881     8.347
 1912.1920   104.225    2.5565    0.3756     1.112   136.337     8.621
 1912.3444    92.523    2.4558    0.2859     2.236   194.808     9.164
 1912.4968    96.927    2.5062    0.3539     2.261   154.484     8.395
 1912.6492   108.523    2.4419    0.2726     2.113   199.896     8.225
 1912.8016    98.781    2.5349    0.3265     1.590   171.327     8.486
 1912.9540    95.992    2.5008    0.3319     2.261   159.008     8.459
 1913.1064   109.611    2.4041    0.2908     1.703   187.090     8.487
 1913.2588   112.844    2.4743    0.2490     0.845   200.000     8.452
 1913.4112   112.510    2.4231    0.3509     2.329   154.624     8.061
 1913.5636    92.160    2.4945    0.3153     1.876   175.057     8.600
 1913.7160   110.912    2.3823    0.2873     1.600   182.691     8.503
 1913.8684   104.908    2.3879    0.3517     2.850   161.906     8.433
 1914.0208    97.379    2.4635    0.3239     0.818   164.019     8.301
 1914.1732    93.574    2.5177    0.3448     5.151   155.651     8.744
 1914.3256    96.078    2.5389    0.3371     2.201   167.965     8.997
 1914.4780   113.093    2.4329    0.3711     3.162   148.127     8.189
 1914.6304   117.729    2.5241    0.3290     3.737   163.863     8.760
 1914.7828    93.688    2.4312    0.4388     1.863   138.833     8.587
 1914.9352    97.713    2.4574    0.3671     1.256   145.762     8.222
 1915.0876   105.476    2.4097    0.3131     0.877   177.347     8.452
 1915.2400    96.557    2.4890    0.2940     3.267   193.214     7.658
 1915.3924   118.602    2.3950    0.2476     1.350   200.000     8.523
 1915.5448   109.249    2.4115    0.3043     2.719   186.590     8.074
 1915.6972   106.345    2.5765    0.3339     0.654   164.410     8.449
 1915.8496    98.920    2.4573    0.2854     1.070   195.607     7.629
 1916.0020    96.427    2.4586    0.3408     9.372   166.787     9.290
 1916.1544    91.108    2.4629    0.2431     1.068   200.000     8.268
 1916.3068   104.591    2.4632    0.3061     4.300   180.363     8.044
 1916.4592   109.224    2.4493    0.3485     1.508   159.635     7.591
 1916.6116    99.082    2.5570    0.3015     2.488   187.514     8.025
 1916.7640   101.973    2.4926    0.3856     3.069   152.388     8.430
 1916.9164    87.797    2.4513    0.2468     0.967   200.000     8.029
 1917.0688    96.545    2.4828    0.4237     7.359   126.933     7.990
