~VERSION INFORMATION
 VERS.                 2.0    : CWLS LOG ASCII STANDARD
 WRAP.                 NO     : ONE LINE PER DEPTH STEP
~WELL INFORMATION
 WELL.                 34/10-23    : Well name
 FLD .                 Oseberg         : Field
 CTRY.                 Norway       : Country
 STRT.M                1900.0000 : START DEPTH
 STOP.M                3100.0000   : STOP DEPTH
 STEP.M                0.1524        : STEP
 NULL.                 -999.25          : NULL VALUE
 SRVC.                 SubsurfAI        : Service company
~CURVE INFORMATION
 DEPT.M                              : Depth
 GR  .GAPI                           : Gamma Ray
 RHOB.G/C3                           : Bulk Density
 NPHI.V/V                            : Neutron Porosity
 RT  .OHMM                           : True Resistivity
 DT  .US/F                           : Sonic
 CALI.IN                             : Caliper
~PARAMETER INFORMATION
 LAT .                 60.5041   : Latitude
 LON .                 2.7833   : Longitude
 DESC.                 Oseberg Fm — Brent/Statfjord sandstone reservoir
~A  DEPT        GR        RHOB      NPHI      RT        DT        CALI
# ...
 2778.2812    37.773    2.3442    0.1313    19.550   200.000     8.366
 2778.4336    35.080    2.3496    0.1891    91.921   200.000     8.825
 2778.5860    32.938    2.2277    0.1976    57.286   200.000     9.280
 2778.7384    32.845    2.2939    0.1449    70.019   200.000     8.556
 2778.8908    35.065    2.3020    0.1719    56.931   200.000     8.316
 2779.0432    34.716    2.3271    0.1740    38.263   200.000     8.363
 2779.1956    32.805    2.3220    0.1568    19.052   200.000     8.237
 2779.3480    45.598    2.3544    0.1952    51.404   200.000     8.644
 2779.5004    46.681    2.2957    0.1780    34.968   200.000     9.268
 2779.6528    44.817    2.3097    0.1839    25.134   200.000     7.657
 2779.8052    44.757    2.2580    0.2319    71.874   200.000     8.461
 2779.9576    36.006    2.2644    0.1817    84.958   200.000     8.430
 2780.1100    28.938    2.3048    0.2106    29.513   200.000     8.754
 2780.2624    40.373    2.3489    0.1735    39.234   200.000     8.589
 2780.4148    38.158    2.2581    0.1751    80.707   200.000     8.773
 2780.5672    34.956    2.2766    0.1334    60.211   200.000     8.734
 2780.7196    35.904    2.2887    0.1527    69.285   200.000     8.682
 2780.8720    36.849    2.3065    0.1635    26.108   200.000     8.184
 2781.0244    30.656    2.2806    0.1939    57.256   200.000     8.780
 2781.1768    40.271    2.2121    0.1927    39.303   200.000     8.225
 2781.3292    28.876    2.3568    0.1816    66.942   200.000     8.770
 2781.4816    38.442    2.3334    0.1978    45.393   200.000     8.650
 2781.6340    33.680    2.3052    0.1922    43.573   200.000     7.883
 2781.7864    43.613    2.2557    0.1985    28.467   200.000     8.574
 2781.9388    36.208    2.2507    0.1757     9.672   200.000     9.542
 2782.0912    26.133    2.3014    0.2369    85.921   200.000     8.205
 2782.2436    31.909    2.3162    0.1974    31.325   200.000     8.720
 2782.3960    40.499    2.2369    0.1851    31.153   200.000     8.414
 2782.5484    35.148    2.3124    0.1792    29.986   200.000     8.179
 2782.7008    38.185    2.2924    0.1952    55.093   200.000     8.693
 2782.8532    33.181    2.3692    0.1714    62.526   200.000     8.528
 2783.0056    32.192    2.3096    0.2145    69.685   200.000     8.815
 2783.1580    29.077    2.3264    0.2226    45.179   200.000     7.817
 2783.3104    30.739    2.3383    0.2103    75.113   200.000     8.666
 2783.4628    33.294    2.3089    0.2388    45.954   200.000     8.299
 2783.6152    40.435    2.2607    0.2137    19.617   200.000     8.306
 2783.7676    33.884    2.3280    0.1625   107.384   200.000     8.233
 2783.9200    31.450    2.3158    0.2125    59.768   200.000     8.790
 2784.0724    51.112    2.3636    0.1855    36.737   200.000     8.727
 2784.2248    31.548    2.2597    0.2093   123.960   200.000     8.565
 2784.3772    36.089    2.2876    0.2085    34.763   200.000     8.683
 2784.5296    36.679    2.3884    0.1822    33.894   200.000     8.453
 2784.6820    47.911    2.2724    0.1601    26.527   200.000     9.069
 2784.8344    36.507    2.2886    0.1755    49.437   200.000     8.303
 2784.9868    38.254    2.3183    0.1816    42.706   200.000     8.161
 2785.1392    38.350    2.2707    0.1932    26.776   200.000     9.014
 2785.2916    40.670    2.3569    0.2480    70.716   200.000     8.172
 2785.4440    31.120    2.2905    0.1463    33.895   200.000     7.443
 2785.5964    32.505    2.3050    0.2080    53.552   200.000     8.977
 2785.7488    33.512    2.3183    0.2075    63.558   200.000     8.166
 2785.9012    39.986    2.2471    0.1415    45.599   200.000     8.415
 2786.0536    40.255    2.3636    0.1757    18.104   200.000     8.184
 2786.2060    35.854    2.3419    0.1579    27.619   200.000     8.237
 2786.3584    26.963    2.1811    0.2243    30.726   200.000     8.511
 2786.5108    35.040    2.2004    0.2495    43.717   200.000     8.254
 2786.6632    34.564    2.3061    0.2147    10.577   200.000     7.851
 2786.8156    29.685    2.2555    0.1350    46.130   200.000     8.258
 2786.9680    30.040    2.3460    0.2246    74.142   200.000     9.341
 2787.1204    36.978    2.3659    0.1814    40.594   200.000     9.047
 2787.2728    33.982    2.2725    0.1724    26.643   200.000     8.151
 2787.4252    39.003    2.2911    0.1730    16.153   200.000     8.396
 2787.5776    36.261    2.2526    0.1937    22.599   200.000     8.926
 2787.7300    43.417    2.2102    0.2100    33.560   200.000     8.285
 2787.8824    32.054    2.2833    0.2245    35.827   200.000     8.243
 2788.0348    31.404    2.2907    0.1461    70.975   200.000     8.855
 2788.1872    32.625    2.2186    0.1746    94.999   200.000     8.343
 2788.3396    36.728    2.2282    0.1735    44.982   200.000     8.586
 2788.4920    29.733    2.2595    0.1671    14.412   200.000     8.220
 2788.6444    27.064    2.2563    0.1776    29.681   200.000     8.700
 2788.7968    24.511    2.2321    0.1838    55.657   200.000     8.138
 2788.9492    34.288    2.3366    0.1205    42.284   200.000     8.426
 2789.1016    28.780    2.2577    0.1746    44.857   200.000     8.072
 2789.2540    32.699    2.3396    0.1920    48.560   200.000     7.833
 2789.4064    35.436    2.3123    0.1821    30.629   200.000     8.101
 2789.5588    34.086    2.3521    0.1826    37.379   200.000     7.867
 2789.7112    37.693    2.2746    0.2108    16.825   200.000     8.668
 2789.8636    36.065    2.3129    0.1796    46.689   200.000     8.467
 2790.0160    37.915    2.3455    0.2014    40.934   200.000     7.951
 2790.1684    35.785    2.3608    0.2201    37.271   200.000     9.100
 2790.3208    35.608    2.3411    0.2080    73.196   200.000     8.476
 2790.4732    37.318    2.2655    0.2166    35.469   200.000     8.558
 2790.6256    40.150    2.3238    0.1193    30.760   200.000     8.666
 2790.7780    36.058    2.3166    0.1550    28.173   200.000     8.528
 2790.9304    42.250    2.2515    0.1526    89.413   200.000     8.974
 2791.0828    34.195    2.2714    0.2152    22.322   200.000     8.653
 2791.2352    30.592    2.3495    0.1540    43.255   200.000     8.540
 2791.3876    30.112    2.2687    0.2160    65.965   200.000     8.847
 2791.5400    40.146    2.2717    0.2314    44.501   200.000     7.609
 2791.6924    35.169    2.2477    0.2008    22.873   200.000     8.782
 2791.8448    34.395    2.3150    0.1727    20.401   200.000     8.270
 2791.9972    44.176    2.3704    0.1706    30.802   200.000     8.640
 2792.1496    35.505    2.3253    0.1883    26.410   200.000     8.501
 2792.3020    37.650    2.2311    0.2130    42.809   200.000     8.496
 2792.4544    39.391    2.2444    0.1956    17.660   200.000     9.291
 2792.6068    34.366    2.3625    0.1636    31.919   200.000     8.640
 2792.7592    40.908    2.2737    0.1566    16.695   200.000     8.765
 2792.9116    39.690    2.3288    0.1800    23.513   200.000     8.312
 2793.0640    32.046    2.3540    0.2121    54.086   200.000     9.452
 2793.2164    27.831    2.2356    0.1802    40.845   200.000     8.006
 2793.3688    40.826    2.3161    0.2150    59.000   200.000     8.429
 2793.5212    32.695    2.2760    0.2357    56.313   200.000     9.129
 2793.6736    26.619    2.2697    0.2185    37.390   200.000     8.850
 2793.8260    25.633    2.3820    0.1896    67.587   200.000     8.796
 2793.9784    36.341    2.2578    0.1721    79.579   200.000     8.718
 2794.1308    30.791    2.2628    0.2240    22.778   200.000     8.026
 2794.2832    37.712    2.3031    0.1849    20.685   200.000     8.121
 2794.4356    42.013    2.3519    0.1740    28.203   200.000     8.560
 2794.5880    29.091    2.3842    0.1785    38.834   200.000     7.893
 2794.7404    28.638    2.3288    0.2237    39.596   200.000     8.858
 2794.8928    38.165    2.2411    0.2011    60.630   200.000     8.612
 2795.0452    36.965    2.3068    0.2277    18.152   200.000     7.756
 2795.1976    23.494    2.3678    0.1624    33.306   200.000     8.334
 2795.3500    33.204    2.3261    0.1945    44.558   200.000     7.726
