~VERSION INFORMATION
 VERS.                 2.0    : CWLS LOG ASCII STANDARD
 WRAP.                 NO     : ONE LINE PER DEPTH STEP
~WELL INFORMATION
 WELL.                 34/10-23    : Well name
 FLD .                 Oseberg         : Field
 CTRY.                 Norway       : Country
 STRT.M                1900.0000 : START DEPTH
 STOP.M                3100.0000   : STOP DEPTH
 STEP.M                0.1524        : STEP
 NULL.                 -999.25          : NULL VALUE
 SRVC.                 SubsurfAI        : Service company
~CURVE INFORMATION
 DEPT.M                              : Depth
 GR  .GAPI                           : Gamma Ray
 RHOB.G/C3                           : Bulk Density
 NPHI.V/V                            : Neutron Porosity
 RT  .OHMM                           : True Resistivity
 DT  .US/F                           : Sonic
 CALI.IN                             : Caliper
~PARAMETER INFORMATION
 LAT .                 60.5041   : Latitude
 LON .                 2.7833   : Longitude
 DESC.                 Oseberg Fm — Brent/Statfjord sandstone reservoir
~A  DEPT        GR        RHOB      NPHI      RT        DT        CALI
# ...
 3088.2628    90.159    2.3447    0.3257     3.660   165.964     8.346
 3088.4152    65.224    2.5364    0.2741     2.426   200.000     8.098
 3088.5676    86.666    2.4694    0.3189     1.515   171.018     7.932
 3088.7200    78.420    2.5535    0.3448     1.467   161.746     8.546
 3088.8724    92.751    2.4654    0.2828     3.137   200.000     8.943
 3089.0248   102.710    2.4505    0.2671     5.584   200.000     8.140
 3089.1772    82.800    2.4109    0.2477     1.116   200.000     8.387
 3089.3296    69.460    2.4498    0.3030     3.036   177.571     8.460
 3089.4820    84.438    2.4712    0.3067     2.076   178.456     7.975
 3089.6344   100.530    2.4721    0.2746     2.075   200.000     9.062
 3089.7868    99.084    2.4066    0.2551     1.547   200.000     8.906
 3089.9392    95.384    2.4422    0.2572     3.166   200.000     8.889
 3090.0916    97.397    2.4414    0.2272     1.660   200.000     8.643
 3090.2440    84.775    2.4683    0.3086     6.176   176.721     8.666
 3090.3964    91.208    2.4488    0.3283     2.989   162.580     8.419
 3090.5488    98.121    2.5386    0.1917     1.070   200.000     9.043
 3090.7012    82.934    2.4633    0.3654     1.649   142.877     8.729
 3090.8536   111.010    2.4247    0.3086     2.399   181.019     7.710
 3091.0060   107.737    2.4471    0.2418     1.249   200.000     8.498
 3091.1584   108.933    2.4459    0.2897     1.444   181.293     8.774
 3091.3108    91.966    2.3786    0.3337     1.997   159.546     9.296
 3091.4632    95.822    2.4103    0.2836     4.743   198.515     8.901
 3091.6156    81.609    2.4624    0.2387     2.148   200.000     8.309
 3091.7680    88.162    2.4706    0.3095     3.189   170.764     8.102
 3091.9204    90.454    2.3794    0.2588     2.979   200.000     8.679
 3092.0728   102.802    2.4806    0.3034     4.410   184.333     8.784
 3092.2252    71.648    2.5295    0.3260     2.087   171.746     7.889
 3092.3776    84.923    2.4596    0.2428     3.742   200.000     8.346
 3092.5300    72.443    2.4479    0.3056     2.254   178.455     8.209
 3092.6824    87.532    2.4033    0.3229     2.641   175.250     8.452
 3092.8348    94.598    2.4411    0.2820     2.169   189.831     8.634
 3092.9872    91.608    2.4811    0.3691     2.061   155.493     8.279
 3093.1396    97.109    2.4363    0.2989     1.531   180.188     8.795
 3093.2920    75.008    2.3000    0.2822     6.558   191.534     8.830
 3093.4444   104.374    2.5160    0.3104     2.300   182.090     8.106
 3093.5968    92.006    2.4226    0.2141     1.622   200.000     9.085
 3093.7492    81.524    2.5033    0.2113     2.751   200.000     8.668
 3093.9016    90.050    2.3885    0.3553     1.079   151.202     8.024
 3094.0540    99.111    2.4653    0.2344     3.252   200.000     8.263
 3094.2064    89.619    2.4737    0.2699     2.554   200.000     8.845
 3094.3588    68.046    2.4112    0.2960     1.928   185.776     8.265
 3094.5112    94.237    2.3785    0.2261     2.062   200.000     7.790
 3094.6636    82.496    2.4123    0.2115     1.542   200.000     8.469
 3094.8160   103.012    2.4425    0.3533     2.977   145.844     8.232
 3094.9684    92.191    2.4058    0.2926     3.074   192.182     8.379
 3095.1208    93.607    2.5374    0.3505     3.750   151.224     8.405
 3095.2732    90.041    2.4664    0.3548     1.108   151.406     8.002
 3095.4256    87.983    2.4280    0.2997     3.398   190.985     8.053
 3095.5780    87.204    2.3867    0.3187     5.800   172.351     9.048
 3095.7304   105.599    2.4307    0.3070     1.467   179.283     9.040
 3095.8828   106.208    2.4141    0.3610     1.297   151.978     8.667
 3096.0352   112.174    2.4774    0.2617     3.341   200.000     8.856
 3096.1876   112.625    2.3296    0.2947     2.082   192.811     8.479
 3096.3400   106.269    2.4473    0.3009     3.036   185.448     8.838
 3096.4924    94.216    2.5384    0.2792     1.954   200.000     8.823
 3096.6448    90.210    2.3700    0.2865     5.912   191.062     8.791
 3096.7972    80.068    2.5013    0.2753     3.182   199.709     9.267
 3096.9496    66.114    2.4251    0.2994     1.468   176.469     8.826
 3097.1020   101.182    2.4577    0.2583     1.202   200.000     9.043
 3097.2544    88.335    2.4752    0.3510     1.678   153.416     8.097
 3097.4068    96.152    2.4408    0.3326     3.604   166.264     8.243
 3097.5592   113.975    2.3619    0.3564     1.394   154.912     8.313
 3097.7116    90.214    2.3960    0.2368     2.942   200.000     8.237
 3097.8640    95.413    2.4327    0.2847     3.122   189.292     8.605
 3098.0164    71.817    2.4689    0.3187     1.451   168.365     7.832
 3098.1688   102.364    2.5172    0.2648     1.204   200.000     8.268
 3098.3212    94.927    2.5072    0.2907     3.038   193.286     8.783
 3098.4736    93.432    2.4738    0.2482     2.430   200.000     8.796
 3098.6260    84.300    2.4348    0.2082     2.873   200.000     8.467
 3098.7784   105.484    2.4585    0.2587     1.373   200.000     8.792
 3098.9308    84.341    2.4994    0.3036     1.787   181.624     8.992
 3099.0832    92.800    2.4286    0.1894     1.042   200.000     8.888
 3099.2356    94.053    2.3549    0.2564     2.253   200.000     8.516
 3099.3880    94.050    2.5230    0.3251     1.725   160.591     8.513
 3099.5404    97.229    2.4447    0.2420    10.614   200.000     8.476
 3099.6928    94.395    2.4477    0.2576     2.497   200.000     8.601
 3099.8452    89.331    2.4330    0.3326     2.823   162.370     7.805
 3099.9976    81.346    2.4551    0.2792     4.645   194.489     8.305
