~VERSION INFORMATION
 VERS.                 2.0    : CWLS LOG ASCII STANDARD
 WRAP.                 NO     : ONE LINE PER DEPTH STEP
~WELL INFORMATION
 WELL.                 34/10-23    : Well name
 FLD .                 Oseberg         : Field
 CTRY.                 Norway       : Country
 STRT.M                1900.0000 : START DEPTH
 STOP.M                3100.0000   : STOP DEPTH
 STEP.M                0.1524        : STEP
 NULL.                 -999.25          : NULL VALUE
 SRVC.                 SubsurfAI        : Service company
~CURVE INFORMATION
 DEPT.M                              : Depth
 GR  .GAPI                           : Gamma Ray
 RHOB.G/C3                           : Bulk Density
 NPHI.V/V                            : Neutron Porosity
 RT  .OHMM                           : True Resistivity
 DT  .US/F                           : Sonic
 CALI.IN                             : Caliper
~PARAMETER INFORMATION
 LAT .                 60.5041   : Latitude
 LON .                 2.7833   : Longitude
 DESC.                 Oseberg Fm — Brent/Statfjord sandstone reservoir
~A  DEPT        GR        RHOB      NPHI      RT        DT        CALI
# ...
 2692.1752    26.161    2.1689    0.1694    57.982   200.000     8.615
 2692.3276    35.268    2.3228    0.1615    31.004   200.000     9.132
 2692.4800    33.519    2.2650    0.1916    33.581   200.000     8.523
 2692.6324    31.577    2.2769    0.1543    43.557   200.000     9.021
 2692.7848    44.660    2.2375    0.1593    29.212   200.000     8.792
 2692.9372    39.282    2.2978    0.2154    49.301   200.000     8.916
 2693.0896    30.447    2.2924    0.1780    44.876   200.000     8.532
 2693.2420    45.003    2.2720    0.1925    41.510   200.000     9.025
 2693.3944    40.400    2.3574    0.1241    30.555   200.000     8.361
 2693.5468    37.472    2.4100    0.2271    36.458   200.000     8.765
 2693.6992    31.121    2.3270    0.1848    35.341   200.000     8.089
 2693.8516    21.990    2.1660    0.2267    48.454   200.000     8.489
 2694.0040    36.462    2.2154    0.2203    36.043   200.000     8.541
 2694.1564    28.022    2.2779    0.1610    44.164   200.000     8.652
 2694.3088    33.069    2.3942    0.1971    50.456   200.000     8.911
 2694.4612    29.825    2.2726    0.2113    42.955   200.000     9.082
 2694.6136    40.335    2.3267    0.2120    22.780   200.000     8.189
 2694.7660    41.732    2.3360    0.1452    26.265   200.000     8.774
 2694.9184    36.241    2.2746    0.2233    59.346   200.000     8.472
 2695.0708    35.932    2.2858    0.1727    43.472   200.000    10.132
 2695.2232    32.422    2.3037    0.1891    20.453   200.000     9.071
 2695.3756    30.494    2.3396    0.1626    29.317   200.000     9.142
 2695.5280    36.110    2.2196    0.1619    43.460   200.000     8.671
 2695.6804    33.951    2.3068    0.1852    27.181   200.000     9.050
 2695.8328    39.756    2.2183    0.2170    52.436   200.000     8.032
 2695.9852    40.331    2.3224    0.2099    64.761   200.000     8.556
 2696.1376    36.898    2.2582    0.1643    30.800   200.000     7.922
 2696.2900    36.961    2.2563    0.1906    29.481   200.000     8.928
 2696.4424    35.667    2.3854    0.1540    49.748   200.000     8.203
 2696.5948    30.483    2.3211    0.1899    48.533   200.000     9.347
 2696.7472    36.493    2.3311    0.1765    15.119   200.000     8.268
 2696.8996    34.343    2.2875    0.2160    46.900   200.000     8.944
 2697.0520    41.144    2.3338    0.2225    92.604   200.000     8.526
 2697.2044    35.602    2.2893    0.1863    53.002   200.000     9.198
 2697.3568    28.573    2.3503    0.1561    36.526   200.000     8.507
 2697.5092    27.411    2.3150    0.1984    35.248   200.000     8.257
 2697.6616    43.469    2.3123    0.1605    13.843   200.000     8.809
 2697.8140    31.342    2.3125    0.1983    53.205   200.000     7.813
 2697.9664    36.122    2.4018    0.1867    57.268   200.000     8.144
 2698.1188    27.752    2.3661    0.1930    33.034   200.000     9.300
 2698.2712    43.095    2.2921    0.1996    40.552   200.000     8.596
 2698.4236    33.889    2.2926    0.1829    54.462   200.000     8.560
 2698.5760    30.759    2.2555    0.1496    35.251   200.000     8.505
 2698.7284    32.889    2.2869    0.2003    24.993   200.000     8.737
 2698.8808    29.025    2.2539    0.1298    33.603   200.000     8.328
 2699.0332    30.953    2.2896    0.2146    77.814   200.000     8.578
 2699.1856    30.795    2.2487    0.1983    46.072   200.000     7.565
 2699.3380    29.667    2.2160    0.1842    16.784   200.000     9.010
 2699.4904    26.231    2.3607    0.1319    42.341   200.000     9.045
 2699.6428    43.469    2.2772    0.1987    66.858   200.000     8.416
 2699.7952    38.804    2.2343    0.1520    27.261   200.000     7.922
 2699.9476    26.912    2.3264    0.2278    38.847   200.000     8.298
 2700.1000    37.488    2.3171    0.2194    52.185   200.000     8.320
 2700.2524    32.790    2.3767    0.1626    56.523   200.000     8.163
 2700.4048    39.149    2.3148    0.1557    54.234   200.000     8.769
 2700.5572    35.400    2.2640    0.2095    23.211   200.000     8.669
 2700.7096    28.265    2.2641    0.1938    55.344   200.000     9.189
 2700.8620    32.452    2.3503    0.1879    81.973   200.000     8.773
 2701.0144    47.514    2.3065    0.1807    38.900   200.000     8.785
 2701.1668    24.306    2.3398    0.1746    43.713   200.000     8.685
 2701.3192    36.026    2.2696    0.2132    15.456   200.000     8.681
 2701.4716    29.162    2.2374    0.1651    56.036   200.000     7.968
 2701.6240    26.884    2.2578    0.2078    40.879   200.000     9.089
 2701.7764    42.591    2.2334    0.1577    25.838   200.000     8.027
 2701.9288    31.794    2.3138    0.1714    25.283   200.000     8.390
 2702.0812    44.927    2.2461    0.1899    28.338   200.000     8.508
 2702.2336    36.632    2.3120    0.2204   131.960   200.000     9.089
 2702.3860    36.298    2.2085    0.1759    21.584   200.000     8.842
 2702.5384    44.397    2.3849    0.2071    21.936   200.000     8.669
 2702.6908    34.641    2.3124    0.1594    55.110   200.000     8.189
 2702.8432    39.991    2.3175    0.1588   100.616   200.000     9.009
 2702.9956    39.546    2.3816    0.2023    24.631   200.000     8.866
 2703.1480    33.908    2.3491    0.2035    24.497   200.000     9.031
 2703.3004    33.486    2.2869    0.1801    38.722   200.000     8.962
 2703.4528    43.896    2.2681    0.2033    38.445   200.000     8.599
 2703.6052    35.217    2.2945    0.1924    46.802   200.000     8.507
 2703.7576    27.788    2.3135    0.1947    14.611   200.000     8.871
 2703.9100    33.550    2.3545    0.1585    46.161   200.000     7.917
 2704.0624    30.629    2.2434    0.1751    44.970   200.000     8.481
 2704.2148    34.007    2.3492    0.2120    48.727   200.000     7.609
 2704.3672    40.421    2.3286    0.2247    28.822   200.000     8.423
 2704.5196    27.818    2.3308    0.1578    49.986   200.000     8.473
 2704.6720    34.584    2.2890    0.2180    18.843   200.000     8.419
 2704.8244    36.834    2.2985    0.2132    65.549   200.000     8.810
 2704.9768    38.508    2.2566    0.2168    44.018   200.000     7.928
 2705.1292    31.699    2.3249    0.1684    16.100   200.000     8.177
 2705.2816    30.353    2.2679    0.1903    34.393   200.000     8.779
 2705.4340    29.500    2.2887    0.1825    52.573   200.000     8.035
 2705.5864    44.882    2.2468    0.1135    62.785   200.000     8.345
 2705.7388    34.344    2.3333    0.2133    45.739   200.000     8.220
 2705.8912    31.195    2.2454    0.1844    46.827   200.000     8.236
 2706.0436    30.704    2.3083    0.2304    88.132   200.000     8.661
 2706.1960    37.302    2.3705    0.1659    36.478   200.000     8.198
 2706.3484    29.112    2.2789    0.1877    33.581   200.000     7.386
 2706.5008    28.913    2.3498    0.1498    37.168   200.000     7.423
 2706.6532    32.973    2.2646    0.2433   107.614   200.000     9.471
 2706.8056    37.303    2.3109    0.1847    36.840   200.000     8.545
 2706.9580    38.543    2.3124    0.1657    44.527   200.000     8.759
 2707.1104    24.547    2.2776    0.2446    33.819   200.000     8.584
 2707.2628    29.621    2.2181    0.1975    78.376   200.000     7.742
 2707.4152    33.478    2.3729    0.1655    20.893   200.000     8.835
 2707.5676    29.354    2.2845    0.2038    37.759   200.000     8.444
 2707.7200    34.601    2.2603    0.1649    39.993   200.000     9.224
 2707.8724    29.267    2.3502    0.1348    41.672   200.000     8.739
 2708.0248    38.710    2.3498    0.2310    45.618   200.000     8.533
 2708.1772    36.883    2.2003    0.1960    50.147   200.000     9.239
 2708.3296    34.776    2.2222    0.2051    49.349   200.000     8.474
 2708.4820    36.484    2.2421    0.1379    55.945   200.000     8.726
 2708.6344    30.587    2.3160    0.1657    51.592   200.000     8.747
 2708.7868    36.680    2.2853    0.1765    46.038   200.000     8.299
 2708.9392    35.268    2.2951    0.1355    40.232   200.000     9.265
 2709.0916    37.065    2.3517    0.1879    62.394   200.000     7.915
 2709.2440    39.148    2.2722    0.1892    68.922   200.000     8.042
