~VERSION INFORMATION
 VERS.                 2.0    : CWLS LOG ASCII STANDARD
 WRAP.                 NO     : ONE LINE PER DEPTH STEP
~WELL INFORMATION
 WELL.                 34/10-23    : Well name
 FLD .                 Oseberg         : Field
 CTRY.                 Norway       : Country
 STRT.M                1900.0000 : START DEPTH
 STOP.M                3100.0000   : STOP DEPTH
 STEP.M                0.1524        : STEP
 NULL.                 -999.25          : NULL VALUE
 SRVC.                 SubsurfAI        : Service company
~CURVE INFORMATION
 DEPT.M                              : Depth
 GR  .GAPI                           : Gamma Ray
 RHOB.G/C3                           : Bulk Density
 NPHI.V/V                            : Neutron Porosity
 RT  .OHMM                           : True Resistivity
 DT  .US/F                           : Sonic
 CALI.IN                             : Caliper
~PARAMETER INFORMATION
 LAT .                 60.5041   : Latitude
 LON .                 2.7833   : Longitude
 DESC.                 Oseberg Fm — Brent/Statfjord sandstone reservoir
~A  DEPT        GR        RHOB      NPHI      RT        DT        CALI
# ...
 2537.1844    19.714    2.6565    0.0809   129.140   200.000     8.306
 2537.3368    21.548    2.5737    0.0556   174.200   200.000     9.237
 2537.4892    14.673    2.5576    0.0894   218.480   200.000     8.753
 2537.6416    17.612    2.6316    0.0666   156.590   200.000     8.479
 2537.7940    15.789    2.7053    0.0965   491.611   200.000     8.466
 2537.9464    18.244    2.6936    0.0499    42.822   200.000     8.098
 2538.0988    14.622    2.6550    0.0961   100.921   200.000     9.188
 2538.2512    17.230    2.6079    0.0656   116.818   200.000     7.950
 2538.4036    16.874    2.6569    0.0806   171.043   200.000     8.337
 2538.5560    24.834    2.7123    0.0911   140.785   200.000     7.865
 2538.7084    16.587    2.6944    0.1008    88.397   200.000     9.031
 2538.8608    15.705    2.6027    0.0754    93.515   200.000     8.042
 2539.0132    19.070    2.6134    0.1020   191.917   200.000     8.745
 2539.1656    16.024    2.6891    0.1035    94.171   200.000     8.722
 2539.3180    13.606    2.6879    0.0643   143.202   200.000     8.508
 2539.4704    22.485    2.5911    0.0960   128.139   200.000     8.479
 2539.6228    20.358    2.6408    0.0847   197.630   200.000     9.019
 2539.7752    12.012    2.7013    0.0660    85.979   200.000     8.717
 2539.9276    19.609    2.6511    0.0786    39.545   200.000     8.397
 2540.0800    20.936    2.6035    0.1037   220.356   200.000     8.769
 2540.2324    20.607    2.6685    0.0730    91.115   200.000     9.490
 2540.3848    17.965    2.5930    0.0790   177.229   200.000     8.604
 2540.5372    18.555    2.6533    0.0927   164.929   200.000     7.883
 2540.6896    16.550    2.6095    0.0899   109.999   200.000     9.167
 2540.8420    17.744    2.5753    0.0820   126.063   200.000     8.569
 2540.9944    17.363    2.6460    0.0908   358.245   200.000     8.836
 2541.1468    20.725    2.6244    0.0726   187.461   200.000     8.797
 2541.2992    16.701    2.6500    0.0756    81.800   200.000     9.169
 2541.4516    17.012    2.6364    0.0985   218.581   200.000     8.295
 2541.6040    14.427    2.6828    0.0757    66.648   200.000     8.303
 2541.7564    20.549    2.5387    0.0839    88.063   200.000     8.527
 2541.9088    17.868    2.6867    0.0825   115.689   200.000     8.202
 2542.0612    15.731    2.6318    0.0932   166.931   200.000     8.141
 2542.2136    23.030    2.5117    0.0661   152.326   200.000     8.167
 2542.3660    18.797    2.7131    0.0627   244.081   200.000     8.225
 2542.5184    19.978    2.6737    0.0808    98.051   200.000     8.763
 2542.6708    11.334    2.6438    0.0690   141.227   200.000     8.032
 2542.8232    25.071    2.5667    0.0755   129.192   200.000     8.894
 2542.9756    19.653    2.5955    0.0860   362.797   200.000     8.342
 2543.1280    23.158    2.6201    0.0790    78.779   200.000     9.154
 2543.2804    12.835    2.6944    0.0799   438.652   200.000     8.865
 2543.4328    15.330    2.7466    0.0680   122.466   200.000     8.818
 2543.5852    16.229    2.7567    0.0918    86.531   200.000     8.420
 2543.7376    19.817    2.6480    0.0781    80.184   200.000     8.433
 2543.8900    21.478    2.6270    0.0729   107.452   200.000     8.968
 2544.0424    21.784    2.5831    0.0759    92.973   200.000     9.098
 2544.1948    15.771    2.7729    0.0731    98.736   200.000     9.110
 2544.3472    15.288    2.6565    0.0801   250.977   200.000     8.755
 2544.4996    21.477    2.6097    0.0851    76.178   200.000     8.252
 2544.6520    16.427    2.6545    0.0698    79.993   200.000     8.423
 2544.8044    13.719    2.5756    0.0846    57.821   200.000     7.216
 2544.9568    18.885    2.5581    0.0727    84.581   200.000     7.757
 2545.1092    17.118    2.6608    0.0855   146.071   200.000     8.075
 2545.2616    21.723    2.6737    0.0778    83.836   200.000     8.841
 2545.4140    18.799    2.6594    0.0826   191.096   200.000     8.210
 2545.5664    15.689    2.6146    0.0789   157.877   200.000     8.305
 2545.7188    20.651    2.6278    0.0889   126.554   200.000     7.578
 2545.8712    22.001    2.6408    0.0706    86.892   200.000     8.184
 2546.0236    20.122    2.6833    0.0827    54.582   200.000     8.547
 2546.1760    16.590    2.6083    0.0784   131.256   200.000     8.090
 2546.3284    16.806    2.7999    0.0950    38.320   200.000     8.740
 2546.4808    26.703    2.6164    0.1042    63.242   200.000     8.620
 2546.6332    15.457    2.6796    0.0666    71.811   200.000     8.663
 2546.7856    18.795    2.6561    0.0851    66.599   200.000     8.393
 2546.9380    17.306    2.6328    0.0785   137.120   200.000     7.811
 2547.0904    20.153    2.6381    0.0605   169.084   200.000     8.104
 2547.2428    13.006    2.6960    0.0758    78.804   200.000     8.481
 2547.3952    15.047    2.6038    0.0640   126.678   200.000     8.541
 2547.5476    14.446    2.6652    0.0844   172.542   200.000     8.065
 2547.7000    20.501    2.6212    0.0676    74.179   200.000     8.202
 2547.8524    15.299    2.5990    0.0726    59.238   200.000     8.282
 2548.0048    15.086    2.6643    0.0754   126.878   200.000     9.058
 2548.1572    11.640    2.6807    0.0772   133.940   200.000     8.828
 2548.3096    18.239    2.7921    0.0828    77.197   200.000     8.513
 2548.4620    19.193    2.6644    0.0878   173.716   200.000     7.999
 2548.6144    18.218    2.6097    0.0634    85.186   200.000     7.283
 2548.7668    19.838    2.6702    0.0808    63.036   200.000     8.462
 2548.9192    17.340    2.6771    0.0856   229.643   200.000     8.540
 2549.0716    19.139    2.6889    0.0873   280.303   200.000     8.015
 2549.2240    20.772    2.5566    0.0708    51.850   200.000     7.509
 2549.3764    17.176    2.6572    0.0870   219.418   200.000     8.962
 2549.5288    18.800    2.6275    0.0817    99.079   200.000     8.604
 2549.6812    24.816    2.6304    0.0707   134.929   200.000     8.506
 2549.8336    20.570    2.6081    0.0692    96.066   200.000     8.262
 2549.9860    19.044    2.6133    0.0714   135.606   200.000     8.296
 2550.1384    16.031    2.6163    0.0607    55.645   200.000     8.500
 2550.2908     9.329    2.6729    0.0965   144.514   200.000     8.223
 2550.4432    22.307    2.5468    0.0936    88.375   200.000     8.692
 2550.5956    24.229    2.6420    0.0525    24.901   200.000     8.215
 2550.7480    17.201    2.6747    0.0857   130.435   200.000     8.722
 2550.9004    16.187    2.6321    0.0900   132.509   200.000     8.299
 2551.0528    20.039    2.6829    0.0885    81.128   200.000     8.424
 2551.2052    18.618    2.6307    0.0852   135.874   200.000     9.059
 2551.3576    15.648    2.6590    0.0802    36.642   200.000     8.330
 2551.5100    19.772    2.6729    0.0910   237.451   200.000     8.431
 2551.6624    19.274    2.6635    0.0805    55.622   200.000     8.328
 2551.8148    18.061    2.6014    0.0960    45.593   200.000     9.016
 2551.9672    11.401    2.6551    0.0895   154.436   200.000     9.475
 2552.1196    17.201    2.6431    0.0831   222.736   200.000     8.061
 2552.2720    19.464    2.6705    0.0907   146.016   200.000     8.615
 2552.4244    17.641    2.6443    0.0649   128.528   200.000     8.948
 2552.5768    21.232    2.5923    0.0926    94.397   200.000     8.813
 2552.7292    29.129    2.5486    0.0825    41.386   200.000     8.434
 2552.8816    17.990    2.7153    0.0805   158.208   200.000     7.691
 2553.0340    16.314    2.6186    0.0749    45.919   200.000     8.402
 2553.1864    20.763    2.6557    0.0778   140.827   200.000     8.616
 2553.3388    20.768    2.6736    0.0864   227.823   200.000     8.342
 2553.4912    19.205    2.6341    0.0734   129.151   200.000     8.521
 2553.6436    21.970    2.6632    0.0961   157.676   200.000     8.118
 2553.7960    21.158    2.5742    0.0611   122.610   200.000     9.309
 2553.9484    11.991    2.6473    0.0894   242.663   200.000     8.702
 2554.1008    13.274    2.6318    0.0791   119.406   200.000     8.991
 2554.2532    22.278    2.6583    0.0644   465.942   200.000     9.135
