~VERSION INFORMATION
 VERS.                 2.0    : CWLS LOG ASCII STANDARD
 WRAP.                 NO     : ONE LINE PER DEPTH STEP
~WELL INFORMATION
 WELL.                 34/10-23    : Well name
 FLD .                 Oseberg         : Field
 CTRY.                 Norway       : Country
 STRT.M                1900.0000 : START DEPTH
 STOP.M                3100.0000   : STOP DEPTH
 STEP.M                0.1524        : STEP
 NULL.                 -999.25          : NULL VALUE
 SRVC.                 SubsurfAI        : Service company
~CURVE INFORMATION
 DEPT.M                              : Depth
 GR  .GAPI                           : Gamma Ray
 RHOB.G/C3                           : Bulk Density
 NPHI.V/V                            : Neutron Porosity
 RT  .OHMM                           : True Resistivity
 DT  .US/F                           : Sonic
 CALI.IN                             : Caliper
~PARAMETER INFORMATION
 LAT .                 60.5041   : Latitude
 LON .                 2.7833   : Longitude
 DESC.                 Oseberg Fm — Brent/Statfjord sandstone reservoir
~A  DEPT        GR        RHOB      NPHI      RT        DT        CALI
# ...
 2451.0784     7.864    2.6176    0.0724    61.603   200.000     8.741
 2451.2308    13.710    2.6578    0.0878    54.688   200.000     8.358
 2451.3832    14.586    2.6261    0.0840    62.873   200.000     8.823
 2451.5356    20.097    2.6415    0.1070   159.822   200.000     8.043
 2451.6880    20.263    2.6255    0.0915   281.228   200.000     8.575
 2451.8404    19.076    2.7164    0.0746    41.201   200.000     8.636
 2451.9928    17.651    2.6918    0.0750   145.753   200.000     8.682
 2452.1452    21.120    2.6345    0.0873   129.845   200.000     8.480
 2452.2976    17.870    2.6754    0.0802   212.436   200.000     8.357
 2452.4500    18.160    2.7039    0.0569   161.073   200.000     8.001
 2452.6024    23.479    2.6195    0.0995    89.850   200.000     7.814
 2452.7548    23.663    2.6115    0.0753    58.071   200.000     8.431
 2452.9072    17.993    2.6854    0.0722    69.024   200.000     8.654
 2453.0596    25.854    2.6630    0.0719    78.441   200.000     8.489
 2453.2120    18.139    2.7064    0.0815    98.826   200.000     8.760
 2453.3644    17.461    2.6688    0.0873    44.063   200.000     8.725
 2453.5168    18.750    2.6518    0.0731   242.624   200.000     8.584
 2453.6692    23.280    2.6053    0.0732   163.543   200.000     7.653
 2453.8216    17.994    2.6565    0.0798    47.366   200.000     8.964
 2453.9740    14.200    2.6257    0.0698    77.178   200.000     8.927
 2454.1264    16.269    2.6773    0.0951   148.156   200.000     8.325
 2454.2788    15.726    2.6247    0.0851    81.928   200.000     7.840
 2454.4312    19.848    2.5982    0.0716    96.016   200.000     8.179
 2454.5836    10.047    2.6636    0.0612   114.183   200.000     8.234
 2454.7360    19.868    2.6895    0.0850   169.607   200.000     8.523
 2454.8884    17.657    2.7326    0.0917    89.653   200.000     8.259
 2455.0408    22.948    2.6524    0.0772    69.080   200.000     9.054
 2455.1932    24.546    2.5933    0.0701    82.924   200.000     7.279
 2455.3456    22.200    2.6394    0.0679   188.362   200.000     8.166
 2455.4980    21.316    2.6789    0.0739   101.696   200.000     8.384
 2455.6504    11.434    2.7191    0.0737    96.956   200.000     8.305
 2455.8028    18.500    2.6304    0.0813   287.037   200.000     9.136
 2455.9552    13.230    2.6254    0.1041   272.328   200.000     8.634
 2456.1076    16.680    2.5818    0.0802    68.968   200.000     8.964
 2456.2600    15.234    2.6825    0.0786   142.518   200.000     8.977
 2456.4124    18.884    2.7006    0.0982   128.437   200.000     8.370
 2456.5648    16.955    2.6624    0.0822   119.157   200.000     7.975
 2456.7172    16.011    2.7025    0.0709   177.605   200.000     8.982
 2456.8696    15.159    2.7070    0.0695    84.993   200.000     8.174
 2457.0220    13.861    2.7323    0.1112   251.460   200.000     8.647
 2457.1744    14.548    2.6418    0.0634   109.389   200.000     9.132
 2457.3268     8.778    2.6020    0.0678   122.736   200.000     7.498
 2457.4792    15.812    2.5848    0.0780    99.137   200.000     8.046
 2457.6316    18.446    2.5906    0.0755   108.233   200.000     8.911
 2457.7840    24.292    2.6587    0.0819   125.808   200.000     8.646
 2457.9364    17.375    2.7257    0.0963    57.925   200.000     7.933
 2458.0888    17.573    2.6704    0.1015   244.346   200.000     8.325
 2458.2412    22.243    2.6101    0.0717   186.902   200.000     8.806
 2458.3936    12.960    2.6129    0.0727   128.186   200.000     8.190
 2458.5460    19.061    2.6626    0.0777    85.405   200.000     7.528
 2458.6984    22.036    2.6422    0.0822   106.323   200.000     9.271
 2458.8508    15.104    2.6377    0.0811   208.686   200.000     8.659
 2459.0032    15.056    2.6991    0.0807    51.571   200.000     8.194
 2459.1556    10.729    2.5894    0.0896    90.131   200.000     9.184
 2459.3080    12.182    2.6481    0.0710   111.253   200.000     7.614
 2459.4604    23.023    2.6238    0.0727   127.185   200.000     8.468
 2459.6128    16.348    2.6707    0.0785   253.907   200.000     8.043
 2459.7652    16.819    2.6804    0.0795   226.806   200.000     8.586
 2459.9176    22.086    2.6956    0.1011   175.409   200.000     8.623
 2460.0700    14.913    2.6696    0.0686   159.785   200.000     8.630
 2460.2224    18.233    2.6701    0.1037   203.125   200.000     8.408
 2460.3748    14.679    2.7198    0.0696    28.553   200.000     8.713
 2460.5272    21.599    2.6040    0.0970    37.477   200.000     8.389
 2460.6796    20.216    2.7149    0.0884    44.547   200.000     8.941
 2460.8320    13.890    2.6533    0.0870   148.261   200.000     7.972
 2460.9844    13.603    2.5565    0.0877    99.635   200.000     8.715
 2461.1368    13.076    2.7402    0.0977   144.130   200.000     8.437
 2461.2892    15.592    2.7076    0.0771    93.636   200.000     8.439
 2461.4416    16.340    2.6758    0.0874    99.706   200.000     8.220
 2461.5940    22.211    2.6294    0.0687   256.553   200.000     8.596
 2461.7464    15.055    2.6195    0.0600   211.812   200.000     8.253
 2461.8988    21.237    2.6270    0.0767   100.392   200.000     7.938
 2462.0512    23.622    2.6821    0.0925   167.369   200.000     8.456
 2462.2036    17.350    2.5990    0.0758    67.908   200.000     8.259
 2462.3560    13.419    2.6777    0.0827   229.228   200.000     8.986
 2462.5084    16.872    2.7182    0.0937   182.659   200.000     8.457
 2462.6608    15.989    2.6509    0.0761   122.221   200.000     8.930
 2462.8132    19.048    2.6831    0.0856   132.625   200.000     7.612
 2462.9656    25.915    2.6419    0.0758    99.569   200.000     8.211
 2463.1180    14.679    2.7142    0.0616   151.180   200.000     8.789
 2463.2704    15.926    2.5667    0.0760   336.331   200.000     8.915
 2463.4228    19.165    2.6260    0.1077   109.219   200.000     8.755
 2463.5752    22.461    2.6208    0.0733    57.881   200.000     8.803
 2463.7276    12.110    2.6434    0.0724    49.774   200.000     8.321
 2463.8800    17.788    2.6708    0.0841   156.060   200.000     7.765
 2464.0324    21.503    2.6873    0.0886   430.641   200.000     9.394
 2464.1848    25.643    2.7409    0.0850   122.716   200.000     8.613
 2464.3372    12.796    2.7424    0.0942   135.641   200.000     8.143
 2464.4896    24.827    2.6536    0.1022    75.844   200.000     9.197
 2464.6420    18.504    2.7570    0.1071   120.549   200.000     9.419
 2464.7944    25.556    2.6089    0.0978    63.506   200.000     9.016
 2464.9468    19.869    2.6664    0.0632    93.993   200.000     8.332
 2465.0992    23.035    2.6640    0.0748    49.510   200.000     7.819
 2465.2516    10.451    2.6383    0.0782   170.998   200.000     8.043
 2465.4040    15.379    2.5914    0.0883   110.463   200.000     9.107
 2465.5564    17.098    2.5626    0.0879   199.439   200.000     8.255
 2465.7088    18.409    2.6744    0.0878    67.011   200.000     8.361
 2465.8612    16.998    2.7055    0.0649   201.444   200.000     8.333
 2466.0136    22.413    2.5647    0.0936    99.850   200.000     8.985
 2466.1660    16.926    2.5886    0.0686   116.489   200.000     9.215
 2466.3184    16.667    2.6071    0.0683   236.141   200.000     8.740
 2466.4708    17.865    2.5590    0.0600   105.934   200.000     8.711
 2466.6232    18.013    2.5927    0.1082    37.008   200.000     8.789
 2466.7756    20.190    2.6171    0.0791   186.331   200.000     8.603
 2466.9280    25.239    2.6975    0.0798    56.693   200.000     8.407
 2467.0804    10.411    2.6830    0.0893   119.921   200.000     8.216
 2467.2328    16.575    2.6362    0.0752    89.980   200.000     8.734
 2467.3852    21.685    2.6932    0.0729    60.888   200.000     8.467
 2467.5376    20.832    2.6695    0.0676   105.790   200.000     8.966
 2467.6900    17.582    2.5757    0.0908   107.114   200.000     8.545
 2467.8424    13.073    2.6136    0.0713    30.965   200.000     8.571
 2467.9948    23.711    2.6294    0.0777   196.603   200.000     8.372
 2468.1472    19.938    2.7124    0.0722   139.978   200.000     9.207
