~VERSION INFORMATION
 VERS.                 2.0    : CWLS LOG ASCII STANDARD
 WRAP.                 NO     : ONE LINE PER DEPTH STEP
~WELL INFORMATION
 WELL.                 34/10-23    : Well name
 FLD .                 Oseberg         : Field
 CTRY.                 Norway       : Country
 STRT.M                1900.0000 : START DEPTH
 STOP.M                3100.0000   : STOP DEPTH
 STEP.M                0.1524        : STEP
 NULL.                 -999.25          : NULL VALUE
 SRVC.                 SubsurfAI        : Service company
~CURVE INFORMATION
 DEPT.M                              : Depth
 GR  .GAPI                           : Gamma Ray
 RHOB.G/C3                           : Bulk Density
 NPHI.V/V                            : Neutron Porosity
 RT  .OHMM                           : True Resistivity
 DT  .US/F                           : Sonic
 CALI.IN                             : Caliper
~PARAMETER INFORMATION
 LAT .                 60.5041   : Latitude
 LON .                 2.7833   : Longitude
 DESC.                 Oseberg Fm — Brent/Statfjord sandstone reservoir
~A  DEPT        GR        RHOB      NPHI      RT        DT        CALI
# ...
 2296.0876    29.267    2.2495    0.1777   100.184   200.000     8.206
 2296.2400    34.769    2.3617    0.2268    23.055   200.000     8.276
 2296.3924    19.943    2.2991    0.2141    69.351   200.000     8.937
 2296.5448    32.183    2.2630    0.1797    99.128   200.000     8.179
 2296.6972    23.401    2.2378    0.1726    26.000   200.000     8.735
 2296.8496    40.251    2.3288    0.1266    21.276   200.000     8.585
 2297.0020    25.959    2.3037    0.1186    43.649   200.000     9.114
 2297.1544    25.371    2.1938    0.1516   158.554   200.000     8.463
 2297.3068    30.776    2.2244    0.1302    48.047   200.000     8.687
 2297.4592    34.033    2.2185    0.1599    59.713   200.000     8.210
 2297.6116    34.946    2.2383    0.1901    75.178   200.000     8.084
 2297.7640    23.340    2.2374    0.1727    31.398   200.000     9.072
 2297.9164    27.989    2.2286    0.1714    59.092   200.000     8.629
 2298.0688    33.886    2.3041    0.1889    75.724   200.000     9.191
 2298.2212    33.556    2.2477    0.1837    48.423   200.000     8.680
 2298.3736    23.559    2.3091    0.1892    60.386   200.000     8.156
 2298.5260    27.316    2.2759    0.1183    83.466   200.000     8.667
 2298.6784    31.398    2.2504    0.1895    78.429   200.000     8.136
 2298.8308    33.702    2.2648    0.1697   162.979   200.000     8.843
 2298.9832    22.536    2.2429    0.2077    59.406   200.000     7.954
 2299.1356    33.518    2.2511    0.1355   118.057   200.000     9.002
 2299.2880    31.756    2.2860    0.1527    72.841   200.000     8.374
 2299.4404    34.570    2.2072    0.1733    85.809   200.000     8.439
 2299.5928    33.997    2.2699    0.1805    95.647   200.000     8.567
 2299.7452    20.479    2.2708    0.1688   129.482   200.000     8.392
 2299.8976    33.523    2.3008    0.1796    23.111   200.000     8.608
 2300.0500    36.808    2.3017    0.1768   104.951   200.000     8.879
 2300.2024    28.768    2.2058    0.1826   148.885   200.000     8.757
 2300.3548    25.633    2.2796    0.1256   124.754   200.000     8.229
 2300.5072    32.850    2.2483    0.1575    79.329   200.000     7.896
 2300.6596    32.114    2.2436    0.1579    69.398   200.000     9.378
 2300.8120    37.532    2.2971    0.2039    74.068   200.000     8.121
 2300.9644    37.517    2.2756    0.1988   101.891   200.000     8.913
 2301.1168    23.763    2.2462    0.1948    64.006   200.000     8.204
 2301.2692    28.088    2.2091    0.1587   102.502   200.000     7.930
 2301.4216    33.543    2.3189    0.1518    17.280   200.000     7.885
 2301.5740    32.418    2.2373    0.1610    60.396   200.000     8.043
 2301.7264    24.406    2.2273    0.1752    39.920   200.000     8.614
 2301.8788    26.754    2.2819    0.1321    34.950   200.000     8.495
 2302.0312    36.665    2.3158    0.1555    69.557   200.000     8.294
 2302.1836    28.954    2.2371    0.2111    43.085   200.000     8.715
 2302.3360    35.893    2.2195    0.1940    29.621   200.000     9.099
 2302.4884    26.127    2.2520    0.1820    61.889   200.000     8.295
 2302.6408    33.640    2.2586    0.1690    48.074   200.000     8.274
 2302.7932    22.559    2.2776    0.1765    54.761   200.000     8.889
 2302.9456    31.663    2.2130    0.1971    75.676   200.000     8.526
 2303.0980    39.490    2.2133    0.1857    85.811   200.000     8.380
 2303.2504    34.958    2.2618    0.1861    28.316   200.000     8.699
 2303.4028    26.429    2.2091    0.1880    41.292   200.000     8.831
 2303.5552    21.091    2.2517    0.1732    44.066   200.000     8.801
 2303.7076    28.839    2.2023    0.1642    87.216   200.000     8.946
 2303.8600    29.103    2.2273    0.1619    59.699   200.000     8.278
 2304.0124    32.945    2.2703    0.1661    67.241   200.000     8.403
 2304.1648    24.589    2.2635    0.1406   111.668   200.000     8.611
 2304.3172    29.289    2.3560    0.1214    33.074   200.000     8.425
 2304.4696    28.927    2.2056    0.1537    73.695   200.000     7.721
 2304.6220    24.624    2.1768    0.1616    50.864   200.000     8.485
 2304.7744    33.171    2.2977    0.2015    60.935   200.000     8.170
 2304.9268    23.350    2.2701    0.1568    53.200   200.000     8.661
 2305.0792    30.851    2.2824    0.1690    60.737   200.000     8.808
 2305.2316    32.978    2.2696    0.1699    73.059   200.000     8.598
 2305.3840    25.628    2.2122    0.2124    68.300   200.000     8.949
 2305.5364    37.178    2.2575    0.1571   182.112   200.000     8.452
 2305.6888    41.192    2.2600    0.1784    40.370   200.000     8.812
 2305.8412    28.855    2.2118    0.1839    36.477   200.000     8.677
 2305.9936    26.538    2.2773    0.1784    30.866   200.000     8.488
 2306.1460    27.082    2.2069    0.1502    75.639   200.000     9.002
 2306.2984    21.149    2.2442    0.1848   185.876   200.000     7.521
 2306.4508    26.625    2.2547    0.1387   104.731   200.000     7.807
 2306.6032    32.021    2.2097    0.1689    53.247   200.000     7.930
 2306.7556    34.434    2.2270    0.2000    58.767   200.000     8.502
 2306.9080    30.582    2.2912    0.1235    34.418   200.000     9.250
 2307.0604    23.900    2.2913    0.1102    44.825   200.000     8.842
 2307.2128    19.108    2.2809    0.1484    97.801   200.000     8.733
 2307.3652    22.740    2.2393    0.1983    98.223   200.000     9.008
 2307.5176    20.584    2.2705    0.1635   113.562   200.000     8.888
 2307.6700    39.565    2.2832    0.1888    35.437   200.000     8.901
 2307.8224    31.474    2.2357    0.1665    72.072   200.000     8.725
 2307.9748    28.071    2.3247    0.1994    89.564   200.000     8.267
 2308.1272    36.709    2.1761    0.2006    15.496   200.000     8.981
 2308.2796    37.987    2.3383    0.1935   132.017   200.000     8.826
 2308.4320    28.824    2.2059    0.1925    45.894   200.000     8.595
 2308.5844    31.250    2.2251    0.2086    30.576   200.000     8.090
 2308.7368    24.250    2.3110    0.1435   223.587   200.000     8.507
 2308.8892    40.933    2.3096    0.1460    37.620   200.000     7.787
 2309.0416    27.991    2.3258    0.0957    63.765   200.000     8.968
 2309.1940    31.472    2.2145    0.1712    63.130   200.000     8.304
 2309.3464    32.411    2.2842    0.2443    25.182   200.000     8.287
 2309.4988    38.731    2.2176    0.1735    40.283   200.000     9.260
 2309.6512    27.337    2.2905    0.1630    44.854   200.000     8.445
 2309.8036    31.394    2.2748    0.1798    80.904   200.000     8.902
 2309.9560    31.571    2.2194    0.1720    28.772   200.000     9.337
 2310.1084    30.815    2.2711    0.1768    68.401   200.000     8.172
 2310.2608    37.831    2.2189    0.2144    37.583   200.000     8.396
 2310.4132    24.452    2.2683    0.1434    67.402   200.000     8.782
 2310.5656    36.111    2.2373    0.1743    51.552   200.000     8.678
 2310.7180    27.594    2.2829    0.1074    74.180   200.000     8.688
 2310.8704    34.239    2.2461    0.1561    27.544   200.000     9.246
 2311.0228    33.190    2.3071    0.1905   250.923   200.000     8.725
 2311.1752    36.271    2.3774    0.1929   113.333   200.000     8.663
 2311.3276    32.038    2.2064    0.1904    47.482   200.000     8.147
 2311.4800    29.200    2.2161    0.2217    88.032   200.000     8.324
 2311.6324    26.223    2.2839    0.1459    36.382   200.000     7.720
 2311.7848    32.171    2.2352    0.1924    93.876   200.000     9.393
 2311.9372    25.505    2.2863    0.1876    30.302   200.000     8.312
 2312.0896    35.759    2.2026    0.1794    24.163   200.000     8.413
 2312.2420    25.380    2.1838    0.1637    27.859   200.000     8.233
 2312.3944    32.184    2.2193    0.1748   110.186   200.000     8.394
 2312.5468    24.717    2.2592    0.1633    57.088   200.000     8.349
 2312.6992    31.939    2.1910    0.1260     9.793   200.000     8.745
 2312.8516    22.790    2.2799    0.1919    94.523   200.000     8.596
 2313.0040    24.531    2.2381    0.1630    96.971   200.000     8.158
 2313.1564    31.694    2.2307    0.1634   100.804   200.000     9.308
