~VERSION INFORMATION
 VERS.                 2.0    : CWLS LOG ASCII STANDARD
 WRAP.                 NO     : ONE LINE PER DEPTH STEP
~WELL INFORMATION
 WELL.                 34/10-23    : Well name
 FLD .                 Oseberg         : Field
 CTRY.                 Norway       : Country
 STRT.M                1900.0000 : START DEPTH
 STOP.M                3100.0000   : STOP DEPTH
 STEP.M                0.1524        : STEP
 NULL.                 -999.25          : NULL VALUE
 SRVC.                 SubsurfAI        : Service company
~CURVE INFORMATION
 DEPT.M                              : Depth
 GR  .GAPI                           : Gamma Ray
 RHOB.G/C3                           : Bulk Density
 NPHI.V/V                            : Neutron Porosity
 RT  .OHMM                           : True Resistivity
 DT  .US/F                           : Sonic
 CALI.IN                             : Caliper
~PARAMETER INFORMATION
 LAT .                 60.5041   : Latitude
 LON .                 2.7833   : Longitude
 DESC.                 Oseberg Fm — Brent/Statfjord sandstone reservoir
~A  DEPT        GR        RHOB      NPHI      RT        DT        CALI
# ...
 2141.0968    26.815    2.2403    0.1651    70.796   200.000     8.793
 2141.2492    24.924    2.2583    0.2010    43.767   200.000     7.834
 2141.4016    26.363    2.2543    0.1901   109.583   200.000     8.644
 2141.5540    31.930    2.2295    0.1510    52.000   200.000     8.294
 2141.7064    33.391    2.2183    0.1843    51.156   200.000     8.598
 2141.8588    37.252    2.1980    0.1702    17.248   200.000     8.443
 2142.0112    25.920    2.2334    0.1750   164.474   200.000     8.597
 2142.1636    18.764    2.2761    0.1241   100.823   200.000     8.260
 2142.3160    31.486    2.2630    0.1974    65.714   200.000     8.312
 2142.4684    42.454    2.2520    0.1857   196.556   200.000     8.169
 2142.6208    31.926    2.3260    0.1718    82.479   200.000     8.126
 2142.7732    33.702    2.2883    0.1647   114.165   200.000     8.557
 2142.9256    27.374    2.2748    0.2164    95.570   200.000     7.759
 2143.0780    25.858    2.1896    0.2055    66.912   200.000     9.178
 2143.2304    34.350    2.2530    0.1560    74.302   200.000     8.176
 2143.3828    25.623    2.1629    0.1718   172.078   200.000     8.049
 2143.5352    30.006    2.3327    0.1672    83.632   200.000     8.588
 2143.6876    35.738    2.1995    0.2032    94.213   200.000     8.960
 2143.8400    31.773    2.2385    0.2142   117.068   200.000     9.020
 2143.9924    30.722    2.3190    0.1897    81.133   200.000     8.501
 2144.1448    37.412    2.2892    0.1546    67.764   200.000     8.846
 2144.2972    31.702    2.2321    0.1532   181.659   200.000     7.823
 2144.4496    33.431    2.2376    0.1890    27.824   200.000     8.421
 2144.6020    31.981    2.2622    0.1497   147.386   200.000     8.610
 2144.7544    33.658    2.2850    0.1649    29.230   200.000     8.708
 2144.9068    28.910    2.3053    0.1533    81.091   200.000     8.826
 2145.0592    28.766    2.3134    0.1813   122.615   200.000     8.264
 2145.2116    33.097    2.2389    0.1976    67.789   200.000     8.458
 2145.3640    24.422    2.2903    0.1821    76.603   200.000     8.904
 2145.5164    21.558    2.2653    0.1944    77.288   200.000     8.917
 2145.6688    26.045    2.2169    0.1747    70.495   200.000     8.236
 2145.8212    34.403    2.1771    0.1500    63.654   200.000     8.648
 2145.9736    34.471    2.2660    0.1795    98.186   200.000     7.933
 2146.1260    38.340    2.3037    0.1810    52.306   200.000     8.872
 2146.2784    27.085    2.1806    0.1768    20.608   200.000     8.385
 2146.4308    27.144    2.2324    0.1215    44.315   200.000     8.718
 2146.5832    36.129    2.2767    0.1598    40.816   200.000     8.395
 2146.7356    23.770    2.2910    0.1620    69.614   200.000     8.203
 2146.8880    29.334    2.2337    0.1568    90.088   200.000     8.133
 2147.0404    27.836    2.2510    0.1466    35.636   200.000     8.627
 2147.1928    25.974    2.1885    0.1700    72.347   200.000     8.941
 2147.3452    29.648    2.3178    0.1536    49.393   200.000     7.979
 2147.4976    34.817    2.2941    0.2119    60.095   200.000     9.350
 2147.6500    39.280    2.3109    0.1944    37.582   200.000     8.451
 2147.8024    19.125    2.2782    0.2112    17.483   200.000     8.197
 2147.9548    32.160    2.2821    0.1868    39.147   200.000     8.065
 2148.1072    24.628    2.2704    0.2301    52.816   200.000     8.086
 2148.2596    33.150    2.3722    0.1790    48.784   200.000     8.351
 2148.4120    32.168    2.2540    0.1891    56.480   200.000     8.963
 2148.5644    31.445    2.2149    0.1954    67.795   200.000     8.831
 2148.7168    26.229    2.2377    0.1615   108.521   200.000     8.697
 2148.8692    31.731    2.3383    0.1374    60.022   200.000     8.129
 2149.0216    28.742    2.1884    0.1577    52.610   200.000     8.839
 2149.1740    31.989    2.2412    0.1482    60.433   200.000     9.147
 2149.3264    29.825    2.3022    0.1671    77.287   200.000     9.067
 2149.4788    35.257    2.2355    0.1670    59.460   200.000     8.563
 2149.6312    31.072    2.2791    0.1687    80.539   200.000     8.531
 2149.7836    29.880    2.3007    0.1940    57.541   200.000     8.639
 2149.9360    34.575    2.3182    0.1641    34.565   200.000     8.222
 2150.0884    28.105    2.2605    0.1970    35.103   200.000     8.939
 2150.2408    23.683    2.2550    0.1891    30.094   200.000     9.308
 2150.3932    31.903    2.2834    0.1570    63.352   200.000     9.200
 2150.5456    34.097    2.2864    0.1383    68.965   200.000     8.886
 2150.6980    28.497    2.2545    0.2198    47.976   200.000     8.013
 2150.8504    30.673    2.2605    0.2153    84.391   200.000     8.621
 2151.0028    25.576    2.3137    0.1781    82.073   200.000     8.194
 2151.1552    30.945    2.1518    0.1557    34.092   200.000     9.141
 2151.3076    31.810    2.3041    0.1768   118.131   200.000     9.289
 2151.4600    39.310    2.2743    0.1729    94.459   200.000     8.557
 2151.6124    27.560    2.2184    0.1662    61.843   200.000     8.452
 2151.7648    28.386    2.2889    0.1480    78.564   200.000     8.376
 2151.9172    34.406    2.2022    0.1845   118.683   200.000     8.322
 2152.0696    23.353    2.2469    0.1511    45.134   200.000     7.828
 2152.2220    35.015    2.2021    0.2019    22.343   200.000     8.690
 2152.3744    31.219    2.2990    0.1622    23.188   200.000     8.640
 2152.5268    25.202    2.2914    0.2156   155.299   200.000     7.661
 2152.6792    29.332    2.2732    0.1743    44.317   200.000     8.804
 2152.8316    29.240    2.2903    0.2037    58.198   200.000     8.067
 2152.9840    28.806    2.2979    0.2181    72.772   200.000     8.307
 2153.1364    25.063    2.2821    0.2063    13.365   200.000     8.871
 2153.2888    28.267    2.2338    0.1614    89.395   200.000     8.733
 2153.4412    35.611    2.2378    0.1367    28.402   200.000     8.998
 2153.5936    36.237    2.2575    0.1372    61.339   200.000     8.264
 2153.7460    33.782    2.3137    0.1216    29.959   200.000     8.972
 2153.8984    32.589    2.2412    0.1548    47.883   200.000     8.355
 2154.0508    31.227    2.2769    0.1495    58.296   200.000     8.357
 2154.2032    24.890    2.2513    0.1577    19.456   200.000     8.136
 2154.3556    24.033    2.2197    0.1693   146.015   200.000     8.878
 2154.5080    32.419    2.2114    0.1909    45.601   200.000     7.881
 2154.6604    25.720    2.3057    0.1105    64.883   200.000     8.482
 2154.8128    26.639    2.2209    0.1813    30.293   200.000     8.247
 2154.9652    26.369    2.1966    0.1622   140.332   200.000     8.235
 2155.1176    40.034    2.2467    0.2174    46.822   200.000     9.003
 2155.2700    24.542    2.2727    0.1869    27.592   200.000     8.376
 2155.4224    29.169    2.2446    0.1510    31.359   200.000     8.123
 2155.5748    34.411    2.3057    0.2022    60.926   200.000     8.558
 2155.7272    30.410    2.2648    0.1015   149.614   200.000     8.651
 2155.8796    30.904    2.2382    0.1397    90.756   200.000     8.067
 2156.0320    31.586    2.3373    0.1683   136.297   200.000     8.581
 2156.1844    33.358    2.2704    0.1834    51.768   200.000     8.108
 2156.3368    29.006    2.2572    0.1383    93.354   200.000     8.279
 2156.4892    27.705    2.2877    0.1571    62.643   200.000     7.841
 2156.6416    27.600    2.2279    0.1780    64.857   200.000     7.562
 2156.7940    29.428    2.2604    0.1162    81.808   200.000     9.016
 2156.9464    30.105    2.1693    0.1786   115.894   200.000     8.417
 2157.0988    22.310    2.3020    0.1520    91.696   200.000     9.133
 2157.2512    30.858    2.2566    0.1691    85.381   200.000     8.701
 2157.4036    26.031    2.3225    0.2014    87.677   200.000     7.811
 2157.5560    37.260    2.2244    0.2018    32.095   200.000     7.698
 2157.7084    26.092    2.3597    0.1542    53.701   200.000     8.812
 2157.8608    28.274    2.2311    0.2087    89.365   200.000     8.097
 2158.0132    37.056    2.2544    0.1699    74.034   200.000     8.613
 2158.1656    27.463    2.2036    0.1191   116.077   200.000     8.594
