~VERSION INFORMATION
 VERS.                 2.0    : CWLS LOG ASCII STANDARD
 WRAP.                 NO     : ONE LINE PER DEPTH STEP
~WELL INFORMATION
 WELL.                 34/10-23    : Well name
 FLD .                 Oseberg         : Field
 CTRY.                 Norway       : Country
 STRT.M                1900.0000 : START DEPTH
 STOP.M                3100.0000   : STOP DEPTH
 STEP.M                0.1524        : STEP
 NULL.                 -999.25          : NULL VALUE
 SRVC.                 SubsurfAI        : Service company
~CURVE INFORMATION
 DEPT.M                              : Depth
 GR  .GAPI                           : Gamma Ray
 RHOB.G/C3                           : Bulk Density
 NPHI.V/V                            : Neutron Porosity
 RT  .OHMM                           : True Resistivity
 DT  .US/F                           : Sonic
 CALI.IN                             : Caliper
~PARAMETER INFORMATION
 LAT .                 60.5041   : Latitude
 LON .                 2.7833   : Longitude
 DESC.                 Oseberg Fm — Brent/Statfjord sandstone reservoir
~A  DEPT        GR        RHOB      NPHI      RT        DT        CALI
# ...
 2847.1660    30.820    2.3293    0.1867    27.939   200.000     8.811
 2847.3184    45.827    2.3027    0.2233    43.910   200.000     8.429
 2847.4708    35.877    2.3806    0.1821    38.094   200.000     9.522
 2847.6232    30.848    2.1918    0.2025    36.997   200.000     8.344
 2847.7756    41.873    2.3663    0.2221    85.251   200.000     8.695
 2847.9280    42.607    2.2511    0.2514    33.162   200.000     8.857
 2848.0804    43.208    2.2635    0.2353    31.421   200.000     8.164
 2848.2328    36.156    2.3072    0.1866    60.835   200.000     8.892
 2848.3852    32.629    2.2550    0.1693    24.781   200.000     8.901
 2848.5376    43.061    2.3417    0.2173    15.492   200.000     8.598
 2848.6900    37.755    2.2626    0.1965   182.305   200.000     8.880
 2848.8424    41.080    2.2617    0.1931    53.186   200.000     8.457
 2848.9948    37.043    2.3589    0.2161    21.849   200.000     8.287
 2849.1472    38.531    2.3399    0.2152    42.972   200.000     8.153
 2849.2996    38.327    2.3390    0.1757    89.759   200.000     8.207
 2849.4520    38.059    2.3398    0.2331    18.603   200.000     8.937
 2849.6044    38.588    2.3021    0.2268    66.935   200.000     8.711
 2849.7568    44.658    2.2755    0.1604    66.875   200.000     8.033
 2849.9092    34.631    2.2343    0.2332    69.049   200.000     8.225
 2850.0616    31.723    2.2698    0.1945    28.762   200.000     8.704
 2850.2140    35.366    2.3317    0.2005    28.402   200.000     8.616
 2850.3664    36.341    2.3372    0.1804    35.776   200.000     8.479
 2850.5188    35.520    2.2614    0.2120    36.445   200.000     8.980
 2850.6712    41.296    2.3732    0.1822    31.825   200.000     8.637
 2850.8236    32.628    2.2731    0.1727    44.053   200.000     8.224
 2850.9760    34.550    2.2712    0.2156    30.464   200.000     8.286
 2851.1284    38.300    2.2693    0.1549    30.495   200.000     8.001
 2851.2808    29.058    2.3215    0.1791    36.840   200.000     8.312
 2851.4332    27.517    2.3277    0.1446    44.910   200.000     8.752
 2851.5856    26.297    2.2785    0.1477   108.236   200.000     8.560
 2851.7380    30.736    2.2697    0.2190    57.454   200.000     8.770
 2851.8904    35.808    2.3143    0.1913    32.762   200.000     8.322
 2852.0428    43.615    2.2826    0.1897    81.614   200.000     7.682
 2852.1952    36.813    2.2251    0.1813    26.679   200.000     8.377
 2852.3476    30.758    2.2485    0.2057    40.034   200.000     8.501
 2852.5000    32.200    2.3424    0.1631    28.213   200.000     8.480
 2852.6524    37.745    2.2450    0.2041    30.852   200.000     9.212
 2852.8048    22.356    2.3568    0.2070    41.252   200.000     8.475
 2852.9572    32.329    2.2583    0.2078    43.922   200.000     7.953
 2853.1096    35.746    2.2965    0.2112   106.151   200.000     8.255
 2853.2620    38.819    2.3222    0.1851    86.232   200.000     8.642
 2853.4144    25.956    2.3021    0.1869    34.395   200.000     8.180
 2853.5668    37.744    2.3679    0.1766    61.951   200.000     8.619
 2853.7192    37.680    2.2272    0.1971    32.657   200.000     8.752
 2853.8716    43.963    2.2725    0.2432    61.574   200.000     8.090
 2854.0240    27.064    2.3471    0.1901    28.987   200.000     8.564
 2854.1764    38.157    2.3420    0.1656    56.500   200.000     8.437
 2854.3288    28.833    2.3589    0.2233    56.464   200.000     8.261
 2854.4812    31.445    2.3555    0.1732   129.775   200.000     8.251
 2854.6336    40.039    2.3999    0.1496    30.057   200.000     8.337
 2854.7860    40.223    2.3150    0.1890    46.282   200.000     8.491
 2854.9384    40.357    2.3053    0.1938    58.792   200.000     8.500
 2855.0908    28.188    2.3036    0.1404    61.485   200.000     8.151
 2855.2432    28.195    2.2733    0.1583    43.544   200.000     7.432
 2855.3956    43.326    2.3357    0.1588    41.036   200.000     9.074
 2855.5480    33.607    2.3130    0.2433    55.395   200.000     8.062
 2855.7004    32.015    2.3588    0.2105    21.788   200.000     9.083
 2855.8528    34.413    2.2909    0.1760    41.697   200.000     8.161
 2856.0052    40.410    2.2237    0.1697    42.712   200.000     8.159
 2856.1576    33.536    2.3395    0.2224    41.559   200.000     8.300
 2856.3100    33.097    2.2162    0.1486    26.877   200.000     8.409
 2856.4624    44.256    2.2358    0.1606    65.863   200.000     8.809
 2856.6148    24.746    2.2295    0.1782    47.382   200.000     8.284
 2856.7672    35.996    2.2355    0.2590    15.057   200.000     9.129
 2856.9196    44.173    2.2287    0.1887    95.741   200.000     7.972
 2857.0720    34.517    2.2750    0.2061    27.746   200.000     9.012
 2857.2244    38.080    2.2840    0.2688    35.849   200.000     7.810
 2857.3768    30.313    2.2672    0.2439    34.658   200.000     7.826
 2857.5292    34.961    2.3229    0.1774    40.742   200.000     8.725
 2857.6816    44.358    2.2671    0.2054    43.308   200.000     8.404
 2857.8340    32.998    2.3183    0.1915    24.808   200.000     7.987
 2857.9864    35.933    2.3038    0.1629    31.811   200.000     7.939
 2858.1388    28.921    2.3269    0.1779    36.933   200.000     8.457
 2858.2912    32.944    2.3706    0.2189    40.177   200.000     8.560
 2858.4436    35.456    2.3528    0.1849    62.195   200.000     8.213
 2858.5960    34.729    2.3326    0.1902   112.087   200.000     7.016
 2858.7484    31.863    2.3171    0.1959    45.214   200.000     7.672
 2858.9008    33.186    2.2469    0.2186    53.903   200.000     7.902
 2859.0532    27.786    2.2550    0.1942    16.692   200.000     8.594
 2859.2056    28.010    2.2815    0.1794    60.707   200.000     8.928
 2859.3580    33.135    2.2960    0.2401    25.416   200.000     7.878
 2859.5104    30.764    2.2392    0.1988   116.312   200.000     9.349
 2859.6628    43.484    2.2704    0.1989    24.086   200.000     8.555
 2859.8152    41.320    2.2524    0.1689    61.704   200.000     8.678
 2859.9676    39.153    2.2884    0.2046    16.925   200.000     8.406
 2860.1200    99.007    2.4402    0.3623     0.919   150.022     8.268
 2860.2724   105.350    2.3814    0.3011     7.407   168.517     8.112
 2860.4248    71.196    2.3755    0.3540     2.340   160.425     8.567
 2860.5772    86.915    2.3625    0.3249     1.622   176.753     8.359
 2860.7296   103.277    2.4622    0.3049     5.089   178.571     8.516
 2860.8820   108.830    2.4326    0.2859     1.551   186.760     8.400
 2861.0344   122.467    2.4091    0.2635     1.376   200.000     8.429
 2861.1868    85.797    2.4868    0.3313     1.665   170.333     8.077
 2861.3392   102.342    2.4214    0.2629     4.732   200.000     9.902
 2861.4916   104.252    2.4031    0.3783     1.977   144.578     8.955
 2861.6440    75.941    2.5349    0.1994     3.822   200.000     8.747
 2861.7964    90.717    2.4664    0.2765     7.396   196.928     8.240
 2861.9488    88.482    2.5023    0.3323     5.800   162.340     9.144
 2862.1012   107.152    2.4087    0.2650     2.011   200.000     8.503
 2862.2536    99.781    2.4258    0.2659     1.636   200.000     7.843
 2862.4060    91.805    2.4692    0.2781     2.992   200.000     8.625
 2862.5584    89.444    2.3435    0.2974     4.500   185.088     8.258
 2862.7108    59.106    2.5069    0.3109     1.972   177.401     8.739
 2862.8632    97.887    2.4211    0.2497     2.885   200.000     8.531
 2863.0156    91.266    2.4727    0.3103     2.143   176.893     8.562
 2863.1680    84.646    2.4102    0.3747     2.296   145.888     8.848
 2863.3204    80.976    2.4040    0.3154     2.023   168.217     8.895
 2863.4728   103.267    2.4349    0.2332     2.646   200.000     8.524
 2863.6252   107.589    2.4076    0.2683     5.780   200.000     9.024
 2863.7776    84.708    2.4775    0.2404     3.331   200.000     8.842
 2863.9300    94.516    2.4070    0.2720     3.956   200.000     8.578
 2864.0824    91.130    2.5161    0.2858     4.647   200.000     8.583
 2864.2348   112.916    2.4226    0.3729     4.321   146.261     8.817
