~VERSION INFORMATION
 VERS.                 2.0    : CWLS LOG ASCII STANDARD
 WRAP.                 NO     : ONE LINE PER DEPTH STEP
~WELL INFORMATION
 WELL.                 34/10-23    : Well name
 FLD .                 Oseberg         : Field
 CTRY.                 Norway       : Country
 STRT.M                1900.0000 : START DEPTH
 STOP.M                3100.0000   : STOP DEPTH
 STEP.M                0.1524        : STEP
 NULL.                 -999.25          : NULL VALUE
 SRVC.                 SubsurfAI        : Service company
~CURVE INFORMATION
 DEPT.M                              : Depth
 GR  .GAPI                           : Gamma Ray
 RHOB.G/C3                           : Bulk Density
 NPHI.V/V                            : Neutron Porosity
 RT  .OHMM                           : True Resistivity
 DT  .US/F                           : Sonic
 CALI.IN                             : Caliper
~PARAMETER INFORMATION
 LAT .                 60.5041   : Latitude
 LON .                 2.7833   : Longitude
 DESC.                 Oseberg Fm — Brent/Statfjord sandstone reservoir
~A  DEPT        GR        RHOB      NPHI      RT        DT        CALI
# ...
 2933.2720    99.995    2.5384    0.2833     3.468   192.497     8.581
 2933.4244   112.350    2.5841    0.3619     1.591   156.663     8.197
 2933.5768    91.608    2.3517    0.3376     4.648   163.210     8.937
 2933.7292   106.017    2.4058    0.2631     1.670   200.000     8.072
 2933.8816   100.335    2.4150    0.3443     2.352   160.957     8.782
 2934.0340    80.264    2.4463    0.2181     4.349   200.000     8.539
 2934.1864    84.948    2.4060    0.2309     4.128   200.000     8.627
 2934.3388    97.622    2.4643    0.2627     4.061   200.000     8.617
 2934.4912   104.801    2.5049    0.3529     1.862   147.504     9.088
 2934.6436    90.160    2.5190    0.2160     5.794   200.000     8.619
 2934.7960   106.656    2.4607    0.2591     1.601   200.000     8.080
 2934.9484   102.271    2.4364    0.2847     3.110   195.209     8.448
 2935.1008   102.315    2.4795    0.2765     3.029   200.000     9.076
 2935.2532    80.192    2.4152    0.1804     4.765   200.000     8.820
 2935.4056   111.765    2.4689    0.3188     1.453   176.689     8.581
 2935.5580    86.582    2.4425    0.2327     2.789   200.000     8.730
 2935.7104    92.028    2.3648    0.2845     1.765   196.275     8.465
 2935.8628    98.114    2.4714    0.2589     1.808   200.000     8.231
 2936.0152    68.574    2.4689    0.3678     1.681   151.288     8.495
 2936.1676   108.843    2.4403    0.3265     2.658   164.163     8.242
 2936.3200    80.143    2.3873    0.2001     1.025   200.000     8.699
 2936.4724    97.079    2.4390    0.3401     1.997   160.620     8.885
 2936.6248    93.153    2.4188    0.3062     1.250   180.062     8.754
 2936.7772    90.253    2.4521    0.3357     1.993   169.495     8.755
 2936.9296   108.917    2.3891    0.2463     2.581   200.000     8.716
 2937.0820    76.739    2.4556    0.2583     2.650   200.000     8.687
 2937.2344   114.502    2.4397    0.2161     1.441   200.000     8.636
 2937.3868    82.517    2.4688    0.2576     2.201   200.000     8.554
 2937.5392    82.808    2.4991    0.3143     1.770   169.503     8.595
 2937.6916    92.566    2.4686    0.3325     1.792   166.153     7.965
 2937.8440    89.890    2.4475    0.3958     1.314   139.579     8.600
 2937.9964    82.651    2.5036    0.2367     3.674   200.000     7.850
 2938.1488    90.623    2.4564    0.3148     3.163   174.790     8.332
 2938.3012   111.147    2.3993    0.3429     6.597   162.074     8.803
 2938.4536    88.337    2.4474    0.2347     1.863   200.000     8.951
 2938.6060    87.512    2.4185    0.3429     1.973   156.631     8.541
 2938.7584   115.567    2.4462    0.2412     1.965   200.000     9.314
 2938.9108    98.397    2.4067    0.1990     3.139   200.000     8.614
 2939.0632    98.183    2.5251    0.2844     3.199   191.159     8.343
 2939.2156    97.767    2.4515    0.2530     2.875   200.000     9.060
 2939.3680    77.867    2.3967    0.2745     1.737   196.077     8.490
 2939.5204    83.840    2.4290    0.2628     5.014   200.000     8.767
 2939.6728    81.145    2.5010    0.3398     1.141   162.890     8.090
 2939.8252   115.456    2.5618    0.2336     2.845   200.000     8.351
 2939.9776    96.519    2.4560    0.2688     2.973   199.379     8.262
 2940.1300    80.775    2.4677    0.3317     1.378   168.825     8.897
 2940.2824   106.092    2.4135    0.2758     1.320   192.387     8.680
 2940.4348   116.733    2.4956    0.3202     2.719   175.574     8.467
 2940.5872    84.841    2.4303    0.2497     2.048   200.000     8.639
 2940.7396    84.196    2.3800    0.2476     2.430   200.000     8.372
 2940.8920    88.116    2.4180    0.3809     6.109   137.498     8.510
 2941.0444   104.351    2.4534    0.2954     1.528   194.483     8.240
 2941.1968    97.878    2.4699    0.3525     1.678   161.404     8.597
 2941.3492    91.583    2.4069    0.2282     1.771   200.000     8.727
 2941.5016   101.174    2.3994    0.2320     2.551   200.000     8.537
 2941.6540   111.228    2.4325    0.2871     3.839   190.524     8.723
 2941.8064    99.839    2.4959    0.3544     7.199   162.163     8.106
 2941.9588    99.395    2.5068    0.2540     2.644   200.000     8.142
 2942.1112    84.635    2.5321    0.2804     2.836   200.000     8.865
 2942.2636    99.267    2.4243    0.2601     2.218   200.000     8.583
 2942.4160    87.863    2.4400    0.3320     0.979   161.347     8.814
 2942.5684    85.911    2.4231    0.2991     2.181   179.626     8.003
 2942.7208    81.151    2.4065    0.3084     1.135   178.734     8.510
 2942.8732    95.556    2.4480    0.3112     2.088   179.415     9.013
 2943.0256    92.225    2.4868    0.3116     2.189   183.767     8.730
 2943.1780    89.949    2.4351    0.2454     4.790   200.000     8.240
 2943.3304   108.088    2.4651    0.2245     3.901   200.000     8.305
 2943.4828    94.423    2.4971    0.3286     1.465   168.238     8.064
 2943.6352   107.422    2.4071    0.2703     2.177   200.000     8.787
 2943.7876    97.775    2.4665    0.2426     1.553   200.000     8.912
 2943.9400   106.980    2.4854    0.2249     2.597   200.000     8.530
 2944.0924   106.812    2.4768    0.2378     4.305   200.000     8.690
 2944.2448   108.542    2.4977    0.3500     2.025   156.112     8.948
 2944.3972    93.807    2.5369    0.3174     3.279   161.754     8.601
 2944.5496   111.975    2.4361    0.2929     1.284   192.736     9.363
 2944.7020    88.798    2.5642    0.2444     3.159   200.000     8.441
 2944.8544   111.990    2.4407    0.3001     7.731   183.172     8.875
 2945.0068    79.547    2.4287    0.3021     2.499   175.772     7.766
 2945.1592    78.956    2.5426    0.2777     3.636   200.000     8.955
 2945.3116   101.394    2.3924    0.3425     2.552   157.299     8.771
 2945.4640    89.481    2.4296    0.2344     5.648   200.000     9.141
 2945.6164    82.949    2.5196    0.3675     1.951   152.839     7.932
 2945.7688    95.801    2.4515    0.2493     1.450   200.000     8.548
 2945.9212    78.305    2.4533    0.3879     2.050   138.266     8.981
 2946.0736    86.050    2.4309    0.2175     3.689   200.000     9.060
 2946.2260    97.477    2.4854    0.2643     1.138   200.000     8.491
 2946.3784    90.888    2.4824    0.2946     1.851   189.810     8.520
 2946.5308    80.510    2.5036    0.2866     1.842   194.110     9.161
 2946.6832    89.574    2.4461    0.3114     1.809   175.246     8.122
 2946.8356   113.962    2.4007    0.2554     0.890   200.000     8.045
 2946.9880   118.519    2.4536    0.2547     1.820   200.000     8.460
 2947.1404    85.128    2.4331    0.2619     2.830   200.000     8.854
 2947.2928    76.956    2.4193    0.2995     7.641   178.535     8.919
 2947.4452    84.619    2.5019    0.3044     3.672   184.788     8.253
 2947.5976   109.127    2.4813    0.2857     1.578   192.157     8.791
 2947.7500    92.839    2.5498    0.2553     2.798   200.000     9.561
 2947.9024    97.156    2.4768    0.2648     4.749   200.000     8.860
 2948.0548    91.506    2.4951    0.2597     4.431   200.000     9.154
 2948.2072    77.609    2.4698    0.2944     3.100   187.851     7.956
 2948.3596   110.589    2.3799    0.3176     4.048   178.307     8.373
 2948.5120   104.908    2.4559    0.3017     1.982   181.226     8.624
 2948.6644   117.585    2.3931    0.2956     4.523   189.108     7.425
 2948.8168    90.636    2.3422    0.1941     3.016   200.000     8.924
 2948.9692    79.534    2.4098    0.2417     1.311   200.000     8.220
 2949.1216    96.472    2.4004    0.2790     2.673   200.000     8.064
 2949.2740   102.107    2.4088    0.3251     3.849   170.474     8.774
 2949.4264   112.765    2.4294    0.2468     2.770   200.000     8.045
 2949.5788    84.421    2.4526    0.3364     2.075   170.634     8.189
 2949.7312   103.595    2.5165    0.2780     1.890   192.190     7.641
 2949.8836    88.205    2.4245    0.3237     4.220   174.311     7.845
 2950.0360    96.396    2.4146    0.3252     3.857   165.859     8.784
 2950.1884   122.291    2.4652    0.3273     3.007   166.998     8.488
 2950.3408    94.007    2.4324    0.2371     3.777   200.000     8.605
