~VERSION INFORMATION
 VERS.                 2.0    : CWLS LOG ASCII STANDARD
 WRAP.                 NO     : ONE LINE PER DEPTH STEP
~WELL INFORMATION
 WELL.                 6507/11-5    : Well name
 FLD .                 Norne         : Field
 CTRY.                 Norway       : Country
 STRT.M                2500.0000 : START DEPTH
 STOP.M                3800.0000   : STOP DEPTH
 STEP.M                0.1524        : STEP
 NULL.                 -999.25          : NULL VALUE
 SRVC.                 SubsurfAI        : Service company
~CURVE INFORMATION
 DEPT.M                              : Depth
 GR  .GAPI                           : Gamma Ray
 RHOB.G/C3                           : Bulk Density
 NPHI.V/V                            : Neutron Porosity
 RT  .OHMM                           : True Resistivity
 DT  .US/F                           : Sonic
 CALI.IN                             : Caliper
~PARAMETER INFORMATION
 LAT .                 65.3241   : Latitude
 LON .                 8.0833   : Longitude
 DESC.                 Norne Fm — Åre Formation, Ile/Tofte sandstones
~A  DEPT        GR        RHOB      NPHI      RT        DT        CALI
# ...
 2930.5300    26.396    2.3242    0.1908    16.879   200.000     8.694
 2930.6824    46.395    2.2233    0.1725    91.562   200.000     7.976
 2930.8348    30.592    2.3067    0.2218    28.685   200.000     8.480
 2930.9872    26.153    2.2547    0.1823    18.111   200.000     8.161
 2931.1396    40.672    2.3364    0.1588   162.526   200.000     8.493
 2931.2920    36.441    2.3014    0.1973    44.495   200.000     9.083
 2931.4444    33.210    2.3430    0.2190    37.015   200.000     8.019
 2931.5968    45.966    2.2970    0.2042    29.805   200.000     8.212
 2931.7492    43.111    2.2368    0.1735    32.760   200.000     8.062
 2931.9016    38.891    2.2789    0.2279    36.767   200.000     7.945
 2932.0540    35.666    2.2381    0.2034    49.899   200.000     8.015
 2932.2064    40.234    2.2840    0.1989    43.373   200.000     8.480
 2932.3588    34.633    2.2484    0.2123    13.879   200.000     8.677
 2932.5112    47.390    2.3281    0.2089    37.839   200.000     8.442
 2932.6636    30.388    2.3339    0.1513    64.706   200.000     8.865
 2932.8160    43.149    2.3138    0.1344    29.656   200.000     8.126
 2932.9684    39.194    2.2756    0.1702    26.793   200.000     7.997
 2933.1208    29.553    2.2725    0.2200    26.290   200.000     8.723
 2933.2732    39.616    2.3452    0.2662    43.360   200.000     8.523
 2933.4256    31.343    2.3393    0.2023    65.824   200.000     7.637
 2933.5780    43.786    2.3128    0.1446    20.629   200.000     8.095
 2933.7304    48.439    2.2896    0.2064    37.142   200.000     8.695
 2933.8828    38.537    2.3155    0.2041    24.740   200.000     8.390
 2934.0352    32.886    2.2249    0.2372    23.557   200.000     8.484
 2934.1876    29.073    2.2929    0.1855    82.186   200.000     8.474
 2934.3400    29.801    2.2740    0.1706    23.934   200.000     8.487
 2934.4924    37.946    2.2888    0.1969    41.753   200.000     8.828
 2934.6448    33.423    2.3213    0.2083    30.788   200.000     8.513
 2934.7972    37.189    2.3081    0.1610    45.052   200.000     8.560
 2934.9496    47.320    2.2897    0.1727    55.972   200.000     8.653
 2935.1020    45.430    2.2366    0.2033    33.931   200.000     8.434
 2935.2544    30.230    2.2611    0.1758    25.954   200.000     8.067
 2935.4068    36.417    2.3430    0.1508    43.323   200.000     9.135
 2935.5592    35.618    2.2061    0.2234    41.528   200.000     8.917
 2935.7116    33.853    2.2739    0.1925    27.863   200.000     8.651
 2935.8640    39.964    2.3105    0.2415    19.971   200.000     8.516
 2936.0164    37.006    2.2807    0.1567    36.990   200.000     8.541
 2936.1688    49.721    2.3626    0.1942    13.695   200.000     8.669
 2936.3212    37.663    2.3964    0.2059    32.141   200.000     9.042
 2936.4736    51.038    2.3039    0.1617    19.117   200.000     8.938
 2936.6260    39.461    2.2867    0.2074    44.730   200.000     7.811
 2936.7784    37.976    2.3481    0.1634    24.616   200.000     8.593
 2936.9308    38.628    2.3562    0.1375    54.582   200.000     8.659
 2937.0832    37.445    2.3042    0.1888    76.954   200.000     8.902
 2937.2356    41.465    2.3691    0.2127    35.806   200.000     8.545
 2937.3880    36.089    2.2885    0.2191    63.065   200.000     8.193
 2937.5404    39.692    2.2455    0.1827    27.330   200.000     8.393
 2937.6928    35.245    2.3324    0.1740    26.361   200.000     8.917
 2937.8452    39.882    2.3000    0.1886    23.082   200.000     7.711
 2937.9976    35.557    2.2525    0.2114    32.365   200.000     8.567
 2938.1500    43.755    2.2379    0.1716    34.068   200.000     8.382
 2938.3024    40.655    2.2896    0.1471    28.476   200.000     8.360
 2938.4548    37.758    2.3261    0.1525    43.401   200.000     8.641
 2938.6072    30.247    2.2797    0.1915    83.586   200.000     8.400
 2938.7596    36.532    2.2880    0.1685    42.315   200.000     8.730
 2938.9120    44.491    2.3133    0.1510    26.907   200.000     8.874
 2939.0644    35.022    2.3253    0.1642    55.474   200.000     8.180
 2939.2168    44.067    2.3172    0.2230    26.821   200.000     9.147
 2939.3692    45.402    2.3020    0.1333    34.976   200.000     8.376
 2939.5216    42.480    2.3324    0.1991    75.720   200.000     9.301
 2939.6740    43.722    2.3253    0.1911    28.470   200.000     8.367
 2939.8264    32.156    2.3470    0.1614    30.348   200.000     8.574
 2939.9788    48.760    2.2601    0.2003    32.022   200.000     9.186
 2940.1312    33.627    2.3154    0.1992    23.116   200.000     8.703
 2940.2836    44.534    2.3227    0.1905    68.802   200.000     9.270
 2940.4360    33.890    2.2191    0.1842    29.389   200.000     8.399
 2940.5884    41.536    2.2868    0.1599    19.758   200.000     8.632
 2940.7408    44.446    2.3237    0.1709    59.874   200.000     8.692
 2940.8932    41.889    2.2802    0.2281    40.063   200.000     8.278
 2941.0456    44.658    2.2381    0.1562    17.427   200.000     8.670
 2941.1980    39.529    2.2661    0.1840    25.720   200.000     8.878
 2941.3504    39.318    2.3226    0.1452    30.272   200.000     8.552
 2941.5028    41.754    2.3522    0.1608    46.008   200.000     8.093
 2941.6552    31.921    2.2595    0.1629    22.824   200.000     8.345
 2941.8076    38.936    2.3077    0.1336    30.958   200.000     7.696
 2941.9600    28.317    2.2030    0.1606    25.000   200.000     8.822
 2942.1124    38.045    2.2674    0.2556    48.589   200.000     8.932
 2942.2648    36.781    2.3110    0.1916    30.642   200.000     8.583
 2942.4172    37.863    2.3006    0.1652    72.742   200.000     8.930
 2942.5696    41.423    2.3392    0.1818    33.168   200.000     8.379
 2942.7220    45.282    2.2766    0.1878    47.677   200.000     8.302
 2942.8744    31.023    2.2558    0.2032   136.838   200.000     8.507
 2943.0268    29.916    2.3344    0.1914    49.156   200.000     7.895
 2943.1792    33.672    2.2756    0.2044    31.596   200.000     8.110
 2943.3316    29.742    2.3125    0.1523    20.224   200.000     8.075
 2943.4840    41.710    2.2719    0.2197    25.028   200.000     8.223
 2943.6364    36.575    2.3335    0.1978    49.714   200.000     8.307
 2943.7888    43.734    2.2483    0.1739    15.929   200.000     8.339
 2943.9412    39.981    2.3017    0.2003    36.776   200.000     8.666
 2944.0936    36.710    2.3212    0.1704    25.226   200.000     7.776
 2944.2460    39.774    2.2912    0.1762    36.041   200.000     8.060
 2944.3984    48.821    2.3646    0.2039    44.745   200.000     8.380
 2944.5508    38.728    2.2369    0.1599    30.940   200.000     8.808
 2944.7032    31.786    2.3619    0.1226    31.973   200.000     8.991
 2944.8556    45.787    2.3193    0.1609    31.314   200.000     8.326
 2945.0080    34.846    2.2945    0.1816    35.059   200.000     8.412
 2945.1604    37.231    2.2450    0.1620    17.788   200.000     8.175
 2945.3128    41.918    2.3056    0.1513    28.688   200.000     8.535
 2945.4652    32.436    2.2627    0.2022    57.499   200.000     8.406
 2945.6176    37.448    2.3014    0.1974    68.779   200.000     8.442
 2945.7700    39.823    2.2464    0.2170    78.275   200.000     8.857
 2945.9224    36.706    2.4316    0.1863    49.235   200.000     8.481
 2946.0748    41.123    2.2513    0.2130   119.472   200.000     8.505
 2946.2272    25.740    2.2135    0.1877    30.890   200.000     8.137
 2946.3796    46.299    2.2927    0.2024    56.066   200.000     8.184
 2946.5320    31.330    2.2610    0.1233   102.390   200.000     8.072
 2946.6844    27.264    2.3215    0.2011    25.872   200.000     7.371
 2946.8368    33.225    2.2962    0.1687    49.271   200.000     8.721
 2946.9892    39.716    2.2840    0.2384    37.167   200.000     8.259
 2947.1416    39.206    2.3649    0.2039    37.511   200.000     8.636
 2947.2940    29.991    2.3241    0.1730    27.395   200.000     8.136
 2947.4464    37.367    2.2531    0.1630    42.829   200.000     8.601
 2947.5988    29.037    2.3034    0.1748    26.777   200.000     9.031
