~VERSION INFORMATION
 VERS.                 2.0    : CWLS LOG ASCII STANDARD
 WRAP.                 NO     : ONE LINE PER DEPTH STEP
~WELL INFORMATION
 WELL.                 6507/11-5    : Well name
 FLD .                 Norne         : Field
 CTRY.                 Norway       : Country
 STRT.M                2500.0000 : START DEPTH
 STOP.M                3800.0000   : STOP DEPTH
 STEP.M                0.1524        : STEP
 NULL.                 -999.25          : NULL VALUE
 SRVC.                 SubsurfAI        : Service company
~CURVE INFORMATION
 DEPT.M                              : Depth
 GR  .GAPI                           : Gamma Ray
 RHOB.G/C3                           : Bulk Density
 NPHI.V/V                            : Neutron Porosity
 RT  .OHMM                           : True Resistivity
 DT  .US/F                           : Sonic
 CALI.IN                             : Caliper
~PARAMETER INFORMATION
 LAT .                 65.3241   : Latitude
 LON .                 8.0833   : Longitude
 DESC.                 Norne Fm — Åre Formation, Ile/Tofte sandstones
~A  DEPT        GR        RHOB      NPHI      RT        DT        CALI
# ...
 3774.3688   101.600    2.4903    0.2917     2.602   189.767     8.799
 3774.5212   100.918    2.4582    0.2898     5.236   187.330     8.474
 3774.6736   115.314    2.5899    0.3127     1.259   169.531     8.245
 3774.8260   118.392    2.4759    0.4063     3.083   144.141     8.593
 3774.9784   108.562    2.5655    0.2263     1.255   200.000     9.019
 3775.1308   123.686    2.4847    0.3514     1.155   150.458     7.884
 3775.2832   122.243    2.5705    0.2351     4.875   200.000     8.819
 3775.4356   113.304    2.4544    0.4040     2.231   141.197     8.802
 3775.5880   120.149    2.4746    0.3676     1.760   153.672     8.614
 3775.7404   142.612    2.5088    0.4278     2.054   140.419     8.221
 3775.8928   101.625    2.4409    0.3156     3.050   169.193     8.524
 3776.0452    96.994    2.5190    0.4546     1.674   132.505     8.163
 3776.1976   108.205    2.5020    0.3857     2.201   144.940     8.435
 3776.3500   115.319    2.3233    0.3482     1.920   156.048     8.588
 3776.5024   108.641    2.5764    0.3366     1.826   166.113     8.866
 3776.6548   106.751    2.4279    0.3426     1.012   168.390     9.443
 3776.8072    79.322    2.4156    0.3249     2.597   167.809     8.019
 3776.9596   132.686    2.4454    0.3005     1.766   185.171     8.519
 3777.1120    94.020    2.4506    0.3211     1.784   169.400     8.952
 3777.2644   110.001    2.4980    0.3095     1.433   170.729     9.133
 3777.4168    97.640    2.4231    0.2475     1.325   200.000     8.704
 3777.5692    88.739    2.5043    0.2193     2.413   200.000     7.929
 3777.7216    98.292    2.4651    0.2431     3.107   200.000     9.018
 3777.8740   114.923    2.4862    0.2961     0.805   178.016     8.605
 3778.0264   120.295    2.5142    0.3525     1.032   171.852     8.319
 3778.1788   108.083    2.4575    0.2407     0.864   200.000     7.846
 3778.3312   115.514    2.5028    0.2307     1.744   200.000     7.877
 3778.4836   101.292    2.5133    0.3242     2.106   172.506     8.444
 3778.6360   107.474    2.4979    0.2849     1.243   192.160     7.963
 3778.7884   114.069    2.4794    0.2727     2.471   193.117     8.401
 3778.9408   101.928    2.5520    0.3103     1.627   179.087     8.148
 3779.0932   109.352    2.4692    0.3246     2.082   173.700     8.644
 3779.2456   112.403    2.5080    0.3121     2.041   175.395     7.700
 3779.3980    79.019    2.4599    0.3198     2.104   168.138     8.142
 3779.5504   112.114    2.4758    0.3503     3.338   154.016     8.175
 3779.7028    87.202    2.4912    0.3418     4.712   161.606     8.726
 3779.8552   116.663    2.4381    0.3635     7.385   147.774     8.061
 3780.0076   120.730    2.5008    0.3399     3.517   155.610     8.622
 3780.1600   104.889    2.4960    0.3538     1.101   156.424     8.967
 3780.3124   104.542    2.4670    0.3402     2.165   156.831     9.044
 3780.4648   104.025    2.4449    0.2759     1.586   199.424     9.302
 3780.6172   114.443    2.5154    0.3739     2.091   143.066     8.498
 3780.7696   105.015    2.3716    0.3059     4.636   173.599     8.272
 3780.9220   114.950    2.5651    0.3399     2.391   159.037     8.098
 3781.0744    95.228    2.5141    0.2808     1.815   200.000     8.757
 3781.2268   103.345    2.4684    0.2913     3.061   195.532     8.377
 3781.3792   110.309    2.4933    0.3016     1.906   184.628     8.351
 3781.5316   109.519    2.4271    0.3277     2.574   167.809     8.054
 3781.6840    93.941    2.4365    0.3151     1.246   182.559     7.902
 3781.8364   132.217    2.4864    0.4037     1.618   131.331     8.732
 3781.9888   112.993    2.3736    0.3390     1.408   155.708     7.855
 3782.1412   110.418    2.5329    0.3755     1.936   144.561     8.534
 3782.2936   115.084    2.5021    0.2773     1.380   195.156     8.408
 3782.4460   123.739    2.4850    0.1865     1.962   200.000     7.382
 3782.5984   110.551    2.4938    0.3442     1.044   163.760     9.059
 3782.7508   112.835    2.4922    0.2381     1.544   200.000     9.006
 3782.9032    95.499    2.4442    0.3676     2.446   150.560     8.105
 3783.0556   109.342    2.4875    0.3294     0.971   160.275     8.879
 3783.2080    97.886    2.3680    0.3362     2.026   155.011     7.624
 3783.3604   103.316    2.5409    0.2892     1.281   193.893     8.706
 3783.5128    86.235    2.5201    0.3220     1.616   169.986     8.019
 3783.6652    96.976    2.4425    0.2770     1.119   197.667     8.323
 3783.8176   117.963    2.4451    0.3758     1.695   150.985     7.639
 3783.9700   109.951    2.5226    0.3391     2.387   159.412     8.695
 3784.1224    97.503    2.5905    0.3974     2.218   135.000     8.015
 3784.2748    83.028    2.4501    0.3898     2.831   145.942     8.543
 3784.4272   116.651    2.4585    0.2758     0.941   197.350     7.971
 3784.5796   108.162    2.4794    0.3163     2.885   168.035     7.945
 3784.7320   116.103    2.5168    0.2922     3.514   180.175     8.199
 3784.8844   111.651    2.4532    0.3320     1.939   162.293     8.994
 3785.0368   110.637    2.5130    0.3207     2.776   168.857     8.286
 3785.1892   100.630    2.4623    0.3000     1.745   176.996     8.451
 3785.3416    88.108    2.4247    0.2557     2.310   200.000     8.389
 3785.4940    95.183    2.4108    0.3506     1.845   154.040     9.021
 3785.6464   130.132    2.4962    0.3746     5.379   153.010     8.453
 3785.7988    96.593    2.4730    0.2734     1.522   197.870     8.207
 3785.9512   103.813    2.5258    0.2612     2.056   200.000     8.551
 3786.1036   102.196    2.4987    0.3145     1.229   171.373     8.051
 3786.2560    94.523    2.5440    0.4158     1.763   134.800     8.132
 3786.4084   121.541    2.5043    0.3938     1.229   132.735     8.364
 3786.5608   109.606    2.4288    0.2202     2.307   200.000     8.603
 3786.7132    99.225    2.4892    0.3181     2.346   176.682     9.058
 3786.8656   106.068    2.4488    0.2911     2.581   190.957     7.834
 3787.0180   107.411    2.4398    0.2321     1.919   200.000     8.478
 3787.1704   111.228    2.5168    0.3033     1.561   171.418     7.744
 3787.3228   102.488    2.4372    0.3925     1.440   150.276     7.958
 3787.4752   100.570    2.4888    0.3087     1.202   178.008     8.491
 3787.6276   114.140    2.4313    0.4320     0.882   128.015     8.152
 3787.7800   109.549    2.4964    0.2562     1.572   200.000     9.268
 3787.9324   113.299    2.5679    0.3475     4.987   148.557     8.381
 3788.0848    82.737    2.4749    0.2874     1.617   192.340     9.319
 3788.2372   104.403    2.4183    0.3273     2.691   163.426     8.596
 3788.3896   111.818    2.4631    0.3198     2.115   165.871     8.386
 3788.5420   114.204    2.4679    0.3705     1.344   137.410     7.953
 3788.6944    99.842    2.5222    0.3676     4.251   156.538     8.619
 3788.8468    87.932    2.3848    0.3036     4.061   181.875     8.790
 3788.9992   115.883    2.4605    0.2686     1.424   200.000     8.410
 3789.1516   110.935    2.5458    0.2693     2.609   200.000     8.125
 3789.3040   126.974    2.4095    0.2500     1.717   200.000     9.212
 3789.4564    96.276    2.5347    0.2609     7.097   200.000     9.044
 3789.6088   108.191    2.3971    0.3078     3.139   178.418     9.194
 3789.7612   112.232    2.5058    0.3043     2.487   178.417     8.382
 3789.9136   105.025    2.4388    0.2961     3.445   189.290     8.323
 3790.0660    97.773    2.3908    0.3066     3.131   182.665     8.205
 3790.2184   119.710    2.5733    0.4368     1.537   135.757     8.465
 3790.3708    91.297    2.4883    0.2896     1.149   183.728     9.116
 3790.5232   109.483    2.4887    0.3533     1.073   158.114     8.757
 3790.6756   106.763    2.4698    0.3030     1.645   170.236     8.776
 3790.8280    95.276    2.4844    0.2910     1.035   187.622     7.923
 3790.9804   118.521    2.4565    0.3529     1.201   148.454     7.980
 3791.1328   101.016    2.4323    0.3098     1.121   183.969     9.302
 3791.2852   106.341    2.4321    0.2715     0.928   200.000     8.893
 3791.4376   115.169    2.4491    0.3251     6.503   170.126     9.412
