~VERSION INFORMATION
 VERS.                 2.0    : CWLS LOG ASCII STANDARD
 WRAP.                 NO     : ONE LINE PER DEPTH STEP
~WELL INFORMATION
 WELL.                 6507/11-5    : Well name
 FLD .                 Norne         : Field
 CTRY.                 Norway       : Country
 STRT.M                2500.0000 : START DEPTH
 STOP.M                3800.0000   : STOP DEPTH
 STEP.M                0.1524        : STEP
 NULL.                 -999.25          : NULL VALUE
 SRVC.                 SubsurfAI        : Service company
~CURVE INFORMATION
 DEPT.M                              : Depth
 GR  .GAPI                           : Gamma Ray
 RHOB.G/C3                           : Bulk Density
 NPHI.V/V                            : Neutron Porosity
 RT  .OHMM                           : True Resistivity
 DT  .US/F                           : Sonic
 CALI.IN                             : Caliper
~PARAMETER INFORMATION
 LAT .                 65.3241   : Latitude
 LON .                 8.0833   : Longitude
 DESC.                 Norne Fm — Åre Formation, Ile/Tofte sandstones
~A  DEPT        GR        RHOB      NPHI      RT        DT        CALI
# ...
 3516.0508    24.183    2.2748    0.1639    79.573   200.000     8.781
 3516.2032    27.911    2.2735    0.1413    28.506   200.000     7.920
 3516.3556    31.794    2.2675    0.1614    56.075   200.000     8.628
 3516.5080    35.888    2.2499    0.1531   130.170   200.000     8.687
 3516.6604    40.734    2.2176    0.1903    44.457   200.000     8.768
 3516.8128    38.690    2.2751    0.1374   122.770   200.000     8.372
 3516.9652    42.286    2.3298    0.1989    94.386   200.000     8.851
 3517.1176    33.905    2.2330    0.1737    42.034   200.000     8.144
 3517.2700    38.670    2.2414    0.1504    52.584   200.000     8.354
 3517.4224    32.657    2.3093    0.1890    30.181   200.000     8.835
 3517.5748    31.694    2.3118    0.1946    24.365   200.000     9.132
 3517.7272    30.539    2.2694    0.1286    54.335   200.000     8.366
 3517.8796    28.579    2.3307    0.1887    64.175   200.000     8.608
 3518.0320    30.821    2.2480    0.2038    59.606   200.000     8.944
 3518.1844    31.575    2.2208    0.1860    51.708   200.000     8.871
 3518.3368    27.703    2.2454    0.1365    38.209   200.000     8.803
 3518.4892    28.974    2.1535    0.2119    80.443   200.000     9.001
 3518.6416    34.124    2.2551    0.1707    31.354   200.000     8.710
 3518.7940    34.770    2.2908    0.2168    46.124   200.000     8.744
 3518.9464    33.149    2.2019    0.1566    66.429   200.000     8.085
 3519.0988    39.025    2.2820    0.1783    37.238   200.000     8.640
 3519.2512    34.364    2.2312    0.1785    81.711   200.000     8.303
 3519.4036    27.326    2.2867    0.1105    28.377   200.000     8.478
 3519.5560    34.753    2.2544    0.1712   139.184   200.000     9.366
 3519.7084    38.024    2.2703    0.1205    49.256   200.000     8.561
 3519.8608    32.321    2.3141    0.2019    74.089   200.000     8.126
 3520.0132    35.461    2.3468    0.1525    43.165   200.000     8.573
 3520.1656    25.615    2.2288    0.2035    39.081   200.000     8.009
 3520.3180    31.549    2.3035    0.1742    66.351   200.000     8.530
 3520.4704    42.516    2.3156    0.1940    27.127   200.000     8.899
 3520.6228    29.869    2.2736    0.1469    18.701   200.000     9.298
 3520.7752    34.538    2.2768    0.1802    56.933   200.000     8.372
 3520.9276    33.080    2.3257    0.1618    55.681   200.000     8.142
 3521.0800    30.374    2.2960    0.1828   114.956   200.000     8.436
 3521.2324    28.717    2.2878    0.1656    86.476   200.000     8.869
 3521.3848    31.572    2.2844    0.2016    40.639   200.000     8.455
 3521.5372    33.874    2.3565    0.1572    64.953   200.000     8.370
 3521.6896    35.239    2.2513    0.1664   121.154   200.000     8.304
 3521.8420    28.930    2.2417    0.1435    49.308   200.000     9.066
 3521.9944    28.817    2.3470    0.1720   148.248   200.000     8.460
 3522.1468    22.268    2.1869    0.2055    77.806   200.000     8.433
 3522.2992    27.939    2.2949    0.1727   108.989   200.000     8.065
 3522.4516    27.755    2.2939    0.1443    50.615   200.000     8.257
 3522.6040    30.183    2.2405    0.1657    42.076   200.000     8.964
 3522.7564    32.948    2.2274    0.1472    47.918   200.000     8.133
 3522.9088    27.268    2.2613    0.1581    61.937   200.000     9.071
 3523.0612    34.319    2.1993    0.2086    27.302   200.000     8.379
 3523.2136    28.971    2.3459    0.1595    57.180   200.000     8.541
 3523.3660    32.415    2.3047    0.1516   105.544   200.000     8.952
 3523.5184    22.966    2.2971    0.1735   101.347   200.000     8.984
 3523.6708    37.859    2.2587    0.1610    59.947   200.000     8.336
 3523.8232    28.437    2.2977    0.1573    37.643   200.000     7.881
 3523.9756    28.524    2.1880    0.1697    74.608   200.000     8.667
 3524.1280    33.715    2.2888    0.0790    51.409   200.000     7.997
 3524.2804    29.597    2.2640    0.2108    67.333   200.000     8.622
 3524.4328    24.225    2.2454    0.1612    68.380   200.000     9.237
 3524.5852    26.465    2.3267    0.1936    83.766   200.000     8.780
 3524.7376    36.559    2.2418    0.1773    52.639   200.000     8.406
 3524.8900    35.207    2.2856    0.1704    74.907   200.000     8.542
 3525.0424    42.055    2.1817    0.1046   166.027   200.000     8.196
 3525.1948    36.336    2.2145    0.1562    43.898   200.000     8.152
 3525.3472    35.648    2.2871    0.1506    22.466   200.000     8.905
 3525.4996    33.701    2.2720    0.1868    27.095   200.000     7.943
 3525.6520    29.033    2.2995    0.1548    54.039   200.000     7.960
 3525.8044    29.946    2.1905    0.1643    92.719   200.000     8.374
 3525.9568    30.209    2.3067    0.1729    57.358   200.000     8.272
 3526.1092    32.932    2.2501    0.1494    48.412   200.000     7.932
 3526.2616    21.077    2.2394    0.1388    91.800   200.000     8.748
 3526.4140    34.808    2.2608    0.1535    70.143   200.000     8.010
 3526.5664    36.485    2.2566    0.1560    58.389   200.000     8.984
 3526.7188    28.537    2.2663    0.1693    62.994   200.000     8.202
 3526.8712    30.853    2.2339    0.1637   196.489   200.000     8.155
 3527.0236    36.980    2.3059    0.1904    22.723   200.000     8.434
 3527.1760    40.974    2.3227    0.1345    22.348   200.000     8.818
 3527.3284    36.056    2.2095    0.2022    64.189   200.000     8.518
 3527.4808    30.440    2.3195    0.1543    45.172   200.000     8.894
 3527.6332    36.231    2.3563    0.1973    70.188   200.000     8.226
 3527.7856    27.458    2.2491    0.1451    48.328   200.000     7.856
 3527.9380    32.113    2.2602    0.1668    57.654   200.000     9.068
 3528.0904    43.540    2.2510    0.1690    75.237   200.000     8.110
 3528.2428    27.497    2.3123    0.1798    60.580   200.000     8.890
 3528.3952    29.595    2.1837    0.1325    45.869   200.000     9.014
 3528.5476    31.660    2.2949    0.1645    79.583   200.000     8.304
 3528.7000    30.973    2.2634    0.1395    74.758   200.000     8.007
 3528.8524    31.645    2.2588    0.1751    31.694   200.000     7.637
 3529.0048    28.407    2.3504    0.1713    47.216   200.000     8.342
 3529.1572    36.787    2.2307    0.2032   132.654   200.000     8.691
 3529.3096    34.596    2.2271    0.1869    58.329   200.000     8.166
 3529.4620    22.339    2.2382    0.1595   152.562   200.000     9.219
 3529.6144    22.936    2.3209    0.1684    41.168   200.000     8.882
 3529.7668    34.463    2.3221    0.1998    54.553   200.000     8.568
 3529.9192    35.446    2.2498    0.1746    29.854   200.000     8.282
 3530.0716    31.611    2.2538    0.1528    33.239   200.000     8.038
 3530.2240    33.676    2.2406    0.1294    35.874   200.000     8.590
 3530.3764    39.842    2.2673    0.1864    39.041   200.000     8.332
 3530.5288    26.800    2.1701    0.2007    73.016   200.000     8.470
 3530.6812    41.292    2.2787    0.1627   102.312   200.000     8.646
 3530.8336    31.075    2.3054    0.1415    52.527   200.000     8.010
 3530.9860    34.811    2.2329    0.1501    37.116   200.000     8.400
 3531.1384    40.660    2.2945    0.1276    68.917   200.000     8.496
 3531.2908    27.629    2.3047    0.0915    56.704   200.000     8.694
 3531.4432    32.171    2.2836    0.1869    28.761   200.000     9.044
 3531.5956    28.698    2.3693    0.1704    41.051   200.000     9.639
 3531.7480    28.572    2.1652    0.1379    75.410   200.000     8.448
 3531.9004    40.827    2.3190    0.1545    36.309   200.000     8.578
 3532.0528    29.461    2.3218    0.1919    33.615   200.000     9.320
 3532.2052    29.167    2.2946    0.1713   103.742   200.000     8.607
 3532.3576    32.646    2.2338    0.2033    72.988   200.000     8.547
 3532.5100    19.338    2.2013    0.1834    57.275   200.000     8.969
 3532.6624    36.235    2.2350    0.1829   110.739   200.000     7.781
 3532.8148    25.940    2.2824    0.1523    58.021   200.000     8.779
 3532.9672    39.252    2.2464    0.2334    21.756   200.000     8.001
 3533.1196    35.374    2.3214    0.1842    21.979   200.000     8.540
