~VERSION INFORMATION
 VERS.                 2.0    : CWLS LOG ASCII STANDARD
 WRAP.                 NO     : ONE LINE PER DEPTH STEP
~WELL INFORMATION
 WELL.                 6507/11-5    : Well name
 FLD .                 Norne         : Field
 CTRY.                 Norway       : Country
 STRT.M                2500.0000 : START DEPTH
 STOP.M                3800.0000   : STOP DEPTH
 STEP.M                0.1524        : STEP
 NULL.                 -999.25          : NULL VALUE
 SRVC.                 SubsurfAI        : Service company
~CURVE INFORMATION
 DEPT.M                              : Depth
 GR  .GAPI                           : Gamma Ray
 RHOB.G/C3                           : Bulk Density
 NPHI.V/V                            : Neutron Porosity
 RT  .OHMM                           : True Resistivity
 DT  .US/F                           : Sonic
 CALI.IN                             : Caliper
~PARAMETER INFORMATION
 LAT .                 65.3241   : Latitude
 LON .                 8.0833   : Longitude
 DESC.                 Norne Fm — Åre Formation, Ile/Tofte sandstones
~A  DEPT        GR        RHOB      NPHI      RT        DT        CALI
# ...
 3343.8388    34.803    2.2871    0.1153    16.492   200.000     8.594
 3343.9912    38.535    2.3227    0.1496    66.491   200.000     8.666
 3344.1436    31.843    2.2136    0.1467   104.571   200.000     7.797
 3344.2960    26.766    2.2701    0.1801    55.883   200.000     8.565
 3344.4484    28.509    2.2543    0.1742    79.442   200.000     8.868
 3344.6008    25.052    2.2274    0.1944    57.150   200.000     7.903
 3344.7532    27.504    2.2854    0.1865    39.478   200.000     8.156
 3344.9056    34.693    2.2226    0.2347    41.763   200.000     8.111
 3345.0580    32.343    2.2906    0.1745    82.988   200.000     8.129
 3345.2104    39.823    2.2732    0.1857    52.473   200.000     9.061
 3345.3628    38.988    2.3337    0.1879    76.068   200.000     8.707
 3345.5152    34.269    2.2452    0.1259    28.235   200.000     8.309
 3345.6676    32.490    2.2448    0.1569    69.700   200.000     8.480
 3345.8200    29.458    2.2815    0.1479    65.693   200.000     8.736
 3345.9724    29.680    2.2104    0.1537    40.225   200.000     8.847
 3346.1248    27.868    2.2912    0.1705    68.670   200.000     8.582
 3346.2772    35.351    2.2752    0.1510    67.939   200.000     8.302
 3346.4296    32.237    2.2665    0.1583    41.527   200.000     8.134
 3346.5820    33.599    2.2423    0.1658    78.929   200.000     8.530
 3346.7344    29.475    2.2642    0.2338    26.736   200.000     8.590
 3346.8868    29.577    2.2924    0.1933    69.369   200.000     9.103
 3347.0392    25.652    2.2608    0.1556    31.727   200.000     8.507
 3347.1916    32.777    2.2892    0.1907    36.756   200.000     8.993
 3347.3440    28.068    2.2335    0.1819    43.233   200.000     9.204
 3347.4964    36.162    2.2684    0.1634    68.358   200.000     8.243
 3347.6488    30.206    2.3232    0.1669    20.669   200.000     8.312
 3347.8012    25.229    2.2390    0.1450    51.492   200.000     8.884
 3347.9536    33.753    2.3125    0.1600    58.511   200.000     8.176
 3348.1060    31.785    2.2096    0.1589    83.360   200.000     8.651
 3348.2584    37.461    2.2625    0.1707    39.121   200.000     7.975
 3348.4108    25.211    2.3530    0.1052    48.989   200.000     7.801
 3348.5632    28.952    2.3417    0.1415    87.831   200.000     8.711
 3348.7156    31.416    2.2965    0.1725    94.364   200.000     8.312
 3348.8680    30.002    2.2368    0.1903    25.521   200.000     9.082
 3349.0204    41.952    2.2578    0.1851    72.038   200.000     9.305
 3349.1728    31.758    2.2727    0.1711    78.708   200.000     8.122
 3349.3252    34.382    2.2664    0.1576    39.363   200.000     8.645
 3349.4776    33.567    2.1832    0.1777    72.234   200.000     8.438
 3349.6300    27.609    2.2466    0.1857   135.239   200.000     8.880
 3349.7824    32.624    2.2709    0.1763    48.456   200.000     8.489
 3349.9348    25.127    2.3146    0.1449    24.479   200.000     8.497
 3350.0872    32.907    2.2243    0.1992    29.324   200.000     8.309
 3350.2396    26.494    2.2686    0.1742    35.102   200.000     8.629
 3350.3920    31.332    2.3438    0.1718    40.092   200.000     7.771
 3350.5444    29.819    2.2333    0.1703    41.195   200.000     8.094
 3350.6968    24.222    2.2634    0.2059    55.470   200.000     8.575
 3350.8492    38.422    2.3018    0.1634    88.806   200.000     8.186
 3351.0016    28.103    2.3318    0.1957    72.309   200.000     8.350
 3351.1540    33.885    2.2562    0.1769   100.570   200.000     7.987
 3351.3064    25.061    2.3482    0.1615   117.382   200.000     8.627
 3351.4588    33.912    2.2246    0.2122   103.543   200.000     8.135
 3351.6112    29.704    2.2348    0.1437    71.809   200.000     9.034
 3351.7636    25.945    2.2637    0.1772    57.618   200.000     8.503
 3351.9160    31.761    2.2517    0.1831    25.594   200.000     8.459
 3352.0684    36.771    2.2342    0.1749    35.221   200.000     8.335
 3352.2208    30.921    2.2563    0.1845    37.794   200.000     9.056
 3352.3732    36.860    2.2248    0.1435    37.486   200.000     8.498
 3352.5256    30.429    2.2501    0.1519    27.353   200.000     8.345
 3352.6780    31.557    2.2309    0.1869    55.090   200.000     8.669
 3352.8304    27.577    2.2209    0.1877    53.689   200.000     8.203
 3352.9828    29.610    2.3000    0.2233    56.951   200.000     8.740
 3353.1352    35.612    2.2357    0.1304    23.058   200.000     7.846
 3353.2876    27.518    2.2770    0.1361    50.366   200.000     8.648
 3353.4400    39.610    2.2945    0.1948    57.147   200.000     8.692
 3353.5924    32.383    2.2743    0.2047    62.933   200.000     8.774
 3353.7448    29.834    2.1995    0.1442   102.604   200.000     8.207
 3353.8972    24.582    2.3211    0.1881    55.654   200.000     8.587
 3354.0496    28.529    2.3031    0.1727    43.497   200.000     8.884
 3354.2020    41.218    2.2514    0.1815   152.680   200.000     8.650
 3354.3544    35.971    2.2099    0.2082    36.580   200.000     8.814
 3354.5068    37.490    2.2913    0.1466    46.118   200.000     8.989
 3354.6592    34.297    2.2593    0.1304    21.030   200.000     8.674
 3354.8116    36.851    2.2986    0.2203    33.169   200.000     8.633
 3354.9640    32.875    2.2702    0.1416    23.354   200.000     9.543
 3355.1164    32.735    2.2612    0.1927    91.838   200.000     8.592
 3355.2688    22.881    2.2248    0.1923    88.867   200.000     8.324
 3355.4212    27.478    2.3321    0.1616    36.130   200.000     9.123
 3355.5736    30.843    2.3237    0.1861    87.596   200.000     8.845
 3355.7260    24.447    2.2699    0.1451    22.232   200.000     8.186
 3355.8784    38.661    2.3017    0.1861    47.783   200.000     8.365
 3356.0308    35.874    2.2876    0.1848    77.663   200.000     8.779
 3356.1832    29.482    2.2441    0.1700    20.886   200.000     8.098
 3356.3356    35.780    2.2460    0.1791    66.471   200.000     9.446
 3356.4880    30.187    2.2388    0.1587    28.251   200.000     8.180
 3356.6404    34.691    2.2529    0.1701   103.455   200.000     8.806
 3356.7928    34.804    2.3649    0.1952    24.538   200.000     8.634
 3356.9452    31.188    2.3376    0.1786    49.006   200.000     8.957
 3357.0976    30.946    2.2643    0.1466    37.252   200.000     8.470
 3357.2500    32.564    2.2638    0.1628    38.868   200.000     8.449
 3357.4024    34.541    2.3147    0.1667   105.275   200.000     8.255
 3357.5548    34.392    2.3098    0.1604    61.802   200.000     8.623
 3357.7072    35.944    2.2679    0.1443    14.755   200.000     7.239
 3357.8596    21.225    2.3344    0.1853    70.802   200.000     8.185
 3358.0120    26.798    2.2715    0.1547    75.184   200.000     8.217
 3358.1644    38.088    2.2801    0.1690    26.616   200.000     9.169
 3358.3168    34.394    2.2712    0.1177    41.513   200.000     8.835
 3358.4692    24.375    2.2396    0.1921    63.656   200.000     7.993
 3358.6216    14.808    2.2794    0.1378    36.677   200.000     7.888
 3358.7740    34.414    2.2417    0.1855    52.038   200.000     8.998
 3358.9264    31.871    2.2923    0.1815    46.639   200.000     8.676
 3359.0788    32.245    2.2963    0.2064    36.775   200.000     8.075
 3359.2312    28.371    2.2888    0.1706    65.230   200.000     8.256
 3359.3836    38.041    2.2881    0.1730    33.951   200.000     8.882
 3359.5360    31.323    2.2427    0.1722    46.959   200.000     8.119
 3359.6884    29.829    2.2637    0.1506    71.377   200.000     8.171
 3359.8408    22.134    2.3356    0.1442    51.682   200.000     8.983
 3359.9932    31.892    2.2468    0.1739    41.564   200.000     8.568
 3360.1456    29.048    2.2173    0.1907    77.216   200.000     8.535
 3360.2980    27.953    2.1783    0.1568    22.475   200.000     8.555
 3360.4504    35.009    2.3266    0.1937   138.674   200.000     8.636
 3360.6028    32.306    2.2922    0.2033    78.298   200.000     8.684
 3360.7552    34.189    2.2647    0.1700    84.370   200.000     9.072
 3360.9076    28.011    2.1570    0.1485    43.156   200.000     8.757
