~VERSION INFORMATION
 VERS.                 2.0    : CWLS LOG ASCII STANDARD
 WRAP.                 NO     : ONE LINE PER DEPTH STEP
~WELL INFORMATION
 WELL.                 6507/11-5    : Well name
 FLD .                 Norne         : Field
 CTRY.                 Norway       : Country
 STRT.M                2500.0000 : START DEPTH
 STOP.M                3800.0000   : STOP DEPTH
 STEP.M                0.1524        : STEP
 NULL.                 -999.25          : NULL VALUE
 SRVC.                 SubsurfAI        : Service company
~CURVE INFORMATION
 DEPT.M                              : Depth
 GR  .GAPI                           : Gamma Ray
 RHOB.G/C3                           : Bulk Density
 NPHI.V/V                            : Neutron Porosity
 RT  .OHMM                           : True Resistivity
 DT  .US/F                           : Sonic
 CALI.IN                             : Caliper
~PARAMETER INFORMATION
 LAT .                 65.3241   : Latitude
 LON .                 8.0833   : Longitude
 DESC.                 Norne Fm — Åre Formation, Ile/Tofte sandstones
~A  DEPT        GR        RHOB      NPHI      RT        DT        CALI
 2500.0000   103.382    2.4395    0.3462     1.603   169.690     9.148
 2500.1524    93.287    2.5312    0.2341     1.440   200.000     9.286
 2500.3048   112.875    2.5427    0.3257     0.945   170.523     8.524
 2500.4572   121.928    2.5004    0.3922     2.111   148.096     8.115
 2500.6096    87.584    2.4521    0.3578     6.215   162.210     9.671
 2500.7620   131.022    2.4106    0.3765     2.044   149.484     8.794
 2500.9144   116.301    2.5616    0.3555     1.010   160.298     9.022
 2501.0668   106.060    2.5348    0.3365     1.272   165.942     8.565
 2501.2192   126.752    2.4634    0.2962     0.714   191.383     8.730
 2501.3716   113.616    2.5065    0.3698     2.548   153.269     7.942
 2501.5240   119.264    2.4743    0.3985     1.649   147.216     8.145
 2501.6764   109.445    2.4952    0.3570     1.346   144.965     8.922
 2501.8288   118.605    2.4495    0.3149     2.207   181.037     8.364
 2501.9812    95.946    2.5572    0.3455     1.588   158.610     8.277
 2502.1336   121.083    2.5034    0.3463     1.068   158.062     8.058
 2502.2860   101.256    2.5546    0.2663     1.124   200.000     8.429
 2502.4384   127.750    2.4309    0.3578     2.448   154.334     7.996
 2502.5908   122.512    2.4603    0.3001     1.638   191.229     7.772
 2502.7432   118.068    2.5070    0.3267     2.384   167.264     9.005
 2502.8956   106.155    2.4450    0.2810     1.075   198.257     8.708
 2503.0480   110.939    2.4967    0.3328     2.241   170.818     8.926
 2503.2004   116.696    2.4708    0.3523     2.608   156.571     8.407
 2503.3528   121.164    2.4434    0.2903     1.474   192.298     8.303
 2503.5052   109.521    2.4739    0.3042     2.504   174.575     7.695
 2503.6576   115.071    2.4356    0.2980     1.140   184.616     8.218
 2503.8100   127.335    2.4087    0.2941     2.548   185.005     8.345
 2503.9624   114.672    2.6051    0.2369     0.957   200.000     8.365
 2504.1148   114.023    2.5088    0.2754     1.245   200.000     8.349
 2504.2672   112.488    2.4826    0.3322     0.697   164.186     8.041
 2504.4196   126.086    2.5489    0.3192     0.574   173.425     7.983
 2504.5720   116.518    2.5021    0.3337     0.686   163.281     8.091
 2504.7244   117.839    2.6151    0.3167     2.997   174.791     7.929
 2504.8768   108.168    2.4875    0.3089     0.955   172.951     8.825
 2505.0292   114.101    2.5271    0.3473     1.428   160.577     8.341
 2505.1816   122.758    2.3911    0.2840     1.122   189.875     8.143
 2505.3340    89.448    2.5188    0.3248     1.991   171.407     7.794
 2505.4864   132.980    2.4511    0.3470     0.802   164.546     8.347
 2505.6388   118.414    2.3596    0.2541     5.345   200.000     7.864
 2505.7912   107.564    2.4533    0.2963     2.390   187.601     8.415
 2505.9436   129.040    2.5990    0.3628     0.777   149.005     7.695
 2506.0960   117.558    2.4662    0.3924     3.420   138.921     8.417
 2506.2484   129.920    2.5433    0.4125     1.194   140.222     8.353
 2506.4008   128.023    2.5594    0.4216     2.411   138.231     8.569
 2506.5532   121.035    2.4914    0.3823     1.429   141.632     8.090
 2506.7056   132.443    2.5186    0.3800     1.499   156.196     8.647
 2506.8580    93.462    2.4991    0.4119     2.132   138.285     8.980
 2507.0104   106.645    2.5347    0.3321     0.893   167.093     8.015
 2507.1628   121.894    2.4167    0.3547     1.164   162.708     8.887
 2507.3152   125.963    2.5905    0.4137     1.909   132.413     8.040
 2507.4676   117.787    2.5219    0.3250     1.686   164.419     8.033
 2507.6200   134.361    2.4605    0.3080     1.556   185.951     9.074
 2507.7724   125.653    2.5266    0.3398     4.299   158.797     7.979
 2507.9248   107.843    2.5227    0.3111     1.705   181.157     7.688
 2508.0772    98.192    2.4841    0.3619     1.328   149.816     7.592
 2508.2296   102.370    2.4811    0.3150     1.819   175.894     8.661
 2508.3820   118.745    2.4333    0.3515     0.876   158.114     8.576
 2508.5344   125.525    2.6097    0.3058     1.741   177.989     8.871
 2508.6868   117.133    2.5440    0.2916     1.475   191.539     8.329
 2508.8392   101.748    2.5776    0.4149     3.244   148.537     9.098
 2508.9916    89.056    2.5494    0.2929     1.115   187.775     8.403
 2509.1440   105.107    2.4237    0.2596     1.674   200.000     8.375
 2509.2964   122.629    2.5455    0.4098     1.699   147.916     8.394
 2509.4488   129.305    2.5746    0.3482     1.158   159.962     8.276
 2509.6012   108.257    2.3195    0.2950     1.100   182.759     7.971
 2509.7536   102.062    2.4166    0.4678     1.894   136.780     8.157
 2509.9060   139.340    2.4800    0.3308     0.891   167.907     9.019
 2510.0584   139.016    2.4874    0.3416     0.983   162.354     7.992
 2510.2108   123.474    2.4715    0.3478     5.222   167.393     8.583
 2510.3632    91.837    2.4955    0.3101     1.278   178.904     8.792
 2510.5156   136.197    2.5767    0.3089     4.605   179.772     9.254
 2510.6680   140.319    2.5802    0.4194     1.593   140.119     8.187
 2510.8204   129.745    2.5001    0.3075     1.922   178.200     8.139
 2510.9728   128.558    2.5056    0.3278     3.137   169.062     8.307
 2511.1252   132.344    2.5212    0.3333     1.479   165.585     8.632
 2511.2776    99.042    2.5374    0.2934     1.776   186.560     8.014
 2511.4300   114.531    2.4492    0.3232     4.442   164.124     8.557
 2511.5824   118.604    2.5124    0.3763     1.735   149.364     8.354
 2511.7348    98.129    2.5767    0.4072     0.674   143.387     8.252
 2511.8872   126.727    2.5330    0.3163     1.498   161.354     8.175
 2512.0396   100.112    2.5545    0.3428     1.967   153.130     7.784
 2512.1920   128.784    2.3240    0.3593     0.516   141.619     8.568
 2512.3444    85.734    2.5494    0.4123     1.184   131.281     8.040
 2512.4968   100.946    2.5605    0.3120     2.192   176.380     8.874
 2512.6492   128.560    2.4473    0.3334     1.062   168.368     8.330
 2512.8016   103.623    2.4212    0.2630     1.689   200.000     8.299
 2512.9540   135.032    2.5032    0.3954     1.914   136.211     8.560
 2513.1064   116.783    2.5694    0.2859     0.869   200.000     8.792
 2513.2588   122.057    2.5801    0.3473     1.056   163.741     8.581
 2513.4112    98.379    2.5128    0.3289     2.010   168.739     8.372
 2513.5636   106.214    2.6010    0.4113     1.918   144.991     8.265
 2513.7160    95.263    2.5300    0.3333     0.565   167.932     8.758
 2513.8684   111.750    2.4848    0.2025     1.367   200.000     8.692
 2514.0208   124.843    2.4017    0.3665     1.123   147.704     8.740
 2514.1732   141.718    2.5613    0.3661     1.530   152.570     8.434
 2514.3256   126.401    2.5210    0.3668     3.797   149.095     8.204
 2514.4780    94.332    2.5018    0.3579     0.775   155.268     8.493
 2514.6304   115.993    2.6601    0.3668     1.271   156.146     8.636
 2514.7828   107.008    2.4438    0.3527     1.025   159.460     8.518
 2514.9352   111.017    2.5059    0.3278     1.899   171.036     8.493
 2515.0876   118.914    2.5019    0.1789     1.855   200.000     7.971
 2515.2400   106.189    2.5663    0.3095     4.394   181.209     8.620
 2515.3924   130.174    2.4506    0.3585     1.288   152.846     9.047
 2515.5448   129.961    2.5202    0.3654     2.698   153.492     8.794
 2515.6972    96.374    2.4784    0.3377     2.710   160.970     8.741
 2515.8496   105.213    2.4879    0.2769     4.040   191.612     9.313
 2516.0020   115.500    2.4625    0.2176     1.247   200.000     8.462
 2516.1544   101.681    2.5397    0.4221     2.214   144.546     8.442
 2516.3068    99.944    2.5032    0.3505     0.921   156.875     8.127
 2516.4592   108.959    2.4902    0.2761     1.066   200.000     8.815
 2516.6116   100.867    2.4810    0.3561     1.409   159.821     8.898
 2516.7640   123.793    2.5533    0.2934     1.258   179.994     8.723
 2516.9164   137.903    2.4746    0.3137     1.345   177.863     9.069
 2517.0688   121.932    2.5716    0.3531     1.746   156.012     7.763
