~VERSION INFORMATION
 VERS.                 2.0    : CWLS LOG ASCII STANDARD
 WRAP.                 NO     : ONE LINE PER DEPTH STEP
~WELL INFORMATION
 WELL.                 6507/11-5    : Well name
 FLD .                 Norne         : Field
 CTRY.                 Norway       : Country
 STRT.M                2500.0000 : START DEPTH
 STOP.M                3800.0000   : STOP DEPTH
 STEP.M                0.1524        : STEP
 NULL.                 -999.25          : NULL VALUE
 SRVC.                 SubsurfAI        : Service company
~CURVE INFORMATION
 DEPT.M                              : Depth
 GR  .GAPI                           : Gamma Ray
 RHOB.G/C3                           : Bulk Density
 NPHI.V/V                            : Neutron Porosity
 RT  .OHMM                           : True Resistivity
 DT  .US/F                           : Sonic
 CALI.IN                             : Caliper
~PARAMETER INFORMATION
 LAT .                 65.3241   : Latitude
 LON .                 8.0833   : Longitude
 DESC.                 Norne Fm — Åre Formation, Ile/Tofte sandstones
~A  DEPT        GR        RHOB      NPHI      RT        DT        CALI
# ...
 3688.2628    90.412    2.4172    0.3709     1.084   157.183     8.954
 3688.4152    98.079    2.5504    0.3252     2.211   170.074     8.698
 3688.5676    68.913    2.4232    0.3368     5.043   157.621     8.741
 3688.7200   109.748    2.5338    0.2903     1.348   189.272     8.843
 3688.8724    86.098    2.4246    0.3308     2.053   174.618     8.632
 3689.0248   113.497    2.5029    0.2817     0.936   199.588     8.225
 3689.1772    81.181    2.3951    0.3535     2.917   154.568     8.811
 3689.3296   128.581    2.4503    0.3491     1.086   152.697     9.122
 3689.4820   106.725    2.4893    0.3149     5.539   175.320     8.822
 3689.6344    96.736    2.4264    0.2487     2.539   200.000     8.853
 3689.7868    58.841    2.4592    0.3432     0.875   155.612     8.184
 3689.9392   107.164    2.5942    0.3520     0.964   156.821     8.522
 3690.0916   102.632    2.4831    0.3323     3.114   171.413     8.912
 3690.2440    88.274    2.4366    0.2779     1.785   200.000     9.082
 3690.3964    79.907    2.5158    0.3093     4.363   179.630     9.092
 3690.5488   123.960    2.4502    0.3447     1.411   159.981     8.614
 3690.7012   122.287    2.4811    0.3366     2.554   165.535     8.578
 3690.8536    99.563    2.3649    0.3124     0.787   179.567     9.383
 3691.0060   126.782    2.4734    0.2968     1.446   186.732     8.240
 3691.1584   103.551    2.5070    0.3100     3.146   177.691     8.532
 3691.3108   112.189    2.4892    0.3480     1.905   162.102     7.962
 3691.4632    94.411    2.4642    0.2867     4.453   195.499     8.335
 3691.6156   115.960    2.5009    0.2931     2.026   187.206     8.362
 3691.7680    90.893    2.5501    0.2644     0.891   200.000     8.751
 3691.9204    99.408    2.4494    0.3173     1.182   173.121     9.321
 3692.0728   119.030    2.5278    0.3259     5.717   159.936     8.502
 3692.2252    97.785    2.4928    0.3470     1.513   154.775     8.418
 3692.3776   124.764    2.5779    0.2814     3.001   197.705     8.096
 3692.5300   108.858    2.5258    0.2910     1.915   185.480     8.708
 3692.6824   110.812    2.3975    0.3192     2.331   173.323     8.994
 3692.8348   104.259    2.4690    0.3115     2.490   173.227     8.186
 3692.9872   129.528    2.5426    0.3236     2.331   172.558     8.851
 3693.1396   114.251    2.4835    0.2957     2.008   199.120     8.332
 3693.2920   112.959    2.4526    0.3030     1.692   177.648     8.006
 3693.4444    98.436    2.4633    0.3837     1.428   145.544     8.602
 3693.5968    96.799    2.4283    0.2476     3.751   200.000     8.272
 3693.7492   114.262    2.4980    0.3269     3.964   171.993     8.744
 3693.9016   115.183    2.4448    0.3409     1.540   165.962     8.601
 3694.0540   100.540    2.5549    0.2988     1.388   175.383     9.041
 3694.2064   105.447    2.4101    0.3568     3.316   160.204     8.845
 3694.3588   116.347    2.4145    0.3421     2.488   152.268     8.314
 3694.5112   120.348    2.4682    0.4169     2.878   140.250     8.855
 3694.6636   125.235    2.4558    0.3464     2.054   154.982     8.472
 3694.8160   112.295    2.4988    0.3200     3.672   173.907     8.539
 3694.9684    92.503    2.4653    0.3348     3.463   157.918     9.189
 3695.1208   117.327    2.4731    0.3166     2.655   174.397     8.169
 3695.2732    96.946    2.4095    0.2326     1.701   200.000     8.849
 3695.4256   102.768    2.4688    0.2581     3.940   200.000     8.801
 3695.5780   106.444    2.5487    0.3528     1.904   152.507     8.950
 3695.7304    99.779    2.4997    0.2700     1.676   200.000     8.679
 3695.8828   106.307    2.4304    0.2005     2.698   200.000     8.927
 3696.0352   103.137    2.4683    0.3451     2.497   160.724     8.770
 3696.1876   113.441    2.6004    0.3300     1.230   176.941     9.175
 3696.3400    94.205    2.4500    0.3103     2.471   182.704     8.671
 3696.4924   115.567    2.4033    0.2636     1.518   200.000     8.753
 3696.6448   105.241    2.5170    0.2935     2.226   188.300     8.607
 3696.7972   112.635    2.3749    0.3573     1.654   152.122     8.501
 3696.9496   101.516    2.4214    0.3052     1.320   190.882     9.418
 3697.1020   106.471    2.4406    0.4122     1.075   138.608     8.245
 3697.2544   110.545    2.5092    0.2977     2.555   188.841     7.918
 3697.4068   109.976    2.4604    0.2949     1.026   190.078     8.436
 3697.5592   114.089    2.4554    0.3238     2.444   179.084     9.055
 3697.7116   134.409    2.5038    0.3029     2.167   165.582     8.444
 3697.8640   114.540    2.4129    0.3881     1.970   147.364     7.609
 3698.0164   115.182    2.4869    0.3339     1.153   165.843     8.531
 3698.1688   115.406    2.4126    0.3467     3.756   157.889     7.681
 3698.3212   118.666    2.4797    0.3547     2.383   155.762     7.838
 3698.4736   110.273    2.4697    0.2908     0.865   198.140     7.876
 3698.6260    99.200    2.5325    0.2393     1.831   200.000     8.871
 3698.7784   107.039    2.4137    0.3451     1.600   154.952     8.083
 3698.9308    89.837    2.4162    0.3974     1.786   134.816     9.325
 3699.0832   106.478    2.4500    0.3023     1.542   182.483     7.983
 3699.2356    92.918    2.4559    0.3652     1.299   156.827     8.624
 3699.3880    89.129    2.5368    0.3677     1.288   151.346     8.631
 3699.5404    88.987    2.5008    0.3883     1.250   151.410     8.273
 3699.6928    96.586    2.4993    0.2772     1.918   200.000     8.757
 3699.8452   112.072    2.4264    0.3762     1.270   140.034     8.501
 3699.9976   132.455    2.4232    0.3076     2.957   175.176     7.557
 3700.1500   110.702    2.4979    0.2546     3.777   200.000     8.445
 3700.3024   123.253    2.5241    0.2680     3.397   195.243     9.311
 3700.4548   116.264    2.3996    0.3240     2.005   174.962     8.216
 3700.6072   106.977    2.4487    0.2579     4.391   200.000     8.457
 3700.7596    93.138    2.4903    0.3120     1.002   181.574     8.384
 3700.9120    89.734    2.4399    0.3388     2.198   156.514     7.742
 3701.0644   126.170    2.4566    0.4210     1.274   138.075     8.599
 3701.2168   106.776    2.5092    0.3852     3.206   134.871     8.443
 3701.3692   102.959    2.6068    0.4256     1.746   133.440     8.053
 3701.5216   110.518    2.4230    0.3737     1.075   150.757     8.302
 3701.6740    84.968    2.4737    0.3816     2.505   150.085     8.954
 3701.8264    91.856    2.5015    0.3323     2.397   164.065     8.353
 3701.9788   102.617    2.5237    0.3450     1.438   154.347     9.205
 3702.1312   114.054    2.4556    0.3358     3.200   163.461     8.159
 3702.2836    98.216    2.4456    0.3807     1.171   139.003     8.077
 3702.4360   104.227    2.4448    0.2857     2.059   189.615     9.126
 3702.5884   109.260    2.3333    0.3087     1.891   181.054     8.503
 3702.7408   102.132    2.4524    0.3696     1.816   151.039     8.491
 3702.8932   132.416    2.4189    0.2819     1.725   190.146     8.554
 3703.0456   106.149    2.5385    0.3792     1.230   144.163     8.750
 3703.1980    94.707    2.4579    0.3579     2.061   146.743     8.614
 3703.3504   109.790    2.4782    0.3726     2.458   146.052     8.903
 3703.5028   141.523    2.4603    0.2621     1.912   200.000     8.458
 3703.6552   117.048    2.5286    0.2732     4.739   196.068     8.840
 3703.8076   109.528    2.5520    0.4027     2.646   135.120     7.858
 3703.9600   143.553    2.4768    0.2625     2.711   200.000     8.951
 3704.1124    99.712    2.3889    0.3744     2.697   152.737     8.718
 3704.2648    89.194    2.5203    0.2628     1.542   200.000     8.150
 3704.4172   133.337    2.5119    0.3103     1.838   175.192     9.034
 3704.5696    94.908    2.4236    0.2754     1.273   198.285     8.768
 3704.7220   126.412    2.5603    0.2863     3.039   191.235     9.198
 3704.8744   119.874    2.4697    0.3742     4.245   150.051     8.099
 3705.0268   110.717    2.5420    0.2578     0.696   200.000     8.883
 3705.1792   119.142    2.5193    0.4307     1.477   131.147     8.293
 3705.3316   109.526    2.5065    0.3143     1.971   169.580     7.981
