~VERSION INFORMATION
 VERS.                 2.0    : CWLS LOG ASCII STANDARD
 WRAP.                 NO     : ONE LINE PER DEPTH STEP
~WELL INFORMATION
 WELL.                 6507/11-5    : Well name
 FLD .                 Norne         : Field
 CTRY.                 Norway       : Country
 STRT.M                2500.0000 : START DEPTH
 STOP.M                3800.0000   : STOP DEPTH
 STEP.M                0.1524        : STEP
 NULL.                 -999.25          : NULL VALUE
 SRVC.                 SubsurfAI        : Service company
~CURVE INFORMATION
 DEPT.M                              : Depth
 GR  .GAPI                           : Gamma Ray
 RHOB.G/C3                           : Bulk Density
 NPHI.V/V                            : Neutron Porosity
 RT  .OHMM                           : True Resistivity
 DT  .US/F                           : Sonic
 CALI.IN                             : Caliper
~PARAMETER INFORMATION
 LAT .                 65.3241   : Latitude
 LON .                 8.0833   : Longitude
 DESC.                 Norne Fm — Åre Formation, Ile/Tofte sandstones
~A  DEPT        GR        RHOB      NPHI      RT        DT        CALI
# ...
 3429.9448    31.977    2.3167    0.2199    61.170   200.000     8.499
 3430.0972    27.883    2.2704    0.1541    44.829   200.000     7.591
 3430.2496    32.150    2.2569    0.1498    44.271   200.000     8.851
 3430.4020    21.177    2.2658    0.1969    25.715   200.000     8.218
 3430.5544    27.022    2.2527    0.1477   144.308   200.000     8.107
 3430.7068    32.581    2.2597    0.1480    44.180   200.000     8.599
 3430.8592    20.805    2.2309    0.1394    55.825   200.000     9.278
 3431.0116    32.326    2.2632    0.1926    88.853   200.000     8.653
 3431.1640    25.355    2.3122    0.1558    66.795   200.000     8.716
 3431.3164    29.090    2.3222    0.1393    56.998   200.000     8.276
 3431.4688    34.166    2.2523    0.1940    53.908   200.000     9.016
 3431.6212    24.101    2.2479    0.1927    35.284   200.000     8.182
 3431.7736    29.621    2.2826    0.1950    54.093   200.000     8.362
 3431.9260    20.035    2.3597    0.1695    47.498   200.000     7.832
 3432.0784    36.717    2.3320    0.1847   104.272   200.000     8.450
 3432.2308    30.417    2.2591    0.1782    26.566   200.000     8.317
 3432.3832    37.184    2.3415    0.1502    65.231   200.000     8.255
 3432.5356    29.230    2.2379    0.1460    33.968   200.000     8.482
 3432.6880    38.642    2.3135    0.2074   101.266   200.000     8.978
 3432.8404    27.453    2.2657    0.1501    79.950   200.000     8.086
 3432.9928    30.694    2.3005    0.1593    46.520   200.000     8.564
 3433.1452    26.628    2.3203    0.1934    40.388   200.000     8.559
 3433.2976    28.882    2.1559    0.1769    55.937   200.000     8.373
 3433.4500    34.578    2.2140    0.1818    70.097   200.000     8.376
 3433.6024    27.755    2.1919    0.1680    39.544   200.000     8.479
 3433.7548    30.209    2.2130    0.1201    29.346   200.000     8.664
 3433.9072    36.584    2.2639    0.1395    65.185   200.000     9.496
 3434.0596    19.253    2.2205    0.1407    59.356   200.000     8.189
 3434.2120    41.666    2.2425    0.1671    48.472   200.000     7.980
 3434.3644    32.531    2.2347    0.1530    49.169   200.000     7.430
 3434.5168    34.845    2.2954    0.1364    19.689   200.000     8.296
 3434.6692    32.807    2.3382    0.1831    44.970   200.000     8.174
 3434.8216    25.824    2.2323    0.1922    39.144   200.000     8.034
 3434.9740    32.819    2.2916    0.1594    40.645   200.000     8.230
 3435.1264    30.806    2.3101    0.1559    73.635   200.000     7.875
 3435.2788    27.374    2.3340    0.1340    30.968   200.000     8.170
 3435.4312    23.887    2.2675    0.1854    73.351   200.000     9.089
 3435.5836    32.605    2.2897    0.1812    33.951   200.000     8.696
 3435.7360    24.408    2.2455    0.2049    67.518   200.000     8.503
 3435.8884    33.465    2.2366    0.1817   153.339   200.000     7.888
 3436.0408    34.344    2.2663    0.1761    73.518   200.000     7.838
 3436.1932    30.485    2.2621    0.1488    70.107   200.000     8.448
 3436.3456    31.117    2.1238    0.1711    41.757   200.000     8.865
 3436.4980    41.540    2.2653    0.1667    58.038   200.000     8.552
 3436.6504    41.502    2.2466    0.1444    67.942   200.000     8.432
 3436.8028    29.907    2.2567    0.1955    30.517   200.000     9.205
 3436.9552    29.422    2.2764    0.1548    79.981   200.000     8.617
 3437.1076    31.183    2.2812    0.1734    60.124   200.000     7.868
 3437.2600    30.749    2.2813    0.1591    43.675   200.000     8.753
 3437.4124    36.597    2.2815    0.1510    52.217   200.000     8.652
 3437.5648    34.650    2.2163    0.1831    48.301   200.000     8.114
 3437.7172    23.808    2.3061    0.1780    70.276   200.000     8.814
 3437.8696    32.912    2.3285    0.1416    43.719   200.000     8.874
 3438.0220    29.150    2.3613    0.1170    69.057   200.000     8.762
 3438.1744    31.963    2.2073    0.1278   122.959   200.000     9.258
 3438.3268    34.515    2.2995    0.1717   127.134   200.000     8.989
 3438.4792    37.203    2.2685    0.2085    24.354   200.000     8.508
 3438.6316    37.248    2.2795    0.1355    59.184   200.000     8.128
 3438.7840    31.842    2.2032    0.1491    41.715   200.000     8.812
 3438.9364    31.598    2.3060    0.1597    66.909   200.000     8.050
 3439.0888    32.666    2.2518    0.2084    72.698   200.000     8.050
 3439.2412    39.663    2.1722    0.1266    51.375   200.000     8.321
 3439.3936    30.972    2.3516    0.1682    73.152   200.000     8.740
 3439.5460    22.050    2.3154    0.1662    67.558   200.000     8.236
 3439.6984    30.660    2.2643    0.1379    57.706   200.000     8.115
 3439.8508    22.307    2.2345    0.1916    55.248   200.000     8.493
 3440.0032    34.267    2.2684    0.1725    52.956   200.000     9.097
 3440.1556    30.162    2.3035    0.1657    49.018   200.000     8.439
 3440.3080    27.305    2.2926    0.1771    28.969   200.000     8.478
 3440.4604    31.512    2.2494    0.1720   111.747   200.000     8.241
 3440.6128    34.147    2.2625    0.1604    23.670   200.000     8.524
 3440.7652    29.705    2.1935    0.1366    64.570   200.000     8.421
 3440.9176    37.379    2.2317    0.1299    94.941   200.000     7.885
 3441.0700    28.863    2.1840    0.1645    47.736   200.000     9.579
 3441.2224    32.636    2.2247    0.1806    41.118   200.000     8.070
 3441.3748    33.066    2.3061    0.1788    56.963   200.000     8.410
 3441.5272    28.043    2.2912    0.1806    37.822   200.000     8.054
 3441.6796    24.583    2.3572    0.1794    29.850   200.000     8.392
 3441.8320    40.619    2.3346    0.1607    92.084   200.000     8.778
 3441.9844    41.684    2.2648    0.2131    30.087   200.000     9.416
 3442.1368    40.709    2.2746    0.1859    58.860   200.000     8.396
 3442.2892    37.238    2.2780    0.1658    41.776   200.000     9.206
 3442.4416    26.637    2.2744    0.1543    58.142   200.000     8.802
 3442.5940    39.379    2.2372    0.1710    45.830   200.000     8.800
 3442.7464    25.576    2.2425    0.1380    44.894   200.000     8.761
 3442.8988    34.270    2.2822    0.1704    39.643   200.000     8.337
 3443.0512    27.234    2.1991    0.1610   119.963   200.000     8.748
 3443.2036    30.658    2.2045    0.1452    88.619   200.000     8.688
 3443.3560    40.969    2.3154    0.1664    53.389   200.000     8.205
 3443.5084    32.034    2.1743    0.1852    80.419   200.000     8.477
 3443.6608    30.401    2.2191    0.1827    35.717   200.000     8.304
 3443.8132    37.614    2.2986    0.1570    21.880   200.000     7.992
 3443.9656    39.031    2.2548    0.1804    46.667   200.000     8.346
 3444.1180    31.091    2.2509    0.1426   101.390   200.000     8.693
 3444.2704    37.901    2.3258    0.1857    85.462   200.000     8.448
 3444.4228    32.898    2.1992    0.1679    58.431   200.000     8.669
 3444.5752    35.969    2.2990    0.1676    48.030   200.000     8.864
 3444.7276    34.892    2.3106    0.1582    67.733   200.000     8.855
 3444.8800    30.596    2.2782    0.1511    42.074   200.000     8.853
 3445.0324    25.424    2.2260    0.1966    89.960   200.000     8.434
 3445.1848    32.270    2.3533    0.1691    38.077   200.000     8.770
 3445.3372    29.850    2.2674    0.1727   110.855   200.000     9.154
 3445.4896    29.045    2.2782    0.1607    99.900   200.000     8.399
 3445.6420    29.931    2.2227    0.1923    64.984   200.000     7.750
 3445.7944    29.228    2.2774    0.1656    44.531   200.000     8.499
 3445.9468    26.142    2.2263    0.1693    43.297   200.000     8.396
 3446.0992    33.411    2.2463    0.1428    82.727   200.000     8.610
 3446.2516    35.329    2.2591    0.1499    68.407   200.000     8.140
 3446.4040    31.240    2.2677    0.1642    62.357   200.000     8.380
 3446.5564    35.147    2.2712    0.1961    18.625   200.000     8.347
 3446.7088    39.893    2.2444    0.1617    48.239   200.000     8.759
 3446.8612    31.369    2.2126    0.1552    84.553   200.000     8.454
 3447.0136    35.636    2.2586    0.2113    43.840   200.000     8.857
