~VERSION INFORMATION
 VERS.                 2.0    : CWLS LOG ASCII STANDARD
 WRAP.                 NO     : ONE LINE PER DEPTH STEP
~WELL INFORMATION
 WELL.                 6507/11-5    : Well name
 FLD .                 Norne         : Field
 CTRY.                 Norway       : Country
 STRT.M                2500.0000 : START DEPTH
 STOP.M                3800.0000   : STOP DEPTH
 STEP.M                0.1524        : STEP
 NULL.                 -999.25          : NULL VALUE
 SRVC.                 SubsurfAI        : Service company
~CURVE INFORMATION
 DEPT.M                              : Depth
 GR  .GAPI                           : Gamma Ray
 RHOB.G/C3                           : Bulk Density
 NPHI.V/V                            : Neutron Porosity
 RT  .OHMM                           : True Resistivity
 DT  .US/F                           : Sonic
 CALI.IN                             : Caliper
~PARAMETER INFORMATION
 LAT .                 65.3241   : Latitude
 LON .                 8.0833   : Longitude
 DESC.                 Norne Fm — Åre Formation, Ile/Tofte sandstones
~A  DEPT        GR        RHOB      NPHI      RT        DT        CALI
# ...
 3171.6268    19.884    1.6578    0.5912   158.773   135.331     8.567
 3171.7792    23.451    1.6080    0.5765   227.201   136.222     8.962
 3171.9316    20.062    1.6336    0.5196   297.559   132.863     8.186
 3172.0840    24.057    1.5494    0.5970   278.638   146.186     9.407
 3172.2364    20.694    1.6082    0.5146   606.601   144.892     8.046
 3172.3888    25.560    1.6531    0.4431  1112.252   134.876     8.160
 3172.5412    17.575    1.5699    0.5680   741.676   140.166     7.970
 3172.6936    23.481    1.6086    0.6000   439.860   141.864     8.207
 3172.8460    12.990    1.5768    0.6000   507.451   141.563     8.086
 3172.9984    18.782    1.6209    0.5588   821.000   144.237     7.891
 3173.1508    18.127    1.5645    0.3908   342.480   138.888     8.370
 3173.3032    27.282    1.6324    0.6000   588.761   136.196     8.474
 3173.4556    24.504    1.5902    0.5049   314.139   138.095     8.378
 3173.6080    30.551    1.5775    0.5327   416.592   142.776     8.474
 3173.7604    24.520    1.5677    0.4877   431.082   135.478     8.493
 3173.9128    21.325    1.6363    0.3992   291.425   143.299     8.672
 3174.0652    19.320    1.5851    0.5740   426.169   136.778     8.783
 3174.2176    22.466    1.5902    0.5067   310.054   126.241     7.880
 3174.3700    19.969    1.6567    0.5857   727.087   139.639     8.255
 3174.5224    24.259    1.6257    0.4696   530.333   123.479     8.435
 3174.6748    18.285    1.5329    0.5697   660.636   141.304     7.998
 3174.8272    24.052    1.5418    0.6000   518.010   128.806     9.000
 3174.9796    27.589    1.6073    0.4701   519.264   137.303     8.465
 3175.1320    13.595    1.6040    0.5831   223.171   136.395     8.949
 3175.2844    18.989    1.6354    0.5107   513.304   151.164     8.629
 3175.4368    13.020    1.5847    0.5099   254.526   134.029     8.866
 3175.5892    22.349    1.6272    0.6000   367.290   139.716     8.772
 3175.7416    15.805    1.6268    0.5263   537.099   140.185     8.882
 3175.8940    16.591    1.6163    0.6000   773.079   132.175     8.573
 3176.0464    24.442    1.5718    0.5665   452.686   127.567     9.041
 3176.1988    12.352    1.6202    0.5563   764.007   131.635     8.036
 3176.3512    18.144    1.5975    0.5752   310.311   133.796     8.795
 3176.5036    24.399    1.5781    0.5606   384.795   138.544     8.881
 3176.6560    15.711    1.6238    0.5556   367.873   137.647     9.025
 3176.8084    17.668    1.5770    0.4703   468.085   143.366     8.625
 3176.9608    17.763    1.6406    0.6000   289.509   140.932     8.106
 3177.1132    21.646    1.5873    0.6000   715.314   135.383     8.486
 3177.2656    18.264    1.6266    0.5469   212.449   139.894     7.608
 3177.4180    22.939    1.5737    0.5395   237.145   137.653     8.365
 3177.5704    25.474    1.5393    0.4190   563.022   137.421     9.183
 3177.7228    17.161    1.5508    0.4894   418.245   140.197     8.715
 3177.8752    21.933    1.6078    0.6000   415.311   126.296     8.954
 3178.0276    14.461    1.6130    0.6000   599.385   139.708     8.892
 3178.1800    21.557    1.6079    0.4515   261.051   138.171     8.132
 3178.3324    21.999    1.5833    0.6000   570.586   140.424     8.831
 3178.4848    21.882    1.6121    0.6000   442.423   145.191     8.763
 3178.6372    24.855    1.5727    0.6000   668.879   136.632     8.385
 3178.7896    17.882    1.5936    0.5527  1228.141   137.959     8.168
 3178.9420    13.560    1.6167    0.6000  1115.540   134.082     7.437
 3179.0944    19.787    1.6584    0.5449  1083.088   135.227     8.791
 3179.2468    19.042    1.6638    0.5582   278.873   133.438     7.598
 3179.3992    23.588    1.6328    0.4167   495.647   141.528     8.429
 3179.5516    19.393    1.6408    0.5919   446.736   136.347     9.378
 3179.7040    17.320    1.5931    0.4598   319.617   144.119     8.757
 3179.8564     7.855    1.6154    0.5091   291.342   141.107     8.649
 3180.0088    23.097    1.5650    0.6000   274.688   139.226     8.405
 3180.1612    23.457    1.5639    0.4431   745.579   129.971     8.399
 3180.3136    17.395    1.5987    0.5292   330.280   142.764     9.215
 3180.4660    23.497    1.5162    0.5174   526.984   135.081     8.739
 3180.6184    24.329    1.6430    0.5356   454.274   139.569     9.007
 3180.7708    19.066    1.6190    0.6000   250.415   138.590     8.346
 3180.9232    21.709    1.5249    0.5771   635.533   142.116     8.743
 3181.0756    14.777    1.5987    0.6000   803.033   146.491     9.043
 3181.2280    23.467    1.6361    0.6000   773.627   140.227     8.523
 3181.3804    17.735    1.6286    0.5373   288.527   141.178     8.427
 3181.5328    17.328    1.5610    0.5604  1083.386   138.290     7.912
 3181.6852    27.593    1.5903    0.4208   364.976   133.761     8.668
 3181.8376    25.044    1.5944    0.4852   392.035   135.657     8.506
 3181.9900    24.160    1.6505    0.4681   609.973   137.223     8.085
 3182.1424    17.295    1.6221    0.5862   341.059   132.628     8.689
 3182.2948    25.151    1.6272    0.5141  1134.379   132.974     8.219
 3182.4472    13.133    1.5917    0.4875   954.519   129.621     8.842
 3182.5996    20.842    1.5777    0.6000  1006.026   132.934     8.301
 3182.7520    22.557    1.5992    0.5563  1205.119   141.714     8.677
 3182.9044    17.264    1.5443    0.4900   276.325   133.883     8.587
 3183.0568    25.837    1.5668    0.5420   984.811   140.385     8.909
 3183.2092    17.515    1.6301    0.4003   881.523   136.060     8.604
 3183.3616    24.782    1.6184    0.6000   546.902   138.770     7.886
 3183.5140    15.317    1.5607    0.4599   238.477   139.510     7.960
 3183.6664    16.988    1.5883    0.4808   339.565   137.162     8.995
 3183.8188    24.559    1.6060    0.5143   997.700   127.447     8.445
 3183.9712    21.732    1.5956    0.5878   892.516   131.174     8.460
 3184.1236    20.252    1.6197    0.5703   413.910   144.916     8.148
 3184.2760    20.598    1.5892    0.5116   299.577   139.282     8.203
 3184.4284    24.686    1.5955    0.4549  1426.255   138.022     8.173
 3184.5808    14.284    1.5793    0.4493   353.151   135.144     7.696
 3184.7332    26.468    1.5849    0.5975  1265.112   129.048     8.626
 3184.8856    19.030    1.6308    0.4599   561.852   145.048     8.012
 3185.0380    16.448    1.6468    0.5233   721.639   140.493     7.940
 3185.1904    25.935    1.6317    0.5661   388.123   123.740     8.413
 3185.3428    26.830    1.5996    0.6000   354.688   148.397     8.258
 3185.4952    14.689    1.6575    0.4974   309.862   139.661     8.783
 3185.6476    22.783    1.5464    0.4523   390.209   127.041     8.382
 3185.8000    19.981    1.6411    0.6000   383.934   139.111     8.860
 3185.9524    23.067    1.5902    0.5934  1009.182   135.181     8.468
 3186.1048    19.209    1.6146    0.5786   623.257   141.252     8.389
 3186.2572    22.585    1.5683    0.6000   503.089   135.570     8.468
 3186.4096    20.537    1.5332    0.5945   490.332   134.481     8.663
 3186.5620    21.483    1.5539    0.6000   835.664   134.333     8.572
 3186.7144    24.686    1.6202    0.4656  1732.338   131.156     9.122
 3186.8668    19.219    1.5604    0.5164   654.194   143.014     8.665
 3187.0192    21.879    1.5998    0.5692  1095.608   139.208     8.277
 3187.1716    26.460    1.5963    0.6000   389.632   130.612     8.790
 3187.3240    19.499    1.6193    0.5701   142.790   138.793     8.058
 3187.4764    26.284    1.6084    0.4374   346.416   140.520     9.120
 3187.6288    24.064    1.5888    0.5995   817.437   149.056     8.392
 3187.7812    14.054    1.6006    0.5285   511.305   139.274     8.712
 3187.9336    17.473    1.6363    0.4310   436.798   138.730     9.232
 3188.0860    14.814    1.5560    0.5780   462.143   144.517     8.566
 3188.2384    17.031    1.6248    0.5506  1027.962   138.915     9.147
 3188.3908    26.384    1.5779    0.6000   204.513   125.949     9.066
 3188.5432    23.021    1.5682    0.5535   517.749   142.771     8.466
 3188.6956    19.607    1.5841    0.4792   562.407   134.585     8.840
