~VERSION INFORMATION
 VERS.                 2.0    : CWLS LOG ASCII STANDARD
 WRAP.                 NO     : ONE LINE PER DEPTH STEP
~WELL INFORMATION
 WELL.                 6507/11-5    : Well name
 FLD .                 Norne         : Field
 CTRY.                 Norway       : Country
 STRT.M                2500.0000 : START DEPTH
 STOP.M                3800.0000   : STOP DEPTH
 STEP.M                0.1524        : STEP
 NULL.                 -999.25          : NULL VALUE
 SRVC.                 SubsurfAI        : Service company
~CURVE INFORMATION
 DEPT.M                              : Depth
 GR  .GAPI                           : Gamma Ray
 RHOB.G/C3                           : Bulk Density
 NPHI.V/V                            : Neutron Porosity
 RT  .OHMM                           : True Resistivity
 DT  .US/F                           : Sonic
 CALI.IN                             : Caliper
~PARAMETER INFORMATION
 LAT .                 65.3241   : Latitude
 LON .                 8.0833   : Longitude
 DESC.                 Norne Fm — Åre Formation, Ile/Tofte sandstones
~A  DEPT        GR        RHOB      NPHI      RT        DT        CALI
# ...
 2844.4240    31.048    2.3740    0.1918    32.272   200.000     8.841
 2844.5764    43.669    2.3418    0.1998    41.255   200.000     8.406
 2844.7288    32.867    2.3456    0.1957    54.771   200.000     8.758
 2844.8812    36.541    2.3402    0.2264    36.578   200.000     8.926
 2845.0336    34.058    2.2781    0.1929    30.495   200.000     8.191
 2845.1860    28.824    2.3994    0.1754    54.726   200.000     9.106
 2845.3384    40.458    2.3219    0.1604    39.389   200.000     7.881
 2845.4908    36.852    2.3166    0.2077    64.969   200.000     8.683
 2845.6432    37.072    2.3214    0.1812    42.539   200.000     9.231
 2845.7956    28.262    2.2850    0.1999    28.181   200.000     8.051
 2845.9480    32.903    2.2977    0.1856    16.563   200.000     7.815
 2846.1004    32.308    2.2867    0.2296    25.454   200.000     8.484
 2846.2528    39.385    2.3278    0.2304    20.530   200.000     8.026
 2846.4052    36.726    2.3143    0.1654    35.907   200.000     8.766
 2846.5576    33.185    2.2570    0.1379    31.816   200.000     8.478
 2846.7100    28.897    2.2979    0.1796    26.781   200.000     8.278
 2846.8624    35.196    2.2396    0.2127    25.495   200.000     8.338
 2847.0148    46.185    2.3085    0.1982    15.302   200.000     8.138
 2847.1672    42.226    2.3073    0.1787    20.521   200.000     8.234
 2847.3196    33.670    2.2334    0.1633    29.520   200.000     8.838
 2847.4720    39.904    2.2673    0.2035    38.122   200.000     9.227
 2847.6244    27.260    2.3505    0.2171    38.802   200.000     8.951
 2847.7768    27.870    2.3451    0.1251    55.375   200.000     8.242
 2847.9292    37.933    2.2974    0.2002    45.459   200.000     8.964
 2848.0816    25.230    2.2243    0.1813    37.944   200.000     9.010
 2848.2340    38.684    2.2366    0.1491    20.286   200.000     8.998
 2848.3864    45.417    2.2165    0.2006    17.846   200.000     8.461
 2848.5388    36.147    2.2681    0.1961    16.961   200.000     8.197
 2848.6912    43.752    2.2966    0.2053    48.232   200.000     8.568
 2848.8436    40.304    2.2946    0.1596    36.972   200.000     8.515
 2848.9960    42.552    2.2270    0.2185    12.508   200.000     8.404
 2849.1484    36.156    2.2687    0.1771    20.819   200.000     9.094
 2849.3008    34.229    2.3104    0.1885    37.673   200.000     8.347
 2849.4532    34.763    2.3314    0.1925    39.338   200.000     8.805
 2849.6056    43.016    2.3407    0.1956    31.361   200.000     8.397
 2849.7580    36.309    2.3036    0.1893    26.977   200.000     8.145
 2849.9104    44.353    2.3310    0.1324    52.354   200.000     8.455
 2850.0628    46.401    2.3248    0.2154    37.855   200.000     8.613
 2850.2152    43.261    2.3604    0.2174    41.267   200.000     7.900
 2850.3676    44.616    2.2988    0.1686    15.998   200.000     8.937
 2850.5200    33.429    2.3610    0.1627    35.967   200.000     8.804
 2850.6724    44.694    2.3148    0.1646    21.784   200.000     8.367
 2850.8248    38.624    2.4121    0.2009    47.222   200.000     7.759
 2850.9772    39.103    2.2468    0.1625    78.244   200.000     7.954
 2851.1296    37.741    2.2777    0.1854    36.482   200.000     8.623
 2851.2820    27.867    2.2470    0.1680    35.585   200.000     8.515
 2851.4344    38.315    2.2681    0.1754    42.368   200.000     7.945
 2851.5868    33.401    2.3311    0.1592    32.251   200.000     8.780
 2851.7392    33.089    2.3133    0.2408    46.707   200.000     8.516
 2851.8916    43.230    2.3213    0.1518    30.318   200.000     7.882
 2852.0440    46.196    2.3627    0.1357    91.206   200.000     9.133
 2852.1964    36.977    2.2269    0.1731    31.010   200.000     8.675
 2852.3488    47.030    2.3417    0.2009    49.129   200.000     9.277
 2852.5012    36.971    2.2586    0.1963    40.923   200.000     8.278
 2852.6536    35.726    2.3400    0.1648    80.769   200.000     8.841
 2852.8060    42.419    2.2738    0.1956    49.022   200.000     8.552
 2852.9584    38.419    2.3221    0.1932    54.729   200.000     8.750
 2853.1108    51.210    2.2531    0.2277    51.087   200.000     8.193
 2853.2632    36.611    2.3043    0.1571    17.692   200.000     8.379
 2853.4156    30.143    2.2964    0.2016    52.335   200.000     8.254
 2853.5680    34.497    2.3000    0.2365    71.647   200.000     8.963
 2853.7204    41.893    2.3752    0.2440    40.126   200.000     8.573
 2853.8728    35.237    2.2253    0.1742    28.189   200.000     8.509
 2854.0252    50.732    2.2848    0.2489    56.214   200.000     8.014
 2854.1776    38.974    2.2279    0.1931    13.166   200.000     9.105
 2854.3300    42.882    2.3440    0.2007    32.609   200.000     8.130
 2854.4824    33.212    2.2727    0.1419    94.690   200.000     8.910
 2854.6348    44.129    2.3503    0.2321    32.553   200.000     8.766
 2854.7872    40.941    2.3644    0.1437    44.714   200.000     7.939
 2854.9396    49.851    2.2864    0.1625    23.601   200.000     9.047
 2855.0920    29.918    2.3533    0.1891    38.611   200.000     8.830
 2855.2444    33.529    2.3072    0.1789    18.954   200.000     8.074
 2855.3968    45.733    2.3476    0.1738    11.503   200.000     8.737
 2855.5492    40.870    2.3786    0.2224    53.205   200.000     8.385
 2855.7016    38.299    2.3092    0.2258    42.357   200.000     9.106
 2855.8540    30.694    2.2846    0.2371    40.509   200.000     8.901
 2856.0064    40.870    2.3201    0.1432    47.198   200.000     7.787
 2856.1588    40.706    2.2627    0.1766    34.982   200.000     9.357
 2856.3112    34.873    2.3264    0.2525    22.704   200.000     8.798
 2856.4636    42.174    2.2559    0.1866    54.275   200.000     8.269
 2856.6160    30.332    2.2689    0.1793    34.121   200.000     8.703
 2856.7684    36.078    2.2773    0.1726    26.152   200.000     8.364
 2856.9208    33.680    2.2828    0.2294   107.292   200.000     8.676
 2857.0732    41.758    2.3433    0.1811    39.423   200.000     8.435
 2857.2256    34.378    2.2572    0.2057    50.486   200.000     8.563
 2857.3780    38.090    2.3128    0.1454    26.691   200.000     8.011
 2857.5304    40.819    2.2614    0.1930    38.113   200.000     8.704
 2857.6828    36.688    2.3286    0.2218    54.390   200.000     7.853
 2857.8352    42.028    2.2937    0.1726    20.928   200.000     9.327
 2857.9876    38.768    2.2964    0.1830    40.646   200.000     8.791
 2858.1400    46.489    2.2543    0.2247    35.505   200.000     8.599
 2858.2924    41.561    2.3261    0.2324    43.214   200.000     8.917
 2858.4448    33.415    2.3795    0.2034    41.789   200.000     9.226
 2858.5972    39.074    2.2893    0.1565    84.397   200.000     8.369
 2858.7496    33.760    2.3093    0.1567    51.320   200.000     7.989
 2858.9020    24.695    2.2368    0.1809    25.128   200.000     8.757
 2859.0544    38.558    2.2907    0.2006    10.051   200.000     8.536
 2859.2068    31.340    2.2642    0.1895    36.419   200.000     8.348
 2859.3592    38.629    2.3313    0.1784    15.302   200.000     9.015
 2859.5116    40.717    2.3496    0.2025    13.833   200.000     8.323
 2859.6640    36.127    2.3004    0.2092    19.306   200.000     8.917
 2859.8164    42.059    2.2510    0.1901    25.807   200.000     7.899
 2859.9688    44.311    2.3211    0.1471    64.295   200.000     7.844
 2860.1212    46.469    2.3127    0.1523    16.791   200.000     8.908
 2860.2736    33.311    2.3038    0.1884    27.567   200.000     8.960
 2860.4260    34.412    2.3187    0.1836    19.107   200.000     8.097
 2860.5784    37.656    2.2485    0.1700    17.833   200.000     8.443
 2860.7308    44.544    2.3196    0.1947    33.905   200.000     8.471
 2860.8832    33.486    2.3247    0.1385    28.899   200.000     7.966
 2861.0356    35.805    2.2013    0.2096    58.389   200.000     8.464
 2861.1880    37.421    2.2882    0.2301    33.506   200.000     8.174
 2861.3404    38.210    2.2274    0.1982    15.983   200.000     7.940
 2861.4928    34.122    2.2186    0.1569    62.885   200.000     8.988
