~VERSION INFORMATION
 VERS.                 2.0    : CWLS LOG ASCII STANDARD
 WRAP.                 NO     : ONE LINE PER DEPTH STEP
~WELL INFORMATION
 WELL.                 6507/11-5    : Well name
 FLD .                 Norne         : Field
 CTRY.                 Norway       : Country
 STRT.M                2500.0000 : START DEPTH
 STOP.M                3800.0000   : STOP DEPTH
 STEP.M                0.1524        : STEP
 NULL.                 -999.25          : NULL VALUE
 SRVC.                 SubsurfAI        : Service company
~CURVE INFORMATION
 DEPT.M                              : Depth
 GR  .GAPI                           : Gamma Ray
 RHOB.G/C3                           : Bulk Density
 NPHI.V/V                            : Neutron Porosity
 RT  .OHMM                           : True Resistivity
 DT  .US/F                           : Sonic
 CALI.IN                             : Caliper
~PARAMETER INFORMATION
 LAT .                 65.3241   : Latitude
 LON .                 8.0833   : Longitude
 DESC.                 Norne Fm — Åre Formation, Ile/Tofte sandstones
~A  DEPT        GR        RHOB      NPHI      RT        DT        CALI
# ...
 2758.3180   113.216    2.5093    0.3002     0.789   180.442     7.540
 2758.4704   135.420    2.4080    0.2653     1.882   200.000     8.807
 2758.6228    87.931    2.4615    0.3332     2.820   164.873     8.854
 2758.7752   119.585    2.5201    0.3553     1.098   154.092     8.632
 2758.9276   123.345    2.5475    0.3606     1.647   153.715     8.039
 2759.0800   122.719    2.4859    0.3806     1.407   137.421     9.219
 2759.2324   126.592    2.4198    0.3998     0.989   135.131     8.087
 2759.3848   134.259    2.4387    0.3260     2.389   176.291     8.327
 2759.5372   148.372    2.6125    0.5032     1.341   136.657     8.564
 2759.6896   107.287    2.5466    0.2872     0.917   188.100     8.628
 2759.8420   143.863    2.5042    0.3323     1.024   166.444     8.225
 2759.9944    26.469    2.3177    0.1302    60.001   200.000     8.862
 2760.1468    35.449    2.3220    0.2088    40.549   200.000     8.011
 2760.2992    38.561    2.2194    0.1546    35.172   200.000     8.064
 2760.4516    48.111    2.2284    0.1461   109.831   200.000     8.437
 2760.6040    36.055    2.2314    0.2279    15.061   200.000     7.967
 2760.7564    38.008    2.2875    0.2244    22.626   200.000     8.477
 2760.9088    37.524    2.2463    0.1592    74.605   200.000     8.222
 2761.0612    45.488    2.2506    0.2195    53.080   200.000     8.722
 2761.2136    31.884    2.3032    0.1944    39.261   200.000     7.926
 2761.3660    43.780    2.3132    0.2407    25.068   200.000     8.695
 2761.5184    50.506    2.3150    0.1920    33.728   200.000     8.169
 2761.6708    43.873    2.3258    0.1978    42.563   200.000     8.549
 2761.8232    36.771    2.3274    0.1869    67.110   200.000     9.130
 2761.9756    34.564    2.3501    0.2284    21.475   200.000     8.331
 2762.1280    30.246    2.2019    0.1773    28.256   200.000     9.269
 2762.2804    40.055    2.3208    0.1599    31.863   200.000     7.951
 2762.4328    32.559    2.2813    0.1600   154.323   200.000     8.409
 2762.5852    33.300    2.3544    0.1560    44.275   200.000     8.727
 2762.7376    44.069    2.2173    0.2215    38.752   200.000     8.581
 2762.8900    34.356    2.2297    0.1886    70.194   200.000     8.985
 2763.0424    38.739    2.2678    0.1850    34.085   200.000     8.237
 2763.1948    39.361    2.2360    0.1844    12.765   200.000     8.773
 2763.3472    39.269    2.3307    0.1752    33.932   200.000     8.610
 2763.4996    44.144    2.2795    0.1697    61.208   200.000     8.255
 2763.6520    35.861    2.2927    0.1536    34.448   200.000     8.269
 2763.8044    30.623    2.2563    0.2669    52.878   200.000     8.244
 2763.9568    40.674    2.2999    0.1770    20.642   200.000     8.200
 2764.1092    43.268    2.2813    0.1575    20.255   200.000     7.834
 2764.2616    38.383    2.3332    0.2143    20.948   200.000     8.781
 2764.4140    38.880    2.2831    0.1522    21.490   200.000     8.249
 2764.5664    39.477    2.3105    0.1608    48.981   200.000     7.550
 2764.7188    37.277    2.2918    0.1639    18.732   200.000     8.413
 2764.8712    32.984    2.2874    0.2095    32.532   200.000     8.958
 2765.0236    42.756    2.3149    0.2209    37.237   200.000     7.776
 2765.1760    41.229    2.3598    0.1821    20.957   200.000     8.420
 2765.3284    41.475    2.3064    0.1954    18.389   200.000     9.358
 2765.4808    38.664    2.3188    0.2530    35.006   200.000     7.852
 2765.6332    41.640    2.2831    0.1765    38.475   200.000     8.818
 2765.7856    44.698    2.2951    0.2265    36.515   200.000     8.276
 2765.9380    42.829    2.2656    0.1462    31.900   200.000     8.043
 2766.0904    48.668    2.2342    0.1505    90.311   200.000     8.320
 2766.2428    42.021    2.2359    0.2354    39.189   200.000     8.493
 2766.3952    45.937    2.3151    0.1699    40.875   200.000     9.016
 2766.5476    38.497    2.2922    0.1902    40.710   200.000     8.390
 2766.7000    36.474    2.3573    0.1920   105.776   200.000     9.070
 2766.8524    32.642    2.3163    0.1800    17.266   200.000     8.447
 2767.0048    36.733    2.3022    0.1721    56.235   200.000     7.816
 2767.1572    34.745    2.3556    0.2477    54.883   200.000     9.005
 2767.3096    27.797    2.3291    0.1786    21.570   200.000     8.256
 2767.4620    29.125    2.2475    0.1658    32.784   200.000     8.676
 2767.6144    30.094    2.2351    0.1889    29.387   200.000     8.123
 2767.7668    37.770    2.2849    0.1781    40.040   200.000     9.099
 2767.9192    40.514    2.3347    0.2340    12.552   200.000     8.718
 2768.0716    39.467    2.3129    0.1467    22.907   200.000     7.972
 2768.2240    41.558    2.2467    0.1762    41.379   200.000     7.974
 2768.3764    50.952    2.3156    0.2081    12.774   200.000     8.599
 2768.5288    32.316    2.2880    0.2301    73.149   200.000     7.829
 2768.6812    36.204    2.3394    0.1491    54.130   200.000     8.249
 2768.8336    44.018    2.3211    0.1635    23.321   200.000     8.606
 2768.9860    42.861    2.3386    0.1880    39.692   200.000     7.875
 2769.1384    37.600    2.2727    0.1849    50.902   200.000     8.475
 2769.2908    41.315    2.3366    0.2185    58.841   200.000     7.797
 2769.4432    31.690    2.3703    0.1853    44.950   200.000     8.138
 2769.5956    35.085    2.2895    0.1328    24.753   200.000     8.307
 2769.7480    42.201    2.3500    0.1903    56.528   200.000     8.585
 2769.9004    49.112    2.3236    0.1594    30.945   200.000     8.301
 2770.0528    33.288    2.2893    0.1810    35.126   200.000     9.038
 2770.2052    36.036    2.2523    0.1758    34.027   200.000     8.748
 2770.3576    40.951    2.3195    0.2079    47.779   200.000     8.576
 2770.5100    39.158    2.3441    0.2082    77.035   200.000     8.510
 2770.6624    43.535    2.3571    0.2094    33.289   200.000     8.320
 2770.8148    31.030    2.3654    0.1906    29.444   200.000     8.678
 2770.9672    29.525    2.3879    0.2074    80.607   200.000     8.378
 2771.1196    43.792    2.2618    0.1955    56.879   200.000     8.894
 2771.2720    41.486    2.3577    0.1857    23.940   200.000     8.547
 2771.4244    41.374    2.3479    0.1576    24.281   200.000     8.884
 2771.5768    36.135    2.4316    0.1761    32.972   200.000     8.279
 2771.7292    33.768    2.2921    0.2009    44.440   200.000     8.565
 2771.8816    44.241    2.3189    0.1922    63.037   200.000     8.929
 2772.0340    39.066    2.2783    0.2049    82.682   200.000     8.754
 2772.1864    41.798    2.2640    0.1808    81.302   200.000     8.169
 2772.3388    27.126    2.2782    0.2110    25.562   200.000     8.012
 2772.4912    26.769    2.3097    0.2118    20.808   200.000     9.087
 2772.6436    45.928    2.3702    0.1845    40.691   200.000     8.575
 2772.7960    38.430    2.3557    0.2063    63.965   200.000     8.492
 2772.9484    35.754    2.2907    0.2257    26.020   200.000     8.797
 2773.1008    37.895    2.3383    0.2209    16.532   200.000     8.618
 2773.2532    38.519    2.2858    0.2176    67.036   200.000     8.679
 2773.4056    30.472    2.3527    0.1635    35.233   200.000     8.739
 2773.5580    34.636    2.3433    0.1643    41.396   200.000     8.153
 2773.7104    28.678    2.2849    0.1891    31.076   200.000     9.035
 2773.8628    33.169    2.2304    0.1476    28.363   200.000     8.981
 2774.0152    35.173    2.3270    0.1518    27.720   200.000     9.457
 2774.1676    38.127    2.2518    0.2495    72.662   200.000     8.469
 2774.3200    51.264    2.3362    0.1722    19.448   200.000     8.683
 2774.4724    38.403    2.2719    0.2193    42.066   200.000     8.731
 2774.6248    40.501    2.2750    0.1743    48.990   200.000     8.416
 2774.7772    48.620    2.3463    0.1322    43.680   200.000     8.169
 2774.9296    37.192    2.1843    0.1907    57.963   200.000     7.903
 2775.0820    34.613    2.3308    0.1359    36.580   200.000     7.620
 2775.2344    39.557    2.3122    0.2143    22.017   200.000     8.769
 2775.3868    29.812    2.3087    0.1280    37.759   200.000     9.011
