~VERSION INFORMATION
 VERS.                 2.0    : CWLS LOG ASCII STANDARD
 WRAP.                 NO     : ONE LINE PER DEPTH STEP
~WELL INFORMATION
 WELL.                 6507/11-5    : Well name
 FLD .                 Norne         : Field
 CTRY.                 Norway       : Country
 STRT.M                2500.0000 : START DEPTH
 STOP.M                3800.0000   : STOP DEPTH
 STEP.M                0.1524        : STEP
 NULL.                 -999.25          : NULL VALUE
 SRVC.                 SubsurfAI        : Service company
~CURVE INFORMATION
 DEPT.M                              : Depth
 GR  .GAPI                           : Gamma Ray
 RHOB.G/C3                           : Bulk Density
 NPHI.V/V                            : Neutron Porosity
 RT  .OHMM                           : True Resistivity
 DT  .US/F                           : Sonic
 CALI.IN                             : Caliper
~PARAMETER INFORMATION
 LAT .                 65.3241   : Latitude
 LON .                 8.0833   : Longitude
 DESC.                 Norne Fm — Åre Formation, Ile/Tofte sandstones
~A  DEPT        GR        RHOB      NPHI      RT        DT        CALI
# ...
 3257.7328    17.796    1.5868    0.5172  1046.421   140.161     9.239
 3257.8852    18.589    1.6304    0.6000   550.357   145.157     8.600
 3258.0376    18.340    1.5970    0.6000   340.972   148.039     8.019
 3258.1900    20.331    1.6146    0.5826   572.139   140.627     8.321
 3258.3424    22.985    1.5920    0.5518   324.006   138.741     8.135
 3258.4948    20.796    1.5631    0.5094  1500.119   141.659     7.987
 3258.6472    22.068    1.5876    0.5087   311.522   134.117     8.421
 3258.7996    16.270    1.6042    0.6000   471.566   133.835     8.842
 3258.9520    25.246    1.6285    0.5074   726.941   131.781     7.914
 3259.1044    22.602    1.6047    0.5790   531.200   133.965     8.418
 3259.2568    19.219    1.6206    0.4673  1207.104   133.675     8.666
 3259.4092    14.967    1.5739    0.4945   380.771   131.221     8.138
 3259.5616    16.549    1.6283    0.6000   552.719   131.934     8.633
 3259.7140    16.930    1.6262    0.4818   657.065   134.135     8.053
 3259.8664     7.778    1.5441    0.4473   608.547   131.379     8.308
 3260.0188    17.671    1.5545    0.6000   262.970   132.998     8.499
 3260.1712    22.543    1.5716    0.5172   469.977   132.826     8.664
 3260.3236    13.116    1.5968    0.4336   525.558   139.801     8.378
 3260.4760    14.314    1.6150    0.6000   482.381   140.369     8.399
 3260.6284    19.279    1.6074    0.4776   564.439   143.882     8.741
 3260.7808    15.115    1.5750    0.6000   326.916   146.200     8.092
 3260.9332    20.533    1.5920    0.5795   393.221   138.446     8.443
 3261.0856    22.888    1.6559    0.5062   309.984   137.479     8.275
 3261.2380    17.257    1.5633    0.4262   573.686   132.159     8.915
 3261.3904    19.054    1.5695    0.5579  1162.528   126.867     8.476
 3261.5428    22.949    1.5469    0.4915   283.559   137.439     8.532
 3261.6952    26.022    1.6159    0.5224   260.024   141.752     8.107
 3261.8476    16.504    1.6254    0.6000   736.472   138.906     8.780
 3262.0000    25.017    1.6139    0.4876   405.929   139.446     8.535
 3262.1524    22.152    1.5574    0.3827   210.302   141.862     8.427
 3262.3048    15.943    1.5541    0.6000   863.311   143.683     8.796
 3262.4572    17.509    1.5776    0.4450   379.862   136.724     8.278
 3262.6096    19.640    1.5857    0.5617   222.913   148.778     7.851
 3262.7620    18.798    1.5923    0.4459   359.408   134.259     9.168
 3262.9144    19.649    1.6188    0.4601   246.514   133.852     8.730
 3263.0668    18.976    1.5997    0.5607  1780.094   136.928     9.274
 3263.2192    17.993    1.5869    0.5703   274.313   135.023     8.356
 3263.3716    22.535    1.6044    0.6000   669.547   135.744     8.287
 3263.5240    24.528    1.5670    0.6000   960.484   145.966     8.435
 3263.6764    23.266    1.6103    0.5720   633.780   129.488     8.033
 3263.8288    20.545    1.5803    0.5948   373.721   137.236     8.713
 3263.9812    20.063    1.6089    0.6000   382.356   143.655     9.384
 3264.1336    27.777    1.6009    0.5092   776.812   136.135     8.079
 3264.2860    26.508    1.6285    0.4653   383.689   134.103     8.563
 3264.4384    22.129    1.5761    0.5361   357.210   137.835     8.824
 3264.5908    26.067    1.6226    0.5007   408.823   134.499     7.122
 3264.7432    24.030    1.5718    0.5169   717.418   129.321     8.125
 3264.8956    21.342    1.5904    0.5238   518.802   144.436     8.122
 3265.0480    24.693    1.5724    0.5590   619.429   126.641     8.791
 3265.2004    19.215    1.5979    0.6000   501.992   138.723     8.264
 3265.3528    16.369    1.6166    0.5105  1033.834   140.945     7.868
 3265.5052    18.847    1.5761    0.6000  1530.487   126.055     8.607
 3265.6576    17.544    1.5934    0.5651   451.532   139.807     8.994
 3265.8100    17.960    1.6570    0.6000   946.523   143.316     8.788
 3265.9624    26.248    1.6693    0.5753  1686.058   130.730     8.795
 3266.1148    19.781    1.6098    0.6000   411.519   128.710     7.510
 3266.2672    13.391    1.5999    0.6000   403.278   140.985     8.807
 3266.4196    22.949    1.6236    0.5074   265.074   132.080     8.271
 3266.5720    22.138    1.6408    0.4919   503.334   136.823     8.560
 3266.7244    23.676    1.5850    0.6000   407.902   141.189     8.065
 3266.8768    18.399    1.5821    0.6000   325.132   138.588     8.301
 3267.0292    16.673    1.5601    0.5831   366.190   139.665     8.395
 3267.1816    21.960    1.5000    0.5109   336.241   135.268     8.613
 3267.3340    20.259    1.6110    0.5296  1075.692   139.992     8.392
 3267.4864    17.337    1.6345    0.5443   536.314   131.115     8.750
 3267.6388    26.035    1.6263    0.4800   236.824   130.159     8.509
 3267.7912    23.775    1.6147    0.5237  1272.286   134.550     8.233
 3267.9436    13.227    1.5934    0.6000   403.681   149.830     8.435
 3268.0960    15.599    1.6219    0.4869   353.166   139.189     7.648
 3268.2484    18.389    1.6098    0.5054   213.739   134.566     8.485
 3268.4008    22.197    1.5884    0.5750   433.427   133.345     8.333
 3268.5532    11.804    1.5556    0.5724   388.992   131.697     8.285
 3268.7056    23.850    1.6688    0.4436   706.796   130.929     8.514
 3268.8580    22.932    1.5908    0.5637   453.193   127.035     8.383
 3269.0104    27.520    1.5756    0.5055   193.349   135.259     8.129
 3269.1628    21.617    1.6290    0.5966   853.210   146.825     8.529
 3269.3152    20.858    1.6329    0.4806   675.096   133.725     8.600
 3269.4676    19.961    1.5511    0.4579   458.890   144.358     8.347
 3269.6200    19.025    1.6258    0.5358   540.117   145.903     8.383
 3269.7724    28.583    1.5631    0.5129   313.340   145.406     8.428
 3269.9248    25.180    1.5504    0.6000   463.024   126.968     8.594
 3270.0772    20.222    1.6504    0.6000   383.353   140.462     7.658
 3270.2296    12.405    1.5973    0.5523   575.145   140.239     7.860
 3270.3820    22.604    1.5795    0.5521   444.843   138.883     8.537
 3270.5344    26.544    1.5856    0.5561   373.957   136.306     9.059
 3270.6868    28.383    1.6126    0.6000   901.543   139.390     8.432
 3270.8392    20.561    1.5457    0.4969   479.394   139.554     9.138
 3270.9916    19.538    1.6224    0.4315   177.648   138.340     8.084
 3271.1440    20.851    1.6116    0.4545   566.216   122.795     7.895
 3271.2964    18.108    1.5832    0.5515   874.996   142.202     8.258
 3271.4488    21.962    1.5942    0.6000   963.082   138.492     7.868
 3271.6012    10.632    1.6550    0.6000   229.962   135.925     8.414
 3271.7536    19.081    1.6147    0.5234   555.932   140.398     8.284
 3271.9060    21.954    1.6082    0.5218   314.981   150.602     8.499
 3272.0584    23.305    1.6384    0.5598  1223.242   146.090     8.789
 3272.2108    18.475    1.6028    0.5452   591.931   129.750     9.039
 3272.3632    18.860    1.6189    0.6000   492.816   138.773     8.940
 3272.5156    24.485    1.6255    0.4402   768.944   145.510     9.159
 3272.6680    16.605    1.6073    0.6000   278.993   136.529     8.233
 3272.8204    15.048    1.6607    0.6000   459.187   130.429     8.884
 3272.9728    20.553    1.6253    0.5785   302.677   141.720     8.755
 3273.1252    26.036    1.5902    0.5283   529.794   130.951     8.425
 3273.2776    22.414    1.6408    0.5411   447.356   136.673     8.776
 3273.4300    24.657    1.5599    0.5772   728.222   141.148     8.516
 3273.5824    18.034    1.6775    0.6000   363.526   140.666     8.580
 3273.7348    25.064    1.5882    0.5342   381.162   136.706     8.535
 3273.8872    21.121    1.6661    0.4841   400.938   138.721     8.395
 3274.0396    18.472    1.6324    0.5892   248.085   140.112     9.238
 3274.1920    18.031    1.5409    0.5785   341.788   136.291     8.813
 3274.3444    23.887    1.6298    0.6000   804.337   141.725     9.053
 3274.4968    26.296    1.5639    0.5197   405.827   138.813     7.676
 3274.6492    19.399    1.6571    0.5388   753.388   138.433     8.734
 3274.8016    22.181    1.5718    0.4753   147.243   137.744     8.293
