~VERSION INFORMATION
 VERS.                 2.0    : CWLS LOG ASCII STANDARD
 WRAP.                 NO     : ONE LINE PER DEPTH STEP
~WELL INFORMATION
 WELL.                 6507/11-5    : Well name
 FLD .                 Norne         : Field
 CTRY.                 Norway       : Country
 STRT.M                2500.0000 : START DEPTH
 STOP.M                3800.0000   : STOP DEPTH
 STEP.M                0.1524        : STEP
 NULL.                 -999.25          : NULL VALUE
 SRVC.                 SubsurfAI        : Service company
~CURVE INFORMATION
 DEPT.M                              : Depth
 GR  .GAPI                           : Gamma Ray
 RHOB.G/C3                           : Bulk Density
 NPHI.V/V                            : Neutron Porosity
 RT  .OHMM                           : True Resistivity
 DT  .US/F                           : Sonic
 CALI.IN                             : Caliper
~PARAMETER INFORMATION
 LAT .                 65.3241   : Latitude
 LON .                 8.0833   : Longitude
 DESC.                 Norne Fm — Åre Formation, Ile/Tofte sandstones
~A  DEPT        GR        RHOB      NPHI      RT        DT        CALI
# ...
 3016.6360    39.178    2.2611    0.1719    29.581   200.000     9.113
 3016.7884    35.970    2.3057    0.2092    30.552   200.000     8.166
 3016.9408    39.354    2.2711    0.2144    30.006   200.000     7.873
 3017.0932    35.501    2.3345    0.1546    18.861   200.000     8.114
 3017.2456    47.277    2.2975    0.1860    25.245   200.000     7.787
 3017.3980    38.721    2.3091    0.1900    34.361   200.000     8.602
 3017.5504    42.306    2.3922    0.2186    38.446   200.000     7.422
 3017.7028    43.801    2.2547    0.1944    47.435   200.000     8.373
 3017.8552    36.556    2.3122    0.2004    10.254   200.000     9.227
 3018.0076    32.762    2.3164    0.1270    24.057   200.000     7.814
 3018.1600    30.920    2.2950    0.1816    39.127   200.000     7.812
 3018.3124    27.199    2.3710    0.2035    14.770   200.000     8.364
 3018.4648    36.801    2.2259    0.1962    24.358   200.000     8.445
 3018.6172    43.866    2.3191    0.1802    26.063   200.000     8.275
 3018.7696    34.748    2.2205    0.2049    31.918   200.000     8.683
 3018.9220    36.140    2.3322    0.2029    89.133   200.000     8.440
 3019.0744    33.989    2.2756    0.1671    81.746   200.000     8.468
 3019.2268    37.345    2.2808    0.2271    32.776   200.000     8.547
 3019.3792    43.463    2.3395    0.1732    28.562   200.000     7.707
 3019.5316    46.302    2.3022    0.2555    34.099   200.000     8.539
 3019.6840    22.655    2.2947    0.1939    14.256   200.000     8.402
 3019.8364    37.582    2.2416    0.1780    42.355   200.000     8.724
 3019.9888    21.415    1.6413    0.5121   422.012   139.772     8.312
 3020.1412    21.255    1.5503    0.5662   466.207   133.786     8.229
 3020.2936    16.057    1.6072    0.5589   569.554   133.401     8.570
 3020.4460    18.240    1.6200    0.6000   352.195   147.794     9.202
 3020.5984    21.663    1.6777    0.4239   941.279   149.300     8.646
 3020.7508    23.560    1.5598    0.5108   334.196   136.589     8.988
 3020.9032    15.489    1.6289    0.5571   351.602   134.763     8.672
 3021.0556    22.629    1.6153    0.6000   340.348   128.377     8.550
 3021.2080    24.016    1.5904    0.4686   529.430   137.495     8.437
 3021.3604    15.883    1.6351    0.4727   470.016   140.823     7.919
 3021.5128    21.014    1.6286    0.5028   364.306   135.779     8.341
 3021.6652    20.371    1.6218    0.5683   380.665   133.349     8.573
 3021.8176    19.130    1.5655    0.5478  1193.031   140.917     7.982
 3021.9700    15.180    1.6037    0.6000   811.029   135.404     8.242
 3022.1224    18.424    1.5639    0.5560   251.634   139.069     8.452
 3022.2748    21.395    1.6021    0.6000   267.522   139.925     8.748
 3022.4272    25.160    1.6158    0.4221   747.711   143.534     8.696
 3022.5796    25.745    1.6277    0.6000   396.805   137.900     8.799
 3022.7320    13.127    1.6282    0.5611   357.717   126.571     7.837
 3022.8844    20.880    1.5981    0.5037   375.417   126.691     8.510
 3023.0368    18.749    1.5688    0.5687   299.763   142.232     7.786
 3023.1892    17.689    1.5865    0.4977   756.851   140.472     8.673
 3023.3416    25.726    1.5793    0.4929  1780.480   124.706     8.453
 3023.4940    20.483    1.6061    0.4875   247.867   140.823     9.257
 3023.6464    24.440    1.5113    0.3545   641.390   158.842     7.910
 3023.7988    13.502    1.5896    0.6000   913.922   137.668     8.797
 3023.9512    19.445    1.6418    0.4845   737.509   136.578     7.768
 3024.1036    17.876    1.6175    0.5227   485.498   131.313     8.702
 3024.2560    23.783    1.6087    0.6000   481.077   140.313     8.570
 3024.4084    26.370    1.5841    0.6000   777.995   135.101     7.798
 3024.5608    24.217    1.6224    0.6000   327.551   141.516     8.877
 3024.7132    21.991    1.6411    0.5083   935.356   131.924     8.650
 3024.8656    15.400    1.5350    0.4689   659.766   136.224     7.832
 3025.0180    12.696    1.5334    0.5411   496.699   142.634     8.484
 3025.1704    16.158    1.6672    0.6000  1663.232   132.382     7.861
 3025.3228    18.961    1.6265    0.5326   491.762   138.875     9.049
 3025.4752    20.454    1.5842    0.5867   661.010   142.594     7.715
 3025.6276    25.031    1.5871    0.6000   613.747   137.490     8.638
 3025.7800    15.409    1.5925    0.5017  1019.292   134.883     8.621
 3025.9324    19.230    1.6184    0.5470   617.761   138.016     8.192
 3026.0848    19.216    1.5358    0.5535   167.989   130.328     7.966
 3026.2372    17.539    1.6181    0.6000   578.239   136.944     7.945
 3026.3896    21.047    1.5679    0.4889   681.090   142.601     8.483
 3026.5420    21.650    1.6025    0.6000   676.787   131.680     8.299
 3026.6944    21.337    1.5872    0.6000   424.064   143.084     8.010
 3026.8468    19.354    1.6283    0.4047   391.861   137.625     8.738
 3026.9992    16.082    1.5585    0.6000   726.138   143.085     8.058
 3027.1516    19.840    1.6544    0.5926   227.916   135.398     8.322
 3027.3040    22.210    1.5859    0.4786   297.611   144.746     8.454
 3027.4564    24.981    1.5437    0.6000   613.715   137.253     8.312
 3027.6088    15.564    1.6021    0.4411   504.286   129.510     8.467
 3027.7612    11.751    1.6130    0.5012  1308.290   140.696     7.931
 3027.9136    21.963    1.5883    0.5837   409.817   140.282     8.762
 3028.0660    11.592    1.5754    0.4455   410.891   130.056     8.619
 3028.2184    24.650    1.5880    0.5412   397.389   147.817     8.450
 3028.3708    11.726    1.5687    0.6000   542.705   136.294     8.643
 3028.5232    18.701    1.5616    0.6000   483.054   141.842     8.993
 3028.6756    14.722    1.5615    0.5640   526.412   138.477     8.566
 3028.8280    17.091    1.5835    0.4531   389.776   140.105     8.505
 3028.9804    20.873    1.6226    0.6000   531.797   129.483     8.866
 3029.1328    18.283    1.5900    0.5233   877.600   134.131     7.949
 3029.2852    19.853    1.5817    0.5609   670.350   136.878     8.559
 3029.4376    31.477    1.6588    0.4964   743.946   139.361     8.274
 3029.5900    17.356    1.5593    0.4720   408.868   136.866     8.402
 3029.7424    21.350    1.5393    0.6000   670.547   130.619     8.283
 3029.8948    18.554    1.5787    0.6000   476.145   134.890     8.278
 3030.0472    21.766    1.5764    0.4801   323.795   136.629     9.097
 3030.1996    12.920    1.5876    0.5248   618.968   133.441     8.621
 3030.3520    19.495    1.5492    0.5565   142.532   141.252     7.706
 3030.5044    22.654    1.6084    0.5018   231.507   126.222     8.897
 3030.6568    16.378    1.6170    0.5786   225.795   132.064     7.692
 3030.8092    17.791    1.5577    0.6000   349.919   149.312     8.541
 3030.9616    18.717    1.6195    0.4493   346.679   135.067     8.711
 3031.1140    19.890    1.5990    0.4419   789.891   140.569     9.045
 3031.2664    21.136    1.6133    0.5983   425.136   131.314     8.076
 3031.4188    15.563    1.6096    0.5349   529.144   136.191     7.422
 3031.5712    12.872    1.6512    0.5381   373.111   136.507     7.936
 3031.7236    19.919    1.5746    0.5189   296.464   136.339     8.143
 3031.8760    25.382    1.5963    0.5069   688.127   129.947     8.700
 3032.0284    24.975    1.6193    0.6000   257.213   139.833     8.284
 3032.1808    17.589    1.5986    0.5099   299.770   132.163     8.421
 3032.3332    22.540    1.5932    0.5292  1080.262   145.572     8.414
 3032.4856    17.333    1.5721    0.5415   273.671   139.994     8.388
 3032.6380    23.991    1.6167    0.5249   472.861   142.059     8.530
 3032.7904    20.294    1.5846    0.4598   729.114   140.182     8.835
 3032.9428    14.459    1.6355    0.5169   778.953   143.840     8.162
 3033.0952    23.877    1.5656    0.6000   765.223   131.379     8.253
 3033.2476    23.678    1.6303    0.5588   523.092   145.765     9.140
 3033.4000    20.053    1.5924    0.5258   350.560   138.747     9.049
 3033.5524    21.360    1.5194    0.5847   589.122   133.868     8.160
 3033.7048    20.607    1.5930    0.4901   601.706   139.559     8.829
