~VERSION INFORMATION
 VERS.                 2.0    : CWLS LOG ASCII STANDARD
 WRAP.                 NO     : ONE LINE PER DEPTH STEP
~WELL INFORMATION
 WELL.                 6507/11-5    : Well name
 FLD .                 Norne         : Field
 CTRY.                 Norway       : Country
 STRT.M                2500.0000 : START DEPTH
 STOP.M                3800.0000   : STOP DEPTH
 STEP.M                0.1524        : STEP
 NULL.                 -999.25          : NULL VALUE
 SRVC.                 SubsurfAI        : Service company
~CURVE INFORMATION
 DEPT.M                              : Depth
 GR  .GAPI                           : Gamma Ray
 RHOB.G/C3                           : Bulk Density
 NPHI.V/V                            : Neutron Porosity
 RT  .OHMM                           : True Resistivity
 DT  .US/F                           : Sonic
 CALI.IN                             : Caliper
~PARAMETER INFORMATION
 LAT .                 65.3241   : Latitude
 LON .                 8.0833   : Longitude
 DESC.                 Norne Fm — Åre Formation, Ile/Tofte sandstones
~A  DEPT        GR        RHOB      NPHI      RT        DT        CALI
# ...
 3602.1568   107.788    2.3789    0.4457     2.755   134.015     7.946
 3602.3092    89.768    2.4520    0.2736     2.161   200.000     7.342
 3602.4616   119.662    2.4173    0.3138     1.066   182.762     8.489
 3602.6140   119.238    2.5261    0.2823     1.622   196.153     9.114
 3602.7664    96.484    2.5281    0.2786     2.241   190.811     8.254
 3602.9188   115.708    2.4845    0.3257     1.912   166.964     8.371
 3603.0712    90.474    2.4581    0.3203     2.611   174.052     7.887
 3603.2236   110.553    2.4225    0.2717     3.210   200.000     8.702
 3603.3760   117.163    2.5261    0.3568     1.447   150.746     8.678
 3603.5284   101.316    2.4246    0.2863     3.448   189.540     8.303
 3603.6808   110.899    2.5193    0.2505     2.760   200.000     7.595
 3603.8332   118.578    2.4605    0.2874     6.955   195.739     8.758
 3603.9856   112.544    2.5797    0.3874     1.540   138.563     8.388
 3604.1380   105.522    2.4511    0.4067     5.736   132.710     8.196
 3604.2904    96.985    2.4872    0.2925     1.276   187.295     7.926
 3604.4428   120.265    2.4357    0.2284     1.356   200.000     8.584
 3604.5952   105.018    2.5466    0.3784     1.107   144.094     8.590
 3604.7476   102.885    2.5149    0.2468     1.722   200.000     7.191
 3604.9000   112.994    2.4142    0.2987     1.325   196.967     8.946
 3605.0524    86.519    2.4874    0.2377     2.258   200.000     9.462
 3605.2048   126.174    2.4975    0.2769     2.722   200.000     8.646
 3605.3572   100.753    2.4692    0.4385     2.007   133.824     8.444
 3605.5096   127.495    2.4229    0.3661     1.238   151.494     8.177
 3605.6620   108.962    2.4216    0.3337     2.804   153.367     8.048
 3605.8144    79.329    2.4674    0.3116     1.988   180.270     8.068
 3605.9668   101.431    2.4387    0.3220     2.299   168.870     8.466
 3606.1192   100.820    2.5417    0.3640     2.130   159.942     8.768
 3606.2716   135.426    2.4843    0.3314     0.701   168.061     8.067
 3606.4240   137.173    2.4418    0.2847     4.400   192.502     8.014
 3606.5764   106.073    2.4201    0.2696     2.823   200.000     8.479
 3606.7288   118.736    2.4883    0.3145     2.527   177.459     8.943
 3606.8812   100.772    2.4876    0.3500     1.331   157.734     8.362
 3607.0336   120.605    2.4882    0.3665     4.055   149.930     8.794
 3607.1860   109.319    2.4101    0.3895     4.033   148.271     9.110
 3607.3384   123.768    2.4784    0.3193     1.823   170.279     7.723
 3607.4908   116.424    2.4195    0.2852     1.625   194.307     7.762
 3607.6432    76.770    2.4654    0.3842     2.022   144.003     8.436
 3607.7956   103.277    2.5176    0.4098     1.323   134.938     8.073
 3607.9480   111.983    2.4716    0.2513     2.724   200.000     8.185
 3608.1004    98.373    2.4594    0.3972     2.180   133.079     8.616
 3608.2528   105.038    2.4587    0.3119     1.900   173.892     8.895
 3608.4052   101.550    2.4953    0.3103     2.992   174.180     7.537
 3608.5576    98.190    2.5207    0.3232     1.944   168.496     8.677
 3608.7100   111.129    2.4258    0.2942     3.692   181.836     8.665
 3608.8624   108.550    2.4751    0.3201     0.793   171.557     8.011
 3609.0148    86.096    2.5023    0.3436     6.159   155.858     8.067
 3609.1672    97.906    2.4905    0.3116     2.603   176.629     8.387
 3609.3196    99.260    2.4446    0.2168     1.354   200.000     9.023
 3609.4720    84.229    2.5029    0.4441     3.771   137.256     8.291
 3609.6244    95.348    2.4369    0.2717     3.224   200.000     8.122
 3609.7768   135.382    2.4721    0.2516     1.742   200.000     8.210
 3609.9292   107.357    2.4873    0.3599     0.977   156.008     8.838
 3610.0816    87.273    2.4937    0.3788     1.262   153.466     8.398
 3610.2340   110.073    2.4805    0.3104     2.950   175.574     7.702
 3610.3864   113.987    2.5582    0.3379     2.018   163.097     8.562
 3610.5388    95.126    2.5302    0.3549     2.434   158.574     9.370
 3610.6912   109.600    2.5448    0.3350     4.749   167.917     8.712
 3610.8436    96.217    2.4540    0.3597     0.883   154.061     8.094
 3610.9960   106.429    2.6062    0.3229     1.106   163.489     8.880
 3611.1484   107.108    2.4203    0.3746     2.207   158.128     8.948
 3611.3008   109.949    2.4573    0.3072     0.607   172.615     8.779
 3611.4532   112.854    2.5719    0.2444     3.066   200.000     8.631
 3611.6056   126.057    2.5172    0.2956     0.958   190.704     8.832
 3611.7580   110.137    2.4317    0.3138     0.896   172.563     8.569
 3611.9104    91.871    2.4410    0.2510     1.057   200.000     8.239
 3612.0628   117.799    2.4958    0.2592     0.893   200.000     8.243
 3612.2152   108.118    2.4717    0.2984     0.762   173.593     8.206
 3612.3676   113.993    2.4342    0.3375     1.893   159.668     8.934
 3612.5200   111.205    2.4697    0.3055     2.727   171.597     8.602
 3612.6724   102.056    2.5135    0.2820     2.855   200.000     8.133
 3612.8248   107.872    2.5346    0.3567     2.882   147.159     8.710
 3612.9772    97.357    2.5398    0.2981     2.612   185.329     7.635
 3613.1296    91.946    2.4771    0.2637     2.203   200.000     8.313
 3613.2820    98.512    2.4847    0.2339     2.371   200.000     8.523
 3613.4344   101.466    2.5369    0.3225     1.883   175.985     8.626
 3613.5868   103.231    2.5407    0.2523     3.049   200.000     9.274
 3613.7392    93.931    2.5039    0.3241     1.436   176.731     8.934
 3613.8916    86.357    2.4671    0.4096     1.273   136.451     7.759
 3614.0440    96.293    2.4979    0.2852     1.692   194.154     8.690
 3614.1964    94.049    2.4230    0.3373     2.832   163.025     7.694
 3614.3488   113.933    2.5042    0.3985     1.786   137.843     9.129
 3614.5012    89.234    2.5021    0.3525     1.465   162.959     8.765
 3614.6536   104.386    2.5085    0.3029     1.285   167.853     8.342
 3614.8060    99.005    2.4594    0.2241     1.394   200.000     8.135
 3614.9584    97.236    2.3750    0.2702     1.615   200.000     7.802
 3615.1108   115.377    2.4466    0.2802     1.983   196.341     8.298
 3615.2632   111.568    2.4108    0.2832     3.235   200.000     8.405
 3615.4156    95.859    2.5270    0.2940     0.940   191.717     8.610
 3615.5680    96.973    2.4036    0.3322     1.352   167.711     8.734
 3615.7204   129.611    2.4779    0.4135     1.632   136.975     8.800
 3615.8728   106.836    2.4330    0.3066     1.697   175.536     8.535
 3616.0252   114.671    2.5069    0.2673     0.990   200.000     8.353
 3616.1776   107.988    2.3953    0.3643     1.244   145.082     8.849
 3616.3300   122.469    2.5037    0.2670     2.826   200.000     7.949
 3616.4824    93.537    2.5011    0.2867     2.019   195.193     9.069
 3616.6348   118.019    2.4960    0.2395     1.975   200.000     8.416
 3616.7872   106.817    2.5544    0.3887     1.140   143.997     8.213
 3616.9396   126.368    2.4502    0.3414     2.882   162.686     8.259
 3617.0920   113.049    2.5014    0.2577     2.178   200.000     8.259
 3617.2444   113.762    2.4529    0.3290     3.369   170.583     8.609
 3617.3968   124.569    2.5450    0.3173     1.528   174.534     8.404
 3617.5492   103.194    2.4215    0.3305     2.847   166.428     8.178
 3617.7016   105.809    2.4473    0.3011     6.241   186.705     8.531
 3617.8540   122.822    2.4536    0.3322     4.847   164.538     8.158
 3618.0064   124.801    2.4395    0.2603     2.843   200.000     8.411
 3618.1588    97.317    2.4949    0.2657     3.571   200.000     8.718
 3618.3112   115.881    2.5450    0.4191     1.609   136.527     8.307
 3618.4636   112.528    2.4578    0.4044     2.547   142.034     8.408
 3618.6160   115.809    2.5027    0.2891     4.377   193.204     8.768
 3618.7684   145.729    2.5214    0.3390     1.391   167.735     8.821
 3618.9208   100.538    2.4850    0.3725     1.931   154.963     8.566
 3619.0732    93.665    2.4891    0.4033     2.859   142.337     8.295
 3619.2256   102.123    2.5563    0.3422     1.758   167.576     8.596
