~VERSION INFORMATION
 VERS.                 2.0    : CWLS LOG ASCII STANDARD
 WRAP.                 NO     : ONE LINE PER DEPTH STEP
~WELL INFORMATION
 WELL.                 6507/11-5    : Well name
 FLD .                 Norne         : Field
 CTRY.                 Norway       : Country
 STRT.M                2500.0000 : START DEPTH
 STOP.M                3800.0000   : STOP DEPTH
 STEP.M                0.1524        : STEP
 NULL.                 -999.25          : NULL VALUE
 SRVC.                 SubsurfAI        : Service company
~CURVE INFORMATION
 DEPT.M                              : Depth
 GR  .GAPI                           : Gamma Ray
 RHOB.G/C3                           : Bulk Density
 NPHI.V/V                            : Neutron Porosity
 RT  .OHMM                           : True Resistivity
 DT  .US/F                           : Sonic
 CALI.IN                             : Caliper
~PARAMETER INFORMATION
 LAT .                 65.3241   : Latitude
 LON .                 8.0833   : Longitude
 DESC.                 Norne Fm — Åre Formation, Ile/Tofte sandstones
~A  DEPT        GR        RHOB      NPHI      RT        DT        CALI
# ...
 3102.7420    24.440    1.5584    0.5186   552.429   138.550     8.321
 3102.8944    22.526    1.5978    0.4552  1533.649   135.117     8.955
 3103.0468    18.536    1.5640    0.5071   365.061   136.550     8.388
 3103.1992    20.692    1.5679    0.5529   441.027   134.907     8.982
 3103.3516    21.872    1.5808    0.5394   509.755   134.621     8.314
 3103.5040    16.247    1.5622    0.5029   778.582   140.272     8.173
 3103.6564    17.986    1.6048    0.5265   768.489   148.224     8.949
 3103.8088    15.785    1.6492    0.4900   553.167   144.844     9.538
 3103.9612    13.178    1.6549    0.6000   586.816   132.656     7.704
 3104.1136    20.305    1.6517    0.5983   451.514   143.704     8.661
 3104.2660    20.985    1.5730    0.5607   709.593   143.774     7.896
 3104.4184    21.682    1.5977    0.5670   601.139   133.713     8.975
 3104.5708    19.631    1.5945    0.5227   704.753   138.142     8.689
 3104.7232    21.202    1.6054    0.6000   363.646   149.082     8.583
 3104.8756    20.262    1.5562    0.4090   690.825   147.553     9.003
 3105.0280    21.780    1.5748    0.5460   385.975   133.667     7.830
 3105.1804    23.401    1.5557    0.4757   799.705   142.171     8.159
 3105.3328    21.085    1.5639    0.5439   295.595   139.528     7.895
 3105.4852    22.189    1.5996    0.5503   603.934   131.786     7.890
 3105.6376    24.462    1.5886    0.3966   393.078   142.079     8.399
 3105.7900    18.752    1.5782    0.5799   432.182   140.184     7.984
 3105.9424    21.115    1.5703    0.5426   559.146   137.410     8.788
 3106.0948    20.732    1.5853    0.6000   208.990   137.460     7.986
 3106.2472    23.363    1.5946    0.5909   160.827   138.285     7.853
 3106.3996    28.656    1.6232    0.5108   232.591   136.242     7.846
 3106.5520    16.257    1.5675    0.3520   775.485   155.864     8.232
 3106.7044    20.552    1.6869    0.5866   194.466   136.721     8.469
 3106.8568    17.376    1.5825    0.6000   371.942   144.676     9.208
 3107.0092    15.065    1.6006    0.6000   619.193   138.819     7.982
 3107.1616    19.591    1.5554    0.3775   910.826   143.766     8.458
 3107.3140    13.923    1.5904    0.4067   425.899   133.385     8.777
 3107.4664    23.217    1.5517    0.6000   246.866   143.707     8.791
 3107.6188    12.892    1.5724    0.3663   263.571   155.076     8.347
 3107.7712    24.675    1.5619    0.4920   435.290   134.924     8.481
 3107.9236    25.177    1.5817    0.5448   510.770   136.188     8.889
 3108.0760    19.890    1.6306    0.4156   594.023   137.666     7.815
 3108.2284    15.591    1.6183    0.5796   205.152   131.143     8.765
 3108.3808    16.836    1.6002    0.5164   847.985   128.658     8.791
 3108.5332    12.797    1.5871    0.5363   603.394   133.755     8.553
 3108.6856    18.755    1.5918    0.6000   831.448   136.125     8.273
 3108.8380    18.816    1.6314    0.5532   437.848   132.414     8.739
 3108.9904    22.729    1.6669    0.4202   505.769   138.886     8.661
 3109.1428    22.207    1.6201    0.5662   644.524   135.127     8.788
 3109.2952    20.725    1.6618    0.4817   426.908   133.166     8.286
 3109.4476    16.672    1.6230    0.5256   594.817   135.683     7.869
 3109.6000    27.173    1.6317    0.5027   389.492   141.748     8.160
 3109.7524    19.789    1.5739    0.3511   531.128   150.325     9.287
 3109.9048    16.717    1.6004    0.5476   362.801   141.161     7.702
 3110.0572    12.437    1.5675    0.4195   692.195   137.940     7.792
 3110.2096    19.548    1.6106    0.6000   537.025   137.200     7.951
 3110.3620    17.374    1.5987    0.6000   666.788   141.699     8.985
 3110.5144    20.263    1.5613    0.4663   382.968   134.105     9.184
 3110.6668    18.826    1.5473    0.6000   396.948   136.123     8.536
 3110.8192    21.595    1.6011    0.4327   637.341   149.403     8.789
 3110.9716    24.906    1.5699    0.5781  1539.239   136.743     8.023
 3111.1240    26.474    1.5879    0.6000   517.597   141.417     8.225
 3111.2764    23.595    1.6126    0.5617   372.278   143.190     8.140
 3111.4288    23.423    1.5635    0.6000   986.474   143.237     8.435
 3111.5812    21.023    1.6015    0.5741   386.827   137.764     8.859
 3111.7336    21.511    1.5620    0.5835   669.942   136.137     8.940
 3111.8860    28.850    1.6479    0.4821   423.629   141.390     8.486
 3112.0384    19.070    1.5512    0.6000   948.235   134.308     7.793
 3112.1908    19.567    1.5902    0.4371   285.537   132.541     9.433
 3112.3432    18.871    1.5783    0.5558   647.388   136.391     8.075
 3112.4956    22.052    1.5999    0.6000   489.160   145.710     9.018
 3112.6480    20.478    1.5982    0.5279   911.205   133.153     8.446
 3112.8004    25.595    1.6189    0.6000   354.990   139.683     9.389
 3112.9528    23.758    1.6301    0.5460   360.079   141.611     8.002
 3113.1052    20.252    1.5853    0.6000   438.137   133.161     8.034
 3113.2576    21.338    1.6451    0.6000   665.484   132.561     9.562
 3113.4100    21.301    1.6317    0.4926   410.730   138.947     8.255
 3113.5624    19.770    1.5979    0.4583   367.006   138.994     8.005
 3113.7148    17.839    1.5648    0.6000   442.349   140.109     8.186
 3113.8672    18.802    1.6070    0.5988   235.751   138.888     8.896
 3114.0196    15.704    1.6044    0.4631   373.065   127.900     8.438
 3114.1720    22.861    1.6030    0.5545   625.617   138.222     8.562
 3114.3244    17.745    1.5965    0.5623   426.327   138.766     8.694
 3114.4768    23.880    1.6003    0.4396   238.770   137.187     8.783
 3114.6292    22.926    1.5879    0.5406   244.518   136.870     8.601
 3114.7816    16.423    1.6480    0.6000   294.223   136.427     8.266
 3114.9340    19.132    1.5945    0.4621   307.065   130.681     8.576
 3115.0864    23.643    1.6111    0.6000   774.549   141.151     8.113
 3115.2388    18.084    1.5617    0.3899   258.031   147.417     8.189
 3115.3912    20.498    1.5826    0.6000  1074.222   143.464     8.283
 3115.5436    17.960    1.5929    0.5034   311.758   134.883     8.558
 3115.6960    18.436    1.5984    0.5556   995.687   127.492     8.111
 3115.8484    16.308    1.5907    0.5871   206.975   130.738     8.379
 3116.0008    18.417    1.6096    0.4910   223.339   143.346     7.845
 3116.1532    19.854    1.6079    0.4515   733.839   136.820     8.197
 3116.3056    19.621    1.5672    0.5501   757.024   132.191     8.657
 3116.4580    22.403    1.6117    0.6000   401.381   139.194     8.887
 3116.6104    18.545    1.6792    0.5076   754.713   143.442     8.674
 3116.7628    24.371    1.5819    0.4273   480.595   140.225     8.239
 3116.9152    22.905    1.5685    0.6000   797.535   139.120     8.395
 3117.0676    19.335    1.6407    0.5730   227.429   135.537     8.356
 3117.2200    21.589    1.6042    0.4739   305.175   133.675     8.562
 3117.3724    28.893    1.5809    0.6000   417.176   137.450     8.477
 3117.5248    19.044    1.5689    0.3758   381.585   152.336     8.649
 3117.6772    22.510    1.5907    0.5768   346.218   130.586     8.573
 3117.8296    20.491    1.5818    0.6000   700.615   143.215     8.651
 3117.9820    22.828    1.6357    0.5474   711.285   141.859     7.995
 3118.1344    24.648    1.5814    0.5523   502.923   135.595     8.280
 3118.2868    21.611    1.5668    0.5397   261.542   136.670     8.426
 3118.4392    20.408    1.5892    0.5802   530.583   131.352     8.297
 3118.5916    19.061    1.6093    0.3954   603.885   141.370     7.719
 3118.7440    19.721    1.6147    0.4684   662.335   139.845     8.079
 3118.8964    15.861    1.5777    0.4433   263.455   136.551     8.307
 3119.0488    20.246    1.5395    0.5836   560.501   137.834     9.527
 3119.2012    30.177    1.6035    0.5944   870.303   142.820     8.244
 3119.3536    10.149    1.6067    0.4482   691.865   134.861     8.998
 3119.5060    16.309    1.6620    0.6000   146.072   142.237     8.562
 3119.6584    16.863    1.5912    0.6000   377.474   130.092     7.519
 3119.8108    19.670    1.5840    0.5903   158.113   139.875     8.605
