~VERSION INFORMATION
 VERS.                 2.0    : CWLS LOG ASCII STANDARD
 WRAP.                 NO     : ONE LINE PER DEPTH STEP
~WELL INFORMATION
 WELL.                 6507/11-5    : Well name
 FLD .                 Norne         : Field
 CTRY.                 Norway       : Country
 STRT.M                2500.0000 : START DEPTH
 STOP.M                3800.0000   : STOP DEPTH
 STEP.M                0.1524        : STEP
 NULL.                 -999.25          : NULL VALUE
 SRVC.                 SubsurfAI        : Service company
~CURVE INFORMATION
 DEPT.M                              : Depth
 GR  .GAPI                           : Gamma Ray
 RHOB.G/C3                           : Bulk Density
 NPHI.V/V                            : Neutron Porosity
 RT  .OHMM                           : True Resistivity
 DT  .US/F                           : Sonic
 CALI.IN                             : Caliper
~PARAMETER INFORMATION
 LAT .                 65.3241   : Latitude
 LON .                 8.0833   : Longitude
 DESC.                 Norne Fm — Åre Formation, Ile/Tofte sandstones
~A  DEPT        GR        RHOB      NPHI      RT        DT        CALI
# ...
 2586.1060   139.714    2.5767    0.3542     2.388   152.319     8.742
 2586.2584   118.715    2.4517    0.3078     1.312   179.366     8.096
 2586.4108   102.260    2.4847    0.2532     1.307   200.000     8.551
 2586.5632   117.818    2.5671    0.3669     0.862   151.328     8.434
 2586.7156   113.250    2.4399    0.2816     1.064   193.544     9.166
 2586.8680   131.326    2.4262    0.3844     1.310   139.553     8.169
 2587.0204   126.081    2.5205    0.3010     1.696   178.184     8.603
 2587.1728   109.178    2.5413    0.3788     1.314   149.297     8.755
 2587.3252   127.256    2.4277    0.4410     0.992   134.206     8.486
 2587.4776   128.478    2.4770    0.2944     1.271   178.027     8.922
 2587.6300   114.975    2.5200    0.3044     1.446   179.360     9.008
 2587.7824   111.559    2.4495    0.2766     1.167   200.000     7.736
 2587.9348   131.152    2.5647    0.3199     2.694   172.618     9.464
 2588.0872   107.339    2.4680    0.2812     1.611   188.229     8.402
 2588.2396   111.977    2.4905    0.3750     2.072   147.131     8.455
 2588.3920   120.885    2.5142    0.3298     2.265   155.969     8.365
 2588.5444   102.131    2.5565    0.3365     2.924   159.618     8.752
 2588.6968    93.809    2.4291    0.2975     2.019   176.032     8.865
 2588.8492   127.529    2.4393    0.3864     0.713   135.785     8.446
 2589.0016   100.551    2.4706    0.2397     1.617   200.000     8.346
 2589.1540   107.733    2.5786    0.1967     1.846   200.000     7.609
 2589.3064   116.193    2.4997    0.2923     3.420   186.430     8.859
 2589.4588   111.627    2.5076    0.3482     1.294   150.505     8.467
 2589.6112    94.678    2.4497    0.3259     2.192   167.063     8.599
 2589.7636   105.253    2.4992    0.2570     1.131   200.000     8.458
 2589.9160   118.459    2.5361    0.3174     0.636   170.187     8.515
 2590.0684   105.797    2.4191    0.4485     5.606   144.625     8.466
 2590.2208   119.089    2.3938    0.2846     1.274   190.806     8.722
 2590.3732   108.565    2.5049    0.3449     2.456   164.568     8.935
 2590.5256   121.656    2.4716    0.3493     1.009   161.062     8.543
 2590.6780   108.973    2.5275    0.3355     0.359   157.757     8.322
 2590.8304   129.569    2.4675    0.3723     2.723   141.735     8.066
 2590.9828    93.400    2.4168    0.3630     1.250   142.993     8.502
 2591.1352   102.441    2.5858    0.4179     2.749   135.728     8.015
 2591.2876   113.781    2.4075    0.4077     1.593   138.526     8.379
 2591.4400   101.667    2.5189    0.3649     1.445   146.889     8.220
 2591.5924   128.340    2.4359    0.2851     1.329   183.209     9.133
 2591.7448   113.100    2.5071    0.3483     1.867   157.603     7.939
 2591.8972   121.000    2.6063    0.3038     1.107   180.584     8.089
 2592.0496   109.491    2.6614    0.3339     1.599   150.673     8.834
 2592.2020   106.847    2.5772    0.2428     1.849   200.000     8.472
 2592.3544   112.058    2.5195    0.2863     1.073   189.306     8.557
 2592.5068   103.780    2.4936    0.3544     2.290   159.188     9.184
 2592.6592   104.797    2.5359    0.3639     2.079   150.874     8.990
 2592.8116   109.361    2.4272    0.3381     1.361   163.714     8.173
 2592.9640   103.263    2.5780    0.3027     1.309   188.470     8.667
 2593.1164   116.648    2.5004    0.4206     1.772   136.397     8.446
 2593.2688   110.143    2.5746    0.3457     2.512   162.476     8.429
 2593.4212   111.777    2.6073    0.4504     2.053   128.090     8.886
 2593.5736   120.882    2.5251    0.4236     1.598   132.404     7.804
 2593.7260    96.490    2.5282    0.3764     1.077   148.355     8.305
 2593.8784   113.667    2.4191    0.4149     1.609   137.078     8.261
 2594.0308   112.037    2.4692    0.2749     3.521   185.814     8.203
 2594.1832   137.160    2.5581    0.3226     1.326   164.781     8.201
 2594.3356   131.363    2.4372    0.3624     3.108   158.525     8.631
 2594.4880   124.023    2.4823    0.3275     0.975   169.507     8.978
 2594.6404   107.600    2.5095    0.2944     1.742   185.769     8.507
 2594.7928   100.656    2.4636    0.3100     4.181   179.680     8.263
 2594.9452   130.383    2.5883    0.3934     1.432   136.832     8.204
 2595.0976   101.889    2.3959    0.3744     2.300   154.023     8.685
 2595.2500   136.871    2.5084    0.4272     1.157   144.690     8.822
 2595.4024    99.238    2.5062    0.4505     0.893   131.953     8.616
 2595.5548   118.487    2.4233    0.3730     0.797   150.705     8.449
 2595.7072   144.351    2.4751    0.3424     2.090   161.678     8.716
 2595.8596   111.905    2.5315    0.3506     0.262   160.322     7.989
 2596.0120   119.783    2.5114    0.2583     3.212   200.000     8.690
 2596.1644   110.848    2.5932    0.3480     1.980   162.256     9.015
 2596.3168   145.307    2.4397    0.3063     1.812   186.066     8.530
 2596.4692   104.632    2.4713    0.3382     2.962   164.455     8.379
 2596.6216   148.905    2.4785    0.3948     1.770   136.820     8.822
 2596.7740   145.002    2.4922    0.3370     0.963   162.969     8.856
 2596.9264   122.431    2.5595    0.3352     0.696   168.178     8.261
 2597.0788   116.846    2.4898    0.3280     1.289   177.166     8.361
 2597.2312   120.435    2.4881    0.3474     1.750   160.890     8.433
 2597.3836   114.123    2.5069    0.2633     1.015   200.000     8.503
 2597.5360   144.666    2.6053    0.2901     1.940   199.613     8.144
 2597.6884   111.546    2.5400    0.3610     1.837   153.174     8.384
 2597.8408   114.627    2.4408    0.4383     0.516   145.001     8.138
 2597.9932   105.547    2.5142    0.3724     0.755   138.997     8.544
 2598.1456   116.122    2.4945    0.3218     0.685   176.620     8.509
 2598.2980   129.054    2.4525    0.3827     2.216   148.762     9.005
 2598.4504   138.450    2.5378    0.3099     1.802   187.341     8.993
 2598.6028   119.186    2.5516    0.2727     3.162   195.046     8.344
 2598.7552   105.921    2.5707    0.5446     1.194   134.760     8.039
 2598.9076   130.449    2.4304    0.3934     1.377   143.708     8.935
 2599.0600   141.766    2.4144    0.3067     2.010   178.902     8.475
 2599.2124   114.150    2.4628    0.2805     3.364   191.702     8.551
 2599.3648   130.410    2.5288    0.4659     1.611   136.113     9.308
 2599.5172   119.962    2.5353    0.4458     1.419   131.816     7.995
 2599.6696   133.625    2.5383    0.3287     2.593   163.561     8.808
 2599.8220   113.095    2.5422    0.3939     1.488   146.154     8.299
 2599.9744   139.838    2.5790    0.2608     3.553   200.000     8.536
 2600.1268   101.415    2.4797    0.3058     0.946   177.655     8.538
 2600.2792   102.871    2.4835    0.3098     2.390   177.858     8.404
 2600.4316    82.367    2.4465    0.3626     3.762   153.340     8.262
 2600.5840   120.789    2.5512    0.2978     1.729   186.701     8.673
 2600.7364   129.023    2.5306    0.3438     1.444   165.061     8.161
 2600.8888    87.713    2.5295    0.3358     1.847   159.181     8.592
 2601.0412   108.910    2.4824    0.3683     0.771   150.990     8.620
 2601.1936   106.055    2.4565    0.3090     1.499   176.561     8.498
 2601.3460   126.956    2.5042    0.3464     1.982   146.978     8.990
 2601.4984    88.566    2.5577    0.2625     1.563   200.000     8.242
 2601.6508   112.347    2.5695    0.3208     2.199   178.139     8.490
 2601.8032   111.925    2.4722    0.3190     1.426   175.247     7.738
 2601.9556   130.800    2.4792    0.3102     1.411   178.428     9.036
 2602.1080   108.992    2.4626    0.3455     2.147   165.188     8.448
 2602.2604   118.581    2.4695    0.3111     1.726   175.153     8.646
 2602.4128   114.021    2.4359    0.2652     1.646   200.000     7.908
 2602.5652   136.644    2.5135    0.4094     1.211   142.795     8.673
 2602.7176   122.965    2.5540    0.3024     2.437   182.199     8.464
 2602.8700   104.047    2.5334    0.3481     1.390   154.138     8.836
 2603.0224   140.472    2.4358    0.3521     1.293   154.740     8.814
 2603.1748   148.674    2.5031    0.3027     2.580   181.821     8.672
