~VERSION INFORMATION
 VERS.                 2.0    : CWLS LOG ASCII STANDARD
 WRAP.                 NO     : ONE LINE PER DEPTH STEP
~WELL INFORMATION
 WELL.                 6507/11-5    : Well name
 FLD .                 Norne         : Field
 CTRY.                 Norway       : Country
 STRT.M                2500.0000 : START DEPTH
 STOP.M                3800.0000   : STOP DEPTH
 STEP.M                0.1524        : STEP
 NULL.                 -999.25          : NULL VALUE
 SRVC.                 SubsurfAI        : Service company
~CURVE INFORMATION
 DEPT.M                              : Depth
 GR  .GAPI                           : Gamma Ray
 RHOB.G/C3                           : Bulk Density
 NPHI.V/V                            : Neutron Porosity
 RT  .OHMM                           : True Resistivity
 DT  .US/F                           : Sonic
 CALI.IN                             : Caliper
~PARAMETER INFORMATION
 LAT .                 65.3241   : Latitude
 LON .                 8.0833   : Longitude
 DESC.                 Norne Fm — Åre Formation, Ile/Tofte sandstones
~A  DEPT        GR        RHOB      NPHI      RT        DT        CALI
# ...
 2672.2120   144.357    2.4638    0.2953     1.825   186.232     8.525
 2672.3644    98.123    2.6394    0.3679     1.153   150.397     8.487
 2672.5168   113.416    2.4648    0.4083     2.111   134.900     9.124
 2672.6692   136.653    2.4823    0.3407     2.413   169.063     9.032
 2672.8216   117.641    2.4787    0.3198     0.789   170.705     8.816
 2672.9740   117.392    2.5054    0.3518     2.557   150.145     9.349
 2673.1264   145.704    2.5133    0.3256     3.688   170.489     8.306
 2673.2788   103.574    2.4422    0.3470     1.307   151.021     8.755
 2673.4312   134.167    2.4451    0.2692     0.962   200.000     9.015
 2673.5836   112.347    2.4930    0.3933     1.272   143.204     8.459
 2673.7360   100.718    2.4980    0.4210     0.946   149.996     8.123
 2673.8884   108.664    2.4866    0.3719     1.833   147.162     8.843
 2674.0408   106.166    2.4999    0.2965     1.799   185.332     8.483
 2674.1932   101.457    2.4071    0.4476     1.194   133.405     8.601
 2674.3456   110.453    2.5416    0.3478     1.343   147.921     8.482
 2674.4980   119.153    2.5400    0.3331     1.012   159.340     7.512
 2674.6504   109.825    2.4753    0.4073     1.228   139.917     8.560
 2674.8028   123.247    2.4543    0.3311     1.892   172.387     8.309
 2674.9552   107.133    2.5883    0.3294     2.390   166.877     8.798
 2675.1076    96.400    2.4758    0.3448     2.132   162.581     8.044
 2675.2600   100.937    2.4934    0.3735     1.057   151.876     8.291
 2675.4124   114.583    2.5400    0.2838     2.141   187.219     8.254
 2675.5648   113.885    2.4092    0.2735     0.893   196.156     8.601
 2675.7172   123.877    2.5360    0.3435     2.863   157.683     8.932
 2675.8696    92.492    2.5120    0.3484     0.841   159.872     8.944
 2676.0220   110.922    2.5383    0.4018     1.625   141.935     8.545
 2676.1744   108.537    2.4714    0.4136     0.717   133.092     8.217
 2676.3268   123.908    2.5145    0.3924     2.659   137.249     7.813
 2676.4792   116.586    2.5150    0.3759     2.234   153.704     8.504
 2676.6316   115.429    2.5317    0.4328     3.125   139.207     8.978
 2676.7840   136.093    2.5482    0.3653     1.262   144.888     8.485
 2676.9364   135.103    2.4446    0.2732     1.612   198.955     8.859
 2677.0888   106.702    2.5217    0.2944     1.621   189.802     8.210
 2677.2412   151.109    2.4723    0.2872     1.165   200.000     8.468
 2677.3936   124.500    2.4534    0.4090     2.603   137.684     7.892
 2677.5460   121.983    2.5704    0.3216     1.047   174.753     8.283
 2677.6984   146.509    2.5071    0.3072     1.443   179.687     8.836
 2677.8508   106.966    2.5863    0.3363     0.833   157.166     8.996
 2678.0032    98.752    2.5389    0.2738     1.163   200.000     8.655
 2678.1556   127.196    2.4708    0.3033     1.413   179.115     8.005
 2678.3080   141.931    2.5111    0.3638     2.659   155.195     8.755
 2678.4604   114.165    2.4714    0.4428     0.967   134.206     8.292
 2678.6128   151.377    2.4877    0.3216     2.762   171.852     8.002
 2678.7652   125.641    2.4627    0.3407     0.999   176.725     8.851
 2678.9176    98.313    2.5171    0.3584     2.419   143.103     8.023
 2679.0700   137.422    2.5116    0.2646     0.977   200.000     8.855
 2679.2224   130.531    2.4978    0.3536     3.241   158.364     8.805
 2679.3748   114.800    2.4288    0.3353     1.277   167.234     8.251
 2679.5272   127.524    2.5929    0.3453     2.148   160.566     7.650
 2679.6796   102.961    2.5627    0.4337     3.627   132.316     8.687
 2679.8320   130.127    2.5377    0.3805     4.161   141.432     8.324
 2679.9844    98.348    2.4645    0.3108     0.921   169.794     8.908
 2680.1368   110.013    2.5349    0.3038     1.553   183.496     9.158
 2680.2892    95.208    2.4638    0.3647     1.380   152.599     8.177
 2680.4416   120.697    2.5594    0.4110     1.719   151.137     8.791
 2680.5940    86.438    2.5113    0.2816     0.454   197.375     8.599
 2680.7464   116.217    2.4149    0.3402     0.957   157.338     7.910
 2680.8988   104.219    2.5122    0.3697     0.985   140.814     8.303
 2681.0512   112.110    2.4766    0.3001     3.653   179.648     8.536
 2681.2036    95.700    2.6541    0.3331     0.690   178.257     8.788
 2681.3560   110.777    2.4946    0.3336     2.080   173.253     8.694
 2681.5084   136.470    2.4822    0.3859     1.032   143.132     8.991
 2681.6608   100.765    2.3927    0.3161     0.730   179.572     8.693
 2681.8132    90.313    2.4675    0.3607     2.483   150.689     9.023
 2681.9656   100.719    2.5402    0.3739     0.737   147.125     8.759
 2682.1180   119.975    2.4678    0.2813     1.195   200.000     8.772
 2682.2704   119.462    2.4730    0.3182     1.171   172.375     8.209
 2682.4228   102.550    2.5485    0.3141     1.049   168.021     8.373
 2682.5752   138.079    2.5619    0.4100     2.698   136.196     8.528
 2682.7276   114.956    2.4978    0.3525     1.497   156.538     8.071
 2682.8800    97.973    2.5382    0.3014     3.179   177.490     7.820
 2683.0324   109.427    2.4825    0.3596     0.748   154.245     7.968
 2683.1848   115.540    2.4998    0.2190     1.145   200.000     8.306
 2683.3372   112.771    2.4873    0.3686     1.108   152.047     8.866
 2683.4896   138.258    2.5179    0.2630     2.172   200.000     7.934
 2683.6420   122.892    2.4427    0.3114     1.519   179.017     8.822
 2683.7944   118.612    2.5469    0.3539     1.367   160.830     8.443
 2683.9468    98.692    2.4668    0.3410     2.305   160.191     8.244
 2684.0992   122.551    2.4678    0.3685     0.764   153.373     8.398
 2684.2516   106.786    2.4743    0.3656     0.378   151.322     9.287
 2684.4040   106.887    2.5489    0.3704     4.377   156.089     8.365
 2684.5564   122.080    2.5231    0.2489     2.560   200.000     8.597
 2684.7088   110.260    2.5177    0.4071     1.131   139.519     9.066
 2684.8612    94.064    2.5408    0.3703     0.668   153.451     8.882
 2685.0136   122.318    2.5372    0.3438     1.386   154.610     9.058
 2685.1660   122.285    2.3999    0.3848     1.009   144.276     8.516
 2685.3184   106.188    2.5436    0.2928     1.334   191.464     8.063
 2685.4708   111.021    2.4564    0.2995     0.808   179.952     7.769
 2685.6232   100.838    2.4774    0.3596     1.186   149.047     8.240
 2685.7756   100.182    2.4745    0.3338     2.369   171.971     8.024
 2685.9280   110.218    2.4435    0.2845     0.935   199.950     8.332
 2686.0804   104.191    2.4883    0.2869     3.150   182.543     7.850
 2686.2328   102.594    2.5500    0.2815     1.083   190.025     8.374
 2686.3852   123.537    2.4947    0.3564     2.002   152.098     8.956
 2686.5376   113.581    2.5329    0.3236     1.221   165.789     8.421
 2686.6900   116.074    2.5113    0.3008     3.334   187.535     8.037
 2686.8424   134.164    2.4514    0.3661     0.785   148.123     8.068
 2686.9948   128.343    2.4454    0.3471     1.342   162.176     8.072
 2687.1472   109.602    2.4733    0.2544     2.236   200.000     8.669
 2687.2996   131.202    2.5086    0.3789     1.187   147.774     9.021
 2687.4520   108.696    2.4638    0.3225     1.351   166.921     8.326
 2687.6044   101.083    2.5896    0.3100     1.802   179.704     8.709
 2687.7568   115.422    2.4889    0.2402     1.881   200.000     8.446
 2687.9092    89.294    2.5188    0.3555     2.243   158.096     7.961
 2688.0616   105.554    2.5537    0.2998     1.450   185.669     8.745
 2688.2140   103.769    2.5822    0.3249     2.548   164.857     8.704
 2688.3664   115.740    2.5455    0.4352     1.019   136.346     8.707
 2688.5188    78.233    2.4715    0.3427     1.451   157.134     8.650
 2688.6712   105.467    2.5461    0.3915     0.441   145.064     7.746
 2688.8236   102.820    2.4813    0.3949     1.697   142.839     9.940
 2688.9760    93.929    2.5378    0.3759     2.140   146.052     8.668
 2689.1284   143.833    2.5740    0.3792     1.255   152.717     8.737
 2689.2808   127.314    2.4853    0.3172     2.657   176.788     8.870
