~VERSION INFORMATION
 VERS.                 2.0    : CWLS LOG ASCII STANDARD
 WRAP.                 NO     : ONE LINE PER DEPTH STEP
~WELL INFORMATION
 WELL.                 NorthField-E1    : Well name
 FLD .                 North Field         : Field
 CTRY.                 Qatar       : Country
 STRT.M                2800.0000 : START DEPTH
 STOP.M                4000.0000   : STOP DEPTH
 STEP.M                0.1524        : STEP
 NULL.                 -999.25          : NULL VALUE
 SRVC.                 SubsurfAI        : Service company
~CURVE INFORMATION
 DEPT.M                              : Depth
 GR  .GAPI                           : Gamma Ray
 RHOB.G/C3                           : Bulk Density
 NPHI.V/V                            : Neutron Porosity
 RT  .OHMM                           : True Resistivity
 DT  .US/F                           : Sonic
 CALI.IN                             : Caliper
~PARAMETER INFORMATION
 LAT .                 25.8654   : Latitude
 LON .                 51.5321   : Longitude
 DESC.                 North Field — Khuff carbonate, worlds largest gas field
~A  DEPT        GR        RHOB      NPHI      RT        DT        CALI
# ...
 3988.2628     7.816    2.7527    0.0445   349.644   200.000     8.634
 3988.4152     8.167    2.7063    0.0253   819.952   200.000     8.439
 3988.5676     6.117    2.6665    0.0382   847.502   200.000     8.079
 3988.7200     9.382    2.6930    0.0324   329.286   200.000     8.900
 3988.8724     4.258    2.7753    0.0291   468.432   200.000     8.895
 3989.0248    13.446    2.7240    0.0415   258.932   200.000     8.996
 3989.1772    11.185    2.7277    0.0375   491.634   200.000     7.756
 3989.3296     6.953    2.7773    0.0428   289.704   200.000     8.603
 3989.4820     8.517    2.7140    0.0304   705.833   200.000     9.252
 3989.6344     4.612    2.7063    0.0408   425.923   200.000     8.438
 3989.7868     8.722    2.8260    0.0442   432.296   200.000     8.282
 3989.9392     8.194    2.7480    0.0464   254.575   200.000     8.624
 3990.0916    10.064    2.7863    0.0408   682.618   200.000     8.699
 3990.2440    11.667    2.7601    0.0317   321.033   200.000     8.346
 3990.3964     3.100    2.6504    0.0404   349.183   200.000     8.355
 3990.5488     8.588    2.7407    0.0410   261.791   200.000     8.061
 3990.7012     7.863    2.7698    0.0354   583.551   200.000     7.869
 3990.8536     2.586    2.7856    0.0412   776.739   200.000     8.396
 3991.0060     8.383    2.6935    0.0379  1032.463   200.000     8.907
 3991.1584     6.922    2.7347    0.0554   366.837   200.000     8.086
 3991.3108     7.007    2.7016    0.0389   462.739   200.000     8.896
 3991.4632    13.976    2.7154    0.0322  1046.806   200.000     9.251
 3991.6156    17.164    2.7783    0.0301   691.224   200.000     8.214
 3991.7680     6.001    2.7164    0.0372   160.506   200.000     8.556
 3991.9204    12.154    2.6542    0.0372   477.300   200.000     8.537
 3992.0728     7.743    2.7108    0.0396   636.922   200.000     8.858
 3992.2252     9.120    2.8132    0.0467   818.810   200.000     8.518
 3992.3776    10.113    2.6859    0.0284   651.568   200.000     8.196
 3992.5300    10.742    2.8456    0.0377   635.137   200.000     8.952
 3992.6824    11.409    2.7757    0.0261   480.622   200.000     8.393
 3992.8348    12.868    2.7140    0.0408   219.872   200.000     7.561
 3992.9872     8.875    2.7209    0.0385   399.628   200.000     8.434
 3993.1396     7.898    2.6851    0.0475   910.991   200.000     8.594
 3993.2920    10.929    2.7431    0.0446   938.851   200.000     8.585
 3993.4444     8.412    2.7548    0.0416   559.763   200.000     8.919
 3993.5968    16.527    2.7596    0.0434   484.572   200.000     9.249
 3993.7492     6.390    2.7296    0.0408   334.262   200.000     9.310
 3993.9016     8.710    2.6812    0.0335  1643.554   200.000     8.580
 3994.0540    12.866    2.7154    0.0352   363.042   200.000     8.930
 3994.2064     5.985    2.6749    0.0426   536.534   200.000     8.258
 3994.3588    11.972    2.6151    0.0389   804.029   200.000     8.926
 3994.5112    16.679    2.6551    0.0386   259.397   200.000     8.747
 3994.6636     8.705    2.7715    0.0494   442.268   200.000     9.150
 3994.8160     9.262    2.6937    0.0436   813.234   200.000     8.284
 3994.9684    17.076    2.7121    0.0412   611.187   200.000     8.860
 3995.1208    14.902    2.7278    0.0471   501.793   200.000     7.687
 3995.2732     7.603    2.7246    0.0418   258.489   200.000     8.570
 3995.4256    13.307    2.7382    0.0351   339.888   200.000     7.796
 3995.5780     8.931    2.8064    0.0388   476.922   200.000     8.686
 3995.7304     8.202    2.7171    0.0317   213.592   200.000     8.481
 3995.8828     4.932    2.7208    0.0334   678.105   200.000     8.298
 3996.0352    14.246    2.7917    0.0372   587.080   200.000     8.223
 3996.1876    12.659    2.7069    0.0425   622.696   200.000     8.572
 3996.3400    14.427    2.7259    0.0454   867.583   200.000     7.908
 3996.4924    12.992    2.8120    0.0405   357.643   200.000     8.457
 3996.6448     9.264    2.7372    0.0377   415.190   200.000     9.438
 3996.7972     9.219    2.6827    0.0350   384.274   200.000     7.779
 3996.9496    16.824    2.7748    0.0466   798.487   200.000     8.955
 3997.1020     7.995    2.7074    0.0326   286.125   200.000     8.389
 3997.2544    12.682    2.7259    0.0355  1015.834   200.000     8.235
 3997.4068     8.557    2.7812    0.0378   175.870   200.000     7.691
 3997.5592     6.215    2.7602    0.0312   255.430   200.000     7.973
 3997.7116     9.934    2.7753    0.0353   792.351   200.000     8.831
 3997.8640    13.570    2.6912    0.0466   419.043   200.000     8.147
 3998.0164     5.852    2.6525    0.0378   632.066   200.000     9.032
 3998.1688     8.531    2.6860    0.0470   210.364   200.000     8.887
 3998.3212     5.259    2.7472    0.0331  1156.279   200.000     8.927
 3998.4736    11.974    2.7072    0.0396   446.015   200.000     8.935
 3998.6260    11.303    2.7440    0.0386   400.599   200.000     8.769
 3998.7784     8.322    2.7349    0.0480   649.989   200.000     7.735
 3998.9308    12.767    2.7526    0.0386   390.787   200.000     8.176
 3999.0832     6.457    2.7248    0.0425  1967.729   200.000     7.964
 3999.2356     7.276    2.7122    0.0451   770.761   200.000     7.992
 3999.3880    10.331    2.6824    0.0325   272.561   200.000     8.568
 3999.5404    10.619    2.6740    0.0457   229.323   200.000     8.372
 3999.6928    13.561    2.7950    0.0447   233.849   200.000     8.384
 3999.8452     5.121    2.8035    0.0423   759.367   200.000     8.290
 3999.9976    12.821    2.6997    0.0327   770.660   200.000     8.970
