~VERSION INFORMATION
 VERS.                 2.0    : CWLS LOG ASCII STANDARD
 WRAP.                 NO     : ONE LINE PER DEPTH STEP
~WELL INFORMATION
 WELL.                 NorthField-E1    : Well name
 FLD .                 North Field         : Field
 CTRY.                 Qatar       : Country
 STRT.M                2800.0000 : START DEPTH
 STOP.M                4000.0000   : STOP DEPTH
 STEP.M                0.1524        : STEP
 NULL.                 -999.25          : NULL VALUE
 SRVC.                 SubsurfAI        : Service company
~CURVE INFORMATION
 DEPT.M                              : Depth
 GR  .GAPI                           : Gamma Ray
 RHOB.G/C3                           : Bulk Density
 NPHI.V/V                            : Neutron Porosity
 RT  .OHMM                           : True Resistivity
 DT  .US/F                           : Sonic
 CALI.IN                             : Caliper
~PARAMETER INFORMATION
 LAT .                 25.8654   : Latitude
 LON .                 51.5321   : Longitude
 DESC.                 North Field — Khuff carbonate, worlds largest gas field
~A  DEPT        GR        RHOB      NPHI      RT        DT        CALI
# ...
 3747.1660     3.060    2.9602    0.0096   334.843   200.000     8.311
 3747.3184     6.665    2.9735    0.0105  1064.731   200.000     8.542
 3747.4708     6.221    2.9518    0.0104   505.301   200.000     8.159
 3747.6232     2.732    2.9111    0.0102   547.694   200.000     8.040
 3747.7756     5.241    2.9945    0.0092  1366.681   200.000     8.813
 3747.9280     5.945    2.9891    0.0090   483.596   200.000     8.012
 3748.0804     6.590    3.0133    0.0103   719.747   200.000     8.515
 3748.2328     5.311    2.9621    0.0106  1525.563   200.000     8.270
 3748.3852     6.314    2.9864    0.0111   705.284   200.000     8.466
 3748.5376     5.784    2.9715    0.0079   658.794   200.000     8.814
 3748.6900     7.575    2.9501    0.0097  1199.289   200.000     9.087
 3748.8424     0.812    2.9261    0.0069  1377.407   200.000     8.859
 3748.9948     8.049    2.9718    0.0118   707.775   200.000     7.400
 3749.1472     6.491    2.8934    0.0113   889.683   200.000     8.319
 3749.2996     6.150    2.9836    0.0109   986.263   200.000     8.503
 3749.4520    13.127    2.9463    0.0081   406.169   200.000     8.450
 3749.6044    13.411    3.0059    0.0118   783.446   200.000     8.873
 3749.7568     2.256    2.9085    0.0091   957.839   200.000     8.447
 3749.9092     8.431    3.0021    0.0102  1014.037   200.000     8.479
 3750.0616     2.016    2.9539    0.0109  1560.005   200.000     8.714
 3750.2140     4.946    2.9408    0.0100   509.069   200.000     7.559
 3750.3664     6.590    3.0062    0.0102   846.572   200.000     8.839
 3750.5188     3.380    2.9805    0.0066  1259.484   200.000     8.764
 3750.6712     1.726    3.0252    0.0103   945.356   200.000     8.129
 3750.8236     6.194    3.0510    0.0090   472.055   200.000     8.065
 3750.9760     8.597    3.0142    0.0082  1095.202   200.000     8.471
 3751.1284     7.223    3.0722    0.0099   993.688   200.000     8.539
 3751.2808     6.118    3.0254    0.0092   802.871   200.000     8.813
 3751.4332     2.450    2.9599    0.0091   469.075   200.000     8.924
 3751.5856    -0.614    2.9639    0.0098  2104.286   200.000     8.666
 3751.7380     6.677    2.9496    0.0092  1177.787   200.000     7.998
 3751.8904     0.328    2.9715    0.0104  1923.785   200.000     8.903
 3752.0428     6.452    2.9276    0.0096  1250.149   200.000     8.147
 3752.1952     8.215    2.9500    0.0096  1088.537   200.000     8.314
 3752.3476     7.223    2.9974    0.0081  1077.668   200.000     7.509
 3752.5000     6.274    3.0638    0.0082  2105.635   200.000     8.338
 3752.6524     9.184    2.8904    0.0095  1253.095   200.000     8.695
 3752.8048     7.297    2.9091    0.0093  1060.921   200.000     8.886
 3752.9572     5.216    3.0268    0.0102   628.296   200.000     7.831
 3753.1096     3.602    3.0193    0.0092  2040.964   200.000     8.450
 3753.2620     5.697    2.9280    0.0099  1196.828   200.000     8.148
 3753.4144     4.561    2.9849    0.0104  1011.811   200.000     8.125
 3753.5668     2.841    2.9693    0.0088  1120.321   200.000     8.547
 3753.7192     5.585    2.9647    0.0103   578.219   200.000     9.477
 3753.8716     5.667    2.9264    0.0112  1902.085   200.000     9.088
 3754.0240     7.851    3.0223    0.0077   759.045   200.000     8.545
 3754.1764     6.636    2.9559    0.0077  1810.927   200.000     8.325
 3754.3288    10.962    3.0107    0.0119   986.286   200.000     8.297
 3754.4812     3.174    2.9437    0.0118   746.173   200.000     8.560
 3754.6336    10.697    2.9773    0.0105  1173.677   200.000     8.864
 3754.7860     4.523    2.9148    0.0093  1481.630   200.000     7.651
 3754.9384     0.182    2.9204    0.0123   578.495   200.000     8.365
 3755.0908     2.341    2.8458    0.0106  1108.556   200.000     8.576
 3755.2432     5.250    3.0650    0.0089  1903.059   200.000     8.806
 3755.3956     8.233    2.9839    0.0109   970.953   200.000     7.495
 3755.5480     7.636    2.8755    0.0130   963.223   200.000     8.876
 3755.7004     4.388    3.0251    0.0103   446.634   200.000     8.380
 3755.8528     3.223    2.9009    0.0107  1010.177   200.000     8.232
 3756.0052     0.433    2.9661    0.0123  1598.477   200.000     7.888
 3756.1576     8.398    3.0295    0.0126  1481.810   200.000     7.917
 3756.3100     5.316    2.9380    0.0104   878.739   200.000     8.529
 3756.4624     8.512    2.8738    0.0114  1029.454   200.000     8.307
 3756.6148     1.378    2.8363    0.0122  1005.767   200.000     8.722
 3756.7672     0.699    3.0864    0.0111   884.028   200.000     9.284
 3756.9196     4.982    2.9751    0.0120  1256.739   200.000     7.976
 3757.0720     0.654    2.8615    0.0099  1020.661   200.000     9.423
 3757.2244     0.216    2.9759    0.0106   724.626   200.000     9.198
 3757.3768     4.480    2.9790    0.0128  1945.343   200.000     8.623
 3757.5292     6.897    2.9439    0.0123  1519.502   200.000     9.050
 3757.6816     8.959    3.0316    0.0122  1154.712   200.000     8.740
 3757.8340    -1.606    3.0495    0.0089   445.339   200.000     8.425
 3757.9864     0.320    2.9935    0.0063  1897.714   200.000     8.064
 3758.1388     1.686    2.9647    0.0064   746.811   200.000     8.682
 3758.2912     0.197    2.9448    0.0084   642.274   200.000     8.930
 3758.4436     7.576    3.0220    0.0119   634.848   200.000     9.073
 3758.5960     5.950    2.8948    0.0102  2113.970   200.000     8.070
 3758.7484     6.530    2.9660    0.0102  1735.668   200.000     8.349
 3758.9008     5.331    2.9886    0.0118   635.882   200.000     8.204
 3759.0532     3.871    2.9469    0.0099   698.416   200.000     8.345
 3759.2056    -2.369    2.9357    0.0124   606.106   200.000     8.591
 3759.3580     5.805    2.9575    0.0124  2627.962   200.000     7.840
 3759.5104     6.867    2.9867    0.0082   486.691   200.000     8.425
 3759.6628    10.419    2.9743    0.0080   700.656   200.000     8.358
 3759.8152     9.208    2.8780    0.0113  1535.609   200.000     8.198
 3759.9676     0.099    2.9547    0.0112  1212.022   200.000     8.553
 3760.1200    13.509    2.7684    0.0303   564.935   200.000     7.920
 3760.2724    10.687    2.6968    0.0321   404.710   200.000     8.056
 3760.4248     8.650    2.7381    0.0470   531.539   200.000     7.602
 3760.5772     7.986    2.7769    0.0400   338.255   200.000     8.245
 3760.7296    12.519    2.7525    0.0362   368.142   200.000     8.943
 3760.8820     9.702    2.7271    0.0415   676.176   200.000     8.595
 3761.0344    16.843    2.7073    0.0403   322.206   200.000     8.144
 3761.1868     7.074    2.7274    0.0288   407.999   200.000     9.150
 3761.3392     8.246    2.7031    0.0368   928.960   200.000     7.828
 3761.4916    12.167    2.6915    0.0388   473.416   200.000     8.754
 3761.6440    15.268    2.7361    0.0391   275.872   200.000     7.754
 3761.7964    13.798    2.7677    0.0448   366.945   200.000     8.314
 3761.9488    10.275    2.7482    0.0305   366.962   200.000     8.243
 3762.1012    11.326    2.6963    0.0326   550.081   200.000     7.832
 3762.2536    14.869    2.7155    0.0357   488.388   200.000     8.322
 3762.4060     9.142    2.8051    0.0392   180.824   200.000     8.217
 3762.5584     9.285    2.6433    0.0406   924.256   200.000     8.498
 3762.7108    10.720    2.8310    0.0508   240.392   200.000     8.281
 3762.8632    13.516    2.8301    0.0443   464.496   200.000     8.934
 3763.0156    12.765    2.6625    0.0265   188.923   200.000     8.687
 3763.1680    11.799    2.7753    0.0411   431.624   200.000     8.435
 3763.3204    14.651    2.7710    0.0282  1019.384   200.000     8.842
 3763.4728    12.935    2.8443    0.0463   814.830   200.000     8.957
 3763.6252     7.152    2.6947    0.0426  1188.023   200.000     8.600
 3763.7776    10.408    2.7477    0.0367  1005.554   200.000     8.097
 3763.9300    12.959    2.6467    0.0496   241.232   200.000     8.908
 3764.0824     2.162    2.6583    0.0401   464.855   200.000     8.945
 3764.2348     7.333    2.6858    0.0401   729.380   200.000     7.813
