~VERSION INFORMATION
 VERS.                 2.0    : CWLS LOG ASCII STANDARD
 WRAP.                 NO     : ONE LINE PER DEPTH STEP
~WELL INFORMATION
 WELL.                 NorthField-E1    : Well name
 FLD .                 North Field         : Field
 CTRY.                 Qatar       : Country
 STRT.M                2800.0000 : START DEPTH
 STOP.M                4000.0000   : STOP DEPTH
 STEP.M                0.1524        : STEP
 NULL.                 -999.25          : NULL VALUE
 SRVC.                 SubsurfAI        : Service company
~CURVE INFORMATION
 DEPT.M                              : Depth
 GR  .GAPI                           : Gamma Ray
 RHOB.G/C3                           : Bulk Density
 NPHI.V/V                            : Neutron Porosity
 RT  .OHMM                           : True Resistivity
 DT  .US/F                           : Sonic
 CALI.IN                             : Caliper
~PARAMETER INFORMATION
 LAT .                 25.8654   : Latitude
 LON .                 51.5321   : Longitude
 DESC.                 North Field — Khuff carbonate, worlds largest gas field
~A  DEPT        GR        RHOB      NPHI      RT        DT        CALI
# ...
 2954.9908     9.247    2.6332    0.0924    63.349   200.000     8.554
 2955.1432    22.170    2.6822    0.0827   110.780   200.000     8.340
 2955.2956    10.911    2.5843    0.1151   132.501   200.000     8.091
 2955.4480    13.122    2.7237    0.0946   122.934   200.000     8.417
 2955.6004    15.296    2.6941    0.0842   101.054   200.000     8.497
 2955.7528     8.711    2.7270    0.0905   110.960   200.000     8.227
 2955.9052    21.933    2.6830    0.0937    89.144   200.000     8.195
 2956.0576    15.229    2.6589    0.0957   137.961   200.000     9.018
 2956.2100     9.793    2.7666    0.0885   378.771   200.000     8.676
 2956.3624    13.086    2.6600    0.1171    74.956   200.000     9.195
 2956.5148    20.606    2.6179    0.0896    33.894   200.000     8.743
 2956.6672    19.849    2.6418    0.0821   173.437   200.000     8.659
 2956.8196    17.285    2.5951    0.0795   326.206   200.000     7.807
 2956.9720    17.019    2.6079    0.1073   115.651   200.000     8.320
 2957.1244    18.586    2.7074    0.1047    75.058   200.000     8.403
 2957.2768    16.225    2.6637    0.0886   155.438   200.000     8.284
 2957.4292    18.120    2.5346    0.1111   149.470   200.000     8.903
 2957.5816    15.981    2.6580    0.1275   104.357   200.000     8.734
 2957.7340    16.491    2.7565    0.1061    86.816   200.000     9.239
 2957.8864    23.975    2.6347    0.1086   110.668   200.000     8.745
 2958.0388    17.687    2.6088    0.0544   147.480   200.000     8.310
 2958.1912    10.598    2.6794    0.1078   232.040   200.000     8.271
 2958.3436    15.795    2.6300    0.1198   119.820   200.000     8.098
 2958.4960    20.452    2.7140    0.0983   138.535   200.000     8.746
 2958.6484    20.381    2.5763    0.1045   141.451   200.000     9.089
 2958.8008    15.791    2.5710    0.1026   345.632   200.000     8.891
 2958.9532    20.017    2.6325    0.1020   104.974   200.000     8.798
 2959.1056    13.412    2.6618    0.0998    76.281   200.000     8.920
 2959.2580    10.138    2.5773    0.1037    51.963   200.000     7.989
 2959.4104    15.553    2.6600    0.1318    67.980   200.000     7.881
 2959.5628    19.227    2.6828    0.0810    38.709   200.000     8.432
 2959.7152    13.391    2.5573    0.1094    69.438   200.000     8.681
 2959.8676    14.329    2.6365    0.0999    54.415   200.000     8.234
 2960.0200    16.323    2.6414    0.1159   115.232   200.000     9.035
 2960.1724    14.331    2.6939    0.0889    71.781   200.000     9.114
 2960.3248    11.916    2.6287    0.1001   290.295   200.000     8.565
 2960.4772    16.063    2.6358    0.0893    90.024   200.000     7.983
 2960.6296     9.168    2.6824    0.1140    38.344   200.000     8.558
 2960.7820    12.824    2.6113    0.0768    68.745   200.000     9.269
 2960.9344    14.543    2.6860    0.0990   139.633   200.000     8.433
 2961.0868    10.075    2.6450    0.0877   184.648   200.000     8.172
 2961.2392    16.623    2.6627    0.0969   229.343   200.000     8.819
 2961.3916    23.705    2.6189    0.1282   109.779   200.000     8.653
 2961.5440    19.875    2.7150    0.1359    70.958   200.000     9.303
 2961.6964    13.551    2.6058    0.0901   116.066   200.000     7.619
 2961.8488    20.333    2.7147    0.0959    79.829   200.000     8.493
 2962.0012    13.016    2.6950    0.1258    99.930   200.000     9.395
 2962.1536    13.243    2.6638    0.0945    51.177   200.000     8.917
 2962.3060    12.461    2.6212    0.1116   222.861   200.000     8.663
 2962.4584    23.748    2.6639    0.0999   113.181   200.000     9.295
 2962.6108    16.455    2.7709    0.1001    51.921   200.000     8.922
 2962.7632    18.257    2.6869    0.0983    40.526   200.000     8.577
 2962.9156    15.890    2.6197    0.0916   100.228   200.000     7.990
 2963.0680    14.131    2.6558    0.1053    40.582   200.000     8.767
 2963.2204    18.054    2.7345    0.0886   323.071   200.000     8.700
 2963.3728    15.482    2.6071    0.0866    46.863   200.000     7.862
 2963.5252    16.691    2.6477    0.0990   130.303   200.000     8.587
 2963.6776     9.797    2.6697    0.0982   157.370   200.000     8.733
 2963.8300    20.268    2.5425    0.1237    37.354   200.000     8.566
 2963.9824    12.938    2.7593    0.0696   189.413   200.000     8.499
 2964.1348     6.450    2.7198    0.1002    32.371   200.000     8.230
 2964.2872    10.709    2.6037    0.0994    41.956   200.000     8.179
 2964.4396    13.274    2.6798    0.0938   118.849   200.000     8.215
 2964.5920    18.130    2.6541    0.0794    56.754   200.000     8.699
 2964.7444    20.246    2.5909    0.1027   100.582   200.000     8.879
 2964.8968    12.938    2.6689    0.0841   102.385   200.000     8.044
 2965.0492     9.956    2.5992    0.0840    51.356   200.000     8.463
 2965.2016    11.849    2.6875    0.1049    85.294   200.000     8.479
 2965.3540    24.290    2.6256    0.0766   291.679   200.000     8.468
 2965.5064    13.359    2.6013    0.1144   117.060   200.000     8.026
 2965.6588    13.179    2.6560    0.0974   246.187   200.000     7.965
 2965.8112    10.452    2.5830    0.0847   103.476   200.000     8.085
 2965.9636    16.514    2.5982    0.0765    79.064   200.000     8.489
 2966.1160    10.442    2.7226    0.0979    57.182   200.000     9.340
 2966.2684    15.196    2.6983    0.1117    31.220   200.000     8.423
 2966.4208    17.193    2.5428    0.1295    77.561   200.000     8.072
 2966.5732    19.455    2.6594    0.1136   137.446   200.000     7.894
 2966.7256    15.144    2.6620    0.1030    91.434   200.000     8.437
 2966.8780    13.423    2.6532    0.0938   284.766   200.000     8.199
 2967.0304    18.595    2.6131    0.0971   110.659   200.000     7.966
 2967.1828    16.178    2.6675    0.0850   100.791   200.000     9.516
 2967.3352    13.831    2.7243    0.1035    51.318   200.000     8.730
 2967.4876    19.760    2.6606    0.1174    63.483   200.000     8.158
 2967.6400    16.303    2.6720    0.0927    87.359   200.000     8.586
 2967.7924    13.749    2.6441    0.1235   112.326   200.000     8.440
 2967.9448    14.533    2.6645    0.0923    93.157   200.000     8.367
 2968.0972    19.304    2.6991    0.0866    88.878   200.000     8.284
 2968.2496    17.243    2.6430    0.0871    95.454   200.000     9.280
 2968.4020    18.258    2.6721    0.1065   144.440   200.000     8.809
 2968.5544    18.931    2.7053    0.0951   108.440   200.000     8.576
 2968.7068    19.644    2.7016    0.0795   108.769   200.000     8.200
 2968.8592    11.984    2.6819    0.0920    87.407   200.000     9.035
 2969.0116    17.607    2.7292    0.0828    68.660   200.000     8.490
 2969.1640    15.105    2.6532    0.1008    91.714   200.000     8.533
 2969.3164    16.774    2.6270    0.1114    87.922   200.000     7.874
 2969.4688    14.253    2.5954    0.1221   227.322   200.000     8.397
 2969.6212    13.905    2.6810    0.0873    87.056   200.000     8.992
 2969.7736    20.817    2.6072    0.0920    32.593   200.000     8.589
 2969.9260    12.663    2.7093    0.0878    58.476   200.000     8.574
 2970.0784    16.867    2.6859    0.1118   129.752   200.000     9.063
 2970.2308    22.297    2.6703    0.1175   177.807   200.000     8.742
 2970.3832    10.370    2.6863    0.0910   123.593   200.000     8.583
 2970.5356     8.993    2.6907    0.0968    69.481   200.000     8.940
 2970.6880    11.489    2.7018    0.0987    73.204   200.000     8.436
 2970.8404    15.725    2.6700    0.0985    84.793   200.000     8.488
 2970.9928    18.056    2.6439    0.0986   101.145   200.000     8.271
 2971.1452    16.827    2.5993    0.1226    65.865   200.000     8.852
 2971.2976    15.501    2.7019    0.1053    46.550   200.000     9.049
 2971.4500    21.232    2.5895    0.1333    35.976   200.000     8.576
 2971.6024    18.995    2.6789    0.1101   109.888   200.000     8.402
 2971.7548    11.122    2.6506    0.0806   184.159   200.000     7.895
 2971.9072    13.730    2.5722    0.0892    71.079   200.000     8.658
 2972.0596    12.964    2.7020    0.1001   197.232   200.000     8.759
