~VERSION INFORMATION
 VERS.                 2.0    : CWLS LOG ASCII STANDARD
 WRAP.                 NO     : ONE LINE PER DEPTH STEP
~WELL INFORMATION
 WELL.                 NorthField-E1    : Well name
 FLD .                 North Field         : Field
 CTRY.                 Qatar       : Country
 STRT.M                2800.0000 : START DEPTH
 STOP.M                4000.0000   : STOP DEPTH
 STEP.M                0.1524        : STEP
 NULL.                 -999.25          : NULL VALUE
 SRVC.                 SubsurfAI        : Service company
~CURVE INFORMATION
 DEPT.M                              : Depth
 GR  .GAPI                           : Gamma Ray
 RHOB.G/C3                           : Bulk Density
 NPHI.V/V                            : Neutron Porosity
 RT  .OHMM                           : True Resistivity
 DT  .US/F                           : Sonic
 CALI.IN                             : Caliper
~PARAMETER INFORMATION
 LAT .                 25.8654   : Latitude
 LON .                 51.5321   : Longitude
 DESC.                 North Field — Khuff carbonate, worlds largest gas field
~A  DEPT        GR        RHOB      NPHI      RT        DT        CALI
# ...
 3351.0784    18.185    2.6593    0.0828   194.112   200.000     8.637
 3351.2308    16.942    2.6309    0.0621   231.663   200.000     8.949
 3351.3832    17.481    2.6446    0.0871   174.948   200.000     8.440
 3351.5356    12.970    2.7317    0.0646   150.187   200.000     8.307
 3351.6880    20.139    2.7042    0.0751   143.521   200.000     8.374
 3351.8404    13.131    2.6491    0.0689   163.071   200.000     8.240
 3351.9928    12.386    2.7293    0.0818   209.205   200.000     8.747
 3352.1452    12.501    2.6703    0.0919   285.314   200.000     8.132
 3352.2976    19.919    2.6023    0.0749   126.464   200.000     8.488
 3352.4500    15.314    2.6616    0.0859   126.974   200.000     7.770
 3352.6024    15.295    2.8050    0.0938   676.350   200.000     7.644
 3352.7548    16.169    2.6418    0.0669    88.206   200.000     9.086
 3352.9072    15.430    2.7489    0.0970   184.310   200.000     7.839
 3353.0596    19.067    2.7034    0.0847   105.838   200.000     8.255
 3353.2120    18.032    2.7076    0.0966   186.828   200.000     8.143
 3353.3644    19.566    2.7507    0.1047   158.036   200.000     8.321
 3353.5168    14.219    2.6271    0.0877   197.318   200.000     8.800
 3353.6692    14.675    2.7253    0.0986   160.286   200.000     9.036
 3353.8216    21.675    2.7063    0.0904   140.804   200.000     8.302
 3353.9740    17.213    2.7404    0.0952   236.640   200.000     8.379
 3354.1264    17.869    2.7283    0.0857   138.504   200.000     7.940
 3354.2788    11.271    2.6096    0.0726    87.109   200.000     8.548
 3354.4312    15.424    2.7550    0.0885   118.741   200.000     8.565
 3354.5836    19.635    2.6538    0.0865   117.285   200.000     8.988
 3354.7360    11.364    2.5436    0.0843   163.098   200.000     8.997
 3354.8884    12.822    2.6604    0.0716   129.410   200.000     8.415
 3355.0408    17.848    2.6887    0.0815   246.910   200.000     8.774
 3355.1932    24.842    2.5745    0.0848   210.698   200.000     8.645
 3355.3456    19.364    2.7276    0.0928    70.514   200.000     7.845
 3355.4980    20.828    2.6773    0.0743   181.547   200.000     9.120
 3355.6504    19.957    2.6538    0.0804   150.920   200.000     8.663
 3355.8028    18.997    2.5450    0.0691   348.594   200.000     8.336
 3355.9552    20.739    2.7396    0.0863    96.202   200.000     7.864
 3356.1076    16.356    2.6671    0.0823   240.379   200.000     9.399
 3356.2600    19.036    2.6093    0.0715    54.199   200.000     8.413
 3356.4124    16.476    2.5838    0.0920   342.443   200.000     8.213
 3356.5648    15.771    2.6303    0.0744   199.823   200.000     9.376
 3356.7172    20.466    2.6445    0.0868   333.213   200.000     8.279
 3356.8696    24.516    2.6528    0.0845   194.635   200.000     8.320
 3357.0220    20.829    2.7253    0.0783    80.720   200.000     8.689
 3357.1744    15.853    2.7468    0.0942   180.314   200.000     8.272
 3357.3268     8.509    2.8159    0.0995    80.719   200.000     9.099
 3357.4792    16.822    2.6668    0.0833   117.004   200.000     8.771
 3357.6316    17.880    2.7272    0.1038   160.124   200.000     7.956
 3357.7840    19.349    2.6717    0.0694   164.678   200.000     8.190
 3357.9364    26.153    2.6687    0.0572   141.277   200.000     8.669
 3358.0888    10.124    2.7224    0.0853   254.971   200.000     8.594
 3358.2412    26.384    2.7007    0.0620   115.626   200.000     8.194
 3358.3936    21.963    2.6555    0.0979    92.902   200.000     8.000
 3358.5460    23.433    2.6660    0.0768   179.310   200.000     8.757
 3358.6984    15.627    2.7228    0.0829   133.163   200.000     9.444
 3358.8508    17.224    2.6729    0.0867   124.311   200.000     9.104
 3359.0032    20.647    2.5935    0.0935    65.449   200.000     7.759
 3359.1556    19.012    2.6386    0.0796   197.871   200.000     7.632
 3359.3080    16.348    2.7142    0.1032    61.836   200.000     8.999
 3359.4604    16.190    2.6491    0.0729   507.040   200.000     9.493
 3359.6128    19.068    2.6747    0.0840   131.091   200.000     8.431
 3359.7652    23.543    2.5979    0.0990    78.899   200.000     8.349
 3359.9176    15.607    2.6665    0.0988   246.555   200.000     8.367
 3360.0700    13.913    2.8092    0.0750   408.156   200.000     8.917
 3360.2224    15.941    2.6017    0.0742    88.532   200.000     9.078
 3360.3748    18.242    2.7087    0.0848   127.896   200.000     8.429
 3360.5272    22.574    2.6438    0.0837   270.802   200.000     8.829
 3360.6796    19.467    2.6178    0.0835    84.630   200.000     8.337
 3360.8320    23.432    2.6437    0.0899    80.230   200.000     8.189
 3360.9844    20.647    2.8017    0.0661   117.229   200.000     8.111
 3361.1368    22.410    2.6698    0.0783   126.176   200.000     8.994
 3361.2892    18.602    2.6698    0.0735   154.108   200.000     8.526
 3361.4416     7.714    2.6471    0.0788    75.263   200.000     8.421
 3361.5940    15.972    2.7635    0.0832   142.957   200.000     9.003
 3361.7464    17.747    2.6822    0.0980   136.202   200.000     8.369
 3361.8988    17.842    2.6707    0.0608   107.377   200.000     8.679
 3362.0512    20.119    2.6625    0.0900   103.207   200.000     8.557
 3362.2036    17.284    2.7679    0.0867   145.223   200.000     8.710
 3362.3560    13.640    2.6749    0.0834   184.670   200.000     8.918
 3362.5084    23.719    2.6123    0.0719    85.338   200.000     8.990
 3362.6608    21.582    2.5985    0.0909   102.340   200.000     8.468
 3362.8132    18.693    2.7213    0.0961   162.462   200.000     8.080
 3362.9656    13.272    2.7661    0.0669   190.647   200.000     8.233
 3363.1180    20.756    2.5878    0.0924   173.751   200.000     8.585
 3363.2704    16.785    2.6991    0.0823   147.702   200.000     8.065
 3363.4228    18.150    2.6766    0.0642   112.670   200.000     8.290
 3363.5752    18.389    2.6009    0.0873   200.026   200.000     9.025
 3363.7276    19.437    2.6267    0.0664   204.074   200.000     9.020
 3363.8800    18.981    2.7280    0.0728   170.790   200.000     8.589
 3364.0324    16.524    2.7760    0.0670   177.938   200.000     8.583
 3364.1848    14.764    2.6209    0.0817   117.181   200.000     7.896
 3364.3372    12.582    2.6794    0.0815    48.993   200.000     8.292
 3364.4896    17.171    2.6569    0.0878    99.874   200.000     8.125
 3364.6420    12.964    2.6394    0.0789   169.743   200.000     8.017
 3364.7944    25.934    2.6662    0.0787   155.166   200.000     8.284
 3364.9468    12.086    2.5681    0.0951   118.265   200.000     8.712
 3365.0992    18.423    2.6781    0.0749    36.438   200.000     8.737
 3365.2516    20.644    2.6916    0.0952   119.841   200.000     8.396
 3365.4040    25.093    2.6514    0.0879   196.926   200.000     8.255
 3365.5564    11.565    2.7197    0.0901   161.649   200.000     8.944
 3365.7088    13.318    2.6392    0.0668   117.321   200.000     8.247
 3365.8612    14.271    2.5952    0.0649   174.524   200.000     8.650
 3366.0136    15.334    2.6799    0.0681   184.544   200.000     8.810
 3366.1660    18.751    2.6786    0.0823   195.707   200.000     8.659
 3366.3184    16.347    2.5922    0.0874   152.114   200.000     8.431
 3366.4708    12.054    2.6587    0.0913    82.751   200.000     9.063
 3366.6232    23.056    2.6518    0.0713   175.534   200.000     8.627
 3366.7756    17.491    2.7196    0.0736   148.320   200.000     8.162
 3366.9280    14.126    2.6856    0.0802    45.959   200.000     8.269
 3367.0804    19.109    2.6983    0.0886    96.864   200.000     9.134
 3367.2328    16.899    2.6970    0.0631   270.622   200.000     8.758
 3367.3852    20.017    2.6461    0.0844   147.791   200.000     8.392
 3367.5376    20.456    2.6644    0.0770    60.913   200.000     8.500
 3367.6900    23.619    2.5990    0.0608   341.983   200.000     7.706
 3367.8424     7.986    2.8057    0.0786    56.864   200.000     8.263
 3367.9948    18.695    2.5881    0.0761   162.145   200.000     9.405
 3368.1472    16.973    2.6758    0.0834   149.317   200.000     8.163
