~VERSION INFORMATION
 VERS.                 2.0    : CWLS LOG ASCII STANDARD
 WRAP.                 NO     : ONE LINE PER DEPTH STEP
~WELL INFORMATION
 WELL.                 NorthField-E1    : Well name
 FLD .                 North Field         : Field
 CTRY.                 Qatar       : Country
 STRT.M                2800.0000 : START DEPTH
 STOP.M                4000.0000   : STOP DEPTH
 STEP.M                0.1524        : STEP
 NULL.                 -999.25          : NULL VALUE
 SRVC.                 SubsurfAI        : Service company
~CURVE INFORMATION
 DEPT.M                              : Depth
 GR  .GAPI                           : Gamma Ray
 RHOB.G/C3                           : Bulk Density
 NPHI.V/V                            : Neutron Porosity
 RT  .OHMM                           : True Resistivity
 DT  .US/F                           : Sonic
 CALI.IN                             : Caliper
~PARAMETER INFORMATION
 LAT .                 25.8654   : Latitude
 LON .                 51.5321   : Longitude
 DESC.                 North Field — Khuff carbonate, worlds largest gas field
~A  DEPT        GR        RHOB      NPHI      RT        DT        CALI
# ...
 3437.1844    17.528    2.7147    0.0834   199.424   200.000     9.590
 3437.3368    15.689    2.7661    0.0827   298.312   200.000     8.169
 3437.4892    21.222    2.6040    0.0703   110.555   200.000     8.200
 3437.6416    19.469    2.7100    0.0713   109.982   200.000     8.605
 3437.7940    13.379    2.6122    0.0959   276.993   200.000     8.281
 3437.9464    18.912    2.7354    0.0924   116.010   200.000     8.680
 3438.0988    14.821    2.6555    0.0717   106.212   200.000     8.108
 3438.2512    19.321    2.5866    0.0856   154.512   200.000     9.076
 3438.4036    20.430    2.6886    0.0868   114.107   200.000     8.368
 3438.5560    15.249    2.7034    0.0773   107.229   200.000     8.600
 3438.7084    18.028    2.6825    0.0878    63.667   200.000     8.430
 3438.8608    16.538    2.6397    0.0774   147.434   200.000     9.220
 3439.0132    10.851    2.7436    0.0886   178.416   200.000     8.976
 3439.1656    24.819    2.6684    0.0799   128.596   200.000     8.803
 3439.3180    19.326    2.6417    0.0872   207.617   200.000     8.127
 3439.4704    19.413    2.7010    0.0618    78.761   200.000     8.920
 3439.6228    15.951    2.6107    0.0907   192.282   200.000     8.534
 3439.7752    18.663    2.6512    0.0655   182.073   200.000     7.512
 3439.9276    23.242    2.6064    0.0752   201.446   200.000     8.627
 3440.0800    17.371    2.7557    0.0763    90.286   200.000     7.403
 3440.2324    23.720    2.7024    0.0845    84.324   200.000     8.641
 3440.3848    15.526    2.8145    0.0955   108.081   200.000     8.015
 3440.5372    16.254    2.7576    0.0818   210.770   200.000     7.849
 3440.6896    21.811    2.7012    0.0742    39.274   200.000     8.741
 3440.8420    16.107    2.5767    0.0818   150.193   200.000     8.543
 3440.9944    16.868    2.6866    0.1061   135.313   200.000     9.669
 3441.1468    16.065    2.5668    0.0901   116.941   200.000     8.981
 3441.2992    16.508    2.6049    0.0709   338.826   200.000     8.211
 3441.4516    16.157    2.7049    0.0860   109.695   200.000     8.912
 3441.6040    16.618    2.6803    0.0809   169.521   200.000     8.585
 3441.7564    17.742    2.7232    0.0711   122.121   200.000     9.145
 3441.9088    18.056    2.5616    0.0824   107.535   200.000     8.659
 3442.0612    16.697    2.6671    0.0756   145.954   200.000     9.283
 3442.2136    14.617    2.6816    0.0756   131.982   200.000     8.521
 3442.3660    12.714    2.6909    0.0613   227.083   200.000     8.686
 3442.5184    20.723    2.6175    0.0738    82.709   200.000     8.153
 3442.6708    19.959    2.7580    0.0671   265.606   200.000     8.692
 3442.8232    20.568    2.6849    0.0854   127.625   200.000     8.518
 3442.9756    23.173    2.6498    0.0954   136.474   200.000     9.055
 3443.1280    20.919    2.6301    0.0824   193.359   200.000     8.382
 3443.2804    13.959    2.5670    0.1016    58.161   200.000     8.520
 3443.4328    21.303    2.6248    0.0882   200.265   200.000     8.881
 3443.5852    10.556    2.6923    0.0852   397.596   200.000     9.280
 3443.7376    17.768    2.6616    0.0894    67.777   200.000     8.912
 3443.8900     8.026    2.6390    0.0736   112.167   200.000     8.287
 3444.0424    18.045    2.6243    0.0877   173.155   200.000     8.760
 3444.1948    22.681    2.5812    0.0842   153.673   200.000     8.181
 3444.3472    13.334    2.7277    0.0958   160.105   200.000     8.933
 3444.4996    21.473    2.6739    0.0884   198.711   200.000     8.198
 3444.6520    14.463    2.6411    0.0814    45.882   200.000     8.181
 3444.8044    11.193    2.7595    0.0844   118.948   200.000     7.942
 3444.9568    20.183    2.6011    0.0706   102.570   200.000     8.761
 3445.1092    13.207    2.6113    0.0953   376.056   200.000     8.931
 3445.2616    14.930    2.8066    0.0918   225.129   200.000     7.839
 3445.4140    12.198    2.6539    0.0703   110.539   200.000     8.505
 3445.5664    24.151    2.6906    0.0692    57.982   200.000     8.758
 3445.7188    16.377    2.6020    0.0926   238.826   200.000     8.630
 3445.8712    21.904    2.8017    0.0763   445.374   200.000     9.124
 3446.0236    18.974    2.6624    0.0881    91.259   200.000     8.601
 3446.1760    16.908    2.6475    0.0966    64.311   200.000     7.691
 3446.3284    16.906    2.7142    0.0811   137.787   200.000     8.614
 3446.4808    15.988    2.8025    0.0771   224.269   200.000     8.654
 3446.6332    16.665    2.5602    0.0893   279.398   200.000     8.730
 3446.7856    12.344    2.6543    0.0947   187.483   200.000     8.499
 3446.9380    16.812    2.6273    0.0908   271.376   200.000     8.603
 3447.0904    19.540    2.5928    0.0695   196.884   200.000     8.759
 3447.2428    24.243    2.6932    0.0895    77.719   200.000     8.121
 3447.3952    18.368    2.7408    0.0693   240.230   200.000     8.536
 3447.5476    19.276    2.7551    0.0908   327.267   200.000     8.666
 3447.7000    15.325    2.6163    0.0808   172.943   200.000     8.073
 3447.8524    23.120    2.6962    0.0969   135.782   200.000     9.016
 3448.0048    24.060    2.6658    0.0984   152.748   200.000     8.762
 3448.1572    16.241    2.7011    0.0926    75.385   200.000     8.174
 3448.3096    21.988    2.5900    0.0881    46.364   200.000     8.457
 3448.4620    13.607    2.7038    0.0676   197.388   200.000     8.559
 3448.6144    13.626    2.6644    0.0815   531.839   200.000     8.067
 3448.7668    19.428    2.6057    0.0800   223.952   200.000     8.134
 3448.9192    17.234    2.7399    0.0623   222.252   200.000     8.288
 3449.0716    21.494    2.7036    0.0885   214.959   200.000     8.618
 3449.2240    18.123    2.6338    0.1055   118.739   200.000     8.684
 3449.3764    17.519    2.6445    0.0590   111.717   200.000     9.703
 3449.5288    17.616    2.5648    0.0668   123.159   200.000     8.929
 3449.6812    22.399    2.5771    0.0808    90.142   200.000     8.949
 3449.8336    17.594    2.6106    0.0794    59.047   200.000     8.313
 3449.9860    25.691    2.6954    0.0831   160.910   200.000     8.763
 3450.1384    19.233    2.5949    0.0651    79.699   200.000     8.234
 3450.2908    13.053    2.7268    0.0857   107.349   200.000     8.111
 3450.4432    20.633    2.6984    0.0857    91.532   200.000     8.707
 3450.5956    19.077    2.6906    0.0935   117.862   200.000     8.876
 3450.7480    14.703    2.6405    0.0937    82.067   200.000     8.197
 3450.9004    18.344    2.7157    0.1086   129.148   200.000     8.456
 3451.0528    18.358    2.7461    0.0745    86.051   200.000     8.353
 3451.2052    18.965    2.6925    0.1019   541.624   200.000     8.597
 3451.3576    16.558    2.7174    0.0960   225.655   200.000     9.066
 3451.5100    23.378    2.6686    0.0552    58.086   200.000     9.122
 3451.6624    14.113    2.6615    0.0942    60.748   200.000     8.277
 3451.8148    21.869    2.6682    0.0612    81.810   200.000     8.433
 3451.9672    18.167    2.6339    0.0812   312.963   200.000     8.451
 3452.1196    19.554    2.6243    0.0727   360.117   200.000     8.441
 3452.2720    16.712    2.6807    0.0535    38.872   200.000     8.629
 3452.4244    10.294    2.6346    0.0788   102.999   200.000     8.479
 3452.5768    17.284    2.5422    0.0950   136.193   200.000     8.853
 3452.7292    14.663    2.6823    0.0834   144.020   200.000     8.330
 3452.8816    17.195    2.7248    0.0828    72.287   200.000     8.378
 3453.0340    17.941    2.7457    0.0671   293.454   200.000     9.156
 3453.1864    18.344    2.7787    0.0926   138.257   200.000     8.335
 3453.3388    18.559    2.6549    0.0896    82.678   200.000     8.668
 3453.4912    15.208    2.7068    0.0619   191.958   200.000     7.824
 3453.6436    17.476    2.6238    0.0671   557.742   200.000     8.379
 3453.7960    13.331    2.6912    0.0748   199.518   200.000     8.638
 3453.9484    19.082    2.6684    0.0809    77.908   200.000     8.658
 3454.1008    21.342    2.6518    0.0990   570.656   200.000     8.586
 3454.2532    17.357    2.7219    0.0879   109.150   200.000     8.811
