~VERSION INFORMATION
 VERS.                 2.0    : CWLS LOG ASCII STANDARD
 WRAP.                 NO     : ONE LINE PER DEPTH STEP
~WELL INFORMATION
 WELL.                 NorthField-E1    : Well name
 FLD .                 North Field         : Field
 CTRY.                 Qatar       : Country
 STRT.M                2800.0000 : START DEPTH
 STOP.M                4000.0000   : STOP DEPTH
 STEP.M                0.1524        : STEP
 NULL.                 -999.25          : NULL VALUE
 SRVC.                 SubsurfAI        : Service company
~CURVE INFORMATION
 DEPT.M                              : Depth
 GR  .GAPI                           : Gamma Ray
 RHOB.G/C3                           : Bulk Density
 NPHI.V/V                            : Neutron Porosity
 RT  .OHMM                           : True Resistivity
 DT  .US/F                           : Sonic
 CALI.IN                             : Caliper
~PARAMETER INFORMATION
 LAT .                 25.8654   : Latitude
 LON .                 51.5321   : Longitude
 DESC.                 North Field — Khuff carbonate, worlds largest gas field
~A  DEPT        GR        RHOB      NPHI      RT        DT        CALI
 2800.0000    12.123    2.5697    0.1166   181.875   200.000     8.027
 2800.1524    15.413    2.7171    0.1011   155.468   200.000     8.449
 2800.3048    18.092    2.6351    0.0911    43.583   200.000     8.318
 2800.4572    13.348    2.6494    0.1124    89.594   200.000     9.019
 2800.6096    10.822    2.6466    0.0920   110.645   200.000     8.468
 2800.7620    20.898    2.6340    0.1059    71.521   200.000     8.972
 2800.9144    11.578    2.6680    0.0601    86.838   200.000     8.764
 2801.0668    13.367    2.6089    0.0917    77.883   200.000     8.694
 2801.2192    12.982    2.5274    0.0941   128.024   200.000     8.116
 2801.3716    19.444    2.5477    0.0906    59.311   200.000     7.945
 2801.5240    16.496    2.6867    0.1141   184.127   200.000     9.067
 2801.6764    11.330    2.6403    0.1185   254.642   200.000     9.021
 2801.8288    21.344    2.5960    0.1021    68.249   200.000     8.397
 2801.9812    12.972    2.6406    0.1216   134.685   200.000     8.739
 2802.1336    17.027    2.6523    0.0652   138.182   200.000     8.549
 2802.2860    11.578    2.6797    0.0972   116.221   200.000     8.243
 2802.4384    20.781    2.6939    0.1140   111.678   200.000     8.447
 2802.5908    11.158    2.5308    0.0853   323.882   200.000     7.916
 2802.7432    23.179    2.6115    0.1085    70.895   200.000     9.061
 2802.8956    21.500    2.5676    0.1065    93.907   200.000     7.856
 2803.0480    17.590    2.5838    0.0655    69.613   200.000     8.070
 2803.2004    16.479    2.5634    0.1002   111.234   200.000     8.036
 2803.3528    18.223    2.5429    0.0637   122.056   200.000     8.463
 2803.5052    11.472    2.6562    0.0843    57.422   200.000     7.414
 2803.6576     9.942    2.6258    0.1136    35.604   200.000     8.545
 2803.8100    10.778    2.6623    0.0918   153.219   200.000     8.478
 2803.9624    16.503    2.6447    0.0728    62.489   200.000     8.801
 2804.1148    10.865    2.6207    0.0979    71.920   200.000     8.431
 2804.2672     9.241    2.5620    0.0832   141.900   200.000     8.845
 2804.4196    16.533    2.7573    0.0750   148.388   200.000     8.482
 2804.5720    14.592    2.6240    0.1146   109.795   200.000     8.637
 2804.7244    20.483    2.6870    0.1062   166.450   200.000     8.606
 2804.8768    22.440    2.6902    0.0863    97.988   200.000     8.139
 2805.0292    14.740    2.7121    0.0849    67.803   200.000     8.184
 2805.1816    15.110    2.6380    0.0988   135.011   200.000     8.284
 2805.3340    14.160    2.6404    0.1007   224.574   200.000     8.145
 2805.4864    18.197    2.6338    0.0951   244.521   200.000     8.595
 2805.6388    11.736    2.5964    0.1016    73.831   200.000     8.149
 2805.7912     8.701    2.6968    0.1250   158.897   200.000     8.880
 2805.9436    13.889    2.7217    0.1128    89.094   200.000     8.056
 2806.0960    16.380    2.6187    0.1084   152.809   200.000     8.585
 2806.2484    12.277    2.6409    0.1226   140.368   200.000     8.444
 2806.4008     5.774    2.7026    0.0951    94.814   200.000     8.959
 2806.5532    23.256    2.6232    0.1246   105.395   200.000     8.023
 2806.7056    16.199    2.6119    0.0876    98.203   200.000     8.541
 2806.8580    13.596    2.5819    0.0734   133.582   200.000     8.559
 2807.0104    18.889    2.6139    0.1106    67.040   200.000     8.048
 2807.1628    13.192    2.7417    0.0986   150.881   200.000     8.218
 2807.3152    16.610    2.6818    0.0897    98.157   200.000     8.429
 2807.4676    17.668    2.6361    0.1163    99.102   200.000     8.425
 2807.6200    11.664    2.7321    0.0879    74.467   200.000     8.633
 2807.7724    13.624    2.6497    0.0935    80.951   200.000     7.822
 2807.9248    21.132    2.6913    0.0967    49.089   200.000     8.259
 2808.0772    14.768    2.6916    0.1120   194.070   200.000     8.774
 2808.2296    11.673    2.7080    0.0910   102.758   200.000     9.008
 2808.3820    11.888    2.6487    0.0985    55.091   200.000     8.403
 2808.5344    12.754    2.6627    0.0868   115.061   200.000     8.226
 2808.6868    15.591    2.6234    0.1286   110.016   200.000     8.261
 2808.8392     9.534    2.6336    0.1067    46.885   200.000     9.013
 2808.9916    17.810    2.6575    0.0770    93.699   200.000     8.764
 2809.1440    18.571    2.5924    0.0839    57.764   200.000     8.376
 2809.2964    14.055    2.6274    0.1146   175.471   200.000     8.721
 2809.4488    13.868    2.6604    0.0915    85.419   200.000     8.774
 2809.6012    14.990    2.7438    0.0927    92.424   200.000     9.536
 2809.7536    17.655    2.6699    0.1126    58.042   200.000     8.424
 2809.9060    17.010    2.6740    0.1099   109.173   200.000     7.824
 2810.0584    12.918    2.5271    0.0911   135.613   200.000     9.209
 2810.2108    14.930    2.6402    0.1212    70.555   200.000     8.746
 2810.3632    20.532    2.7187    0.0860    93.712   200.000     8.061
 2810.5156    20.814    2.5908    0.0923    63.430   200.000     8.246
 2810.6680    19.134    2.6700    0.1212   202.521   200.000     8.980
 2810.8204    15.352    2.6651    0.1028   127.850   200.000     8.774
 2810.9728    24.852    2.5948    0.0928   107.602   200.000     9.012
 2811.1252    14.852    2.6467    0.1286    83.181   200.000     8.139
 2811.2776    17.161    2.6656    0.1061    66.486   200.000     8.860
 2811.4300    11.715    2.6285    0.1046   202.730   200.000     8.600
 2811.5824    19.367    2.7172    0.0715    35.145   200.000     8.123
 2811.7348    12.825    2.7284    0.0852    81.886   200.000     9.065
 2811.8872    19.042    2.5342    0.0856    41.004   200.000     8.282
 2812.0396    18.238    2.7217    0.1128   123.157   200.000     8.404
 2812.1920    14.609    2.6991    0.0921   104.499   200.000     8.601
 2812.3444     9.871    2.5933    0.0883   275.190   200.000     8.159
 2812.4968    17.135    2.6095    0.0904    97.531   200.000     8.418
 2812.6492    13.215    2.6525    0.0918   188.996   200.000     7.974
 2812.8016    13.579    2.6135    0.0812   111.615   200.000     8.298
 2812.9540    17.946    2.7185    0.0873   108.894   200.000     8.033
 2813.1064    15.611    2.7023    0.1254    67.903   200.000     8.471
 2813.2588    19.106    2.6945    0.1091   178.823   200.000     9.078
 2813.4112    14.929    2.6498    0.1039    47.700   200.000     8.218
 2813.5636    15.974    2.6349    0.1120    45.156   200.000     8.610
 2813.7160    15.422    2.6309    0.1073   267.953   200.000     8.885
 2813.8684    18.584    2.5953    0.0993    83.370   200.000     8.573
 2814.0208    13.352    2.6534    0.1060   176.245   200.000     8.310
 2814.1732    13.885    2.6457    0.0748   189.507   200.000     7.540
 2814.3256    17.940    2.6402    0.1049    89.948   200.000     8.881
 2814.4780    10.772    2.6542    0.1055    64.335   200.000     7.789
 2814.6304    15.076    2.6760    0.0888    49.907   200.000     8.610
 2814.7828    15.131    2.6982    0.1022   121.101   200.000     7.976
 2814.9352    13.566    2.6622    0.0988    78.446   200.000     8.779
 2815.0876     9.291    2.6902    0.0868    64.975   200.000     8.582
 2815.2400    18.574    2.7675    0.0883    62.923   200.000     7.936
 2815.3924    12.430    2.5833    0.1167   102.786   200.000     9.192
 2815.5448    14.534    2.6010    0.1016    62.371   200.000     9.050
 2815.6972    14.616    2.6716    0.0965   336.601   200.000     8.635
 2815.8496    11.751    2.5448    0.1182    39.737   200.000     8.886
 2816.0020    12.844    2.6967    0.0783    99.031   200.000     8.092
 2816.1544    13.697    2.6682    0.1054    39.939   200.000     8.647
 2816.3068    17.104    2.5396    0.1040    84.174   200.000     9.024
 2816.4592    15.707    2.6441    0.0910    91.291   200.000     8.695
 2816.6116     9.244    2.6617    0.1075    76.244   200.000     9.101
 2816.7640     9.664    2.6193    0.0974    53.027   200.000     8.705
 2816.9164    14.396    2.7222    0.1023    74.989   200.000     8.393
 2817.0688    12.205    2.6548    0.1176   171.421   200.000     8.746
