~VERSION INFORMATION
 VERS.                 2.0    : CWLS LOG ASCII STANDARD
 WRAP.                 NO     : ONE LINE PER DEPTH STEP
~WELL INFORMATION
 WELL.                 NorthField-E1    : Well name
 FLD .                 North Field         : Field
 CTRY.                 Qatar       : Country
 STRT.M                2800.0000 : START DEPTH
 STOP.M                4000.0000   : STOP DEPTH
 STEP.M                0.1524        : STEP
 NULL.                 -999.25          : NULL VALUE
 SRVC.                 SubsurfAI        : Service company
~CURVE INFORMATION
 DEPT.M                              : Depth
 GR  .GAPI                           : Gamma Ray
 RHOB.G/C3                           : Bulk Density
 NPHI.V/V                            : Neutron Porosity
 RT  .OHMM                           : True Resistivity
 DT  .US/F                           : Sonic
 CALI.IN                             : Caliper
~PARAMETER INFORMATION
 LAT .                 25.8654   : Latitude
 LON .                 51.5321   : Longitude
 DESC.                 North Field — Khuff carbonate, worlds largest gas field
~A  DEPT        GR        RHOB      NPHI      RT        DT        CALI
# ...
 3196.0876     8.489    2.7552    0.0408   436.497   200.000     7.596
 3196.2400    11.660    2.6871    0.0626   209.963   200.000     8.446
 3196.3924    15.136    2.6990    0.0504   484.917   200.000     8.947
 3196.5448    11.041    2.5332    0.0628   216.833   200.000     7.870
 3196.6972    10.573    2.6567    0.0346   717.673   200.000     9.324
 3196.8496     8.753    2.7428    0.0581   431.607   200.000     7.876
 3197.0020     8.666    2.7699    0.0698   830.259   200.000     9.398
 3197.1544     6.160    2.5887    0.0538   461.291   200.000     8.440
 3197.3068     6.374    2.6881    0.0491   272.215   200.000     8.043
 3197.4592     1.915    2.6726    0.0705   352.396   200.000     8.790
 3197.6116    -1.892    2.6529    0.0544   422.165   200.000     8.702
 3197.7640     5.900    2.6885    0.0508   167.792   200.000     7.939
 3197.9164     6.374    2.7353    0.0460   568.945   200.000     8.532
 3198.0688     9.075    2.7097    0.0495   196.268   200.000     8.153
 3198.2212     2.671    2.7660    0.0508   429.371   200.000     7.740
 3198.3736     9.529    2.6568    0.0377   354.360   200.000     9.119
 3198.5260     8.634    2.6370    0.0425   239.056   200.000     8.445
 3198.6784     6.026    2.7078    0.0479   198.863   200.000     8.601
 3198.8308    12.263    2.7320    0.0445   508.338   200.000     8.298
 3198.9832     9.549    2.7064    0.0632   240.842   200.000     8.518
 3199.1356    10.152    2.6654    0.0432   179.400   200.000     8.173
 3199.2880    10.792    2.7073    0.0413   385.982   200.000     8.644
 3199.4404     8.473    2.6872    0.0523   805.699   200.000     8.628
 3199.5928    11.089    2.6615    0.0518   343.880   200.000     8.576
 3199.7452     7.433    2.7344    0.0537   348.599   200.000     8.419
 3199.8976     6.253    2.7778    0.0488   304.980   200.000     8.294
 3200.0500     8.680    2.6062    0.0472   365.630   200.000     7.883
 3200.2024     9.288    2.8411    0.0551   588.970   200.000     8.210
 3200.3548     9.348    2.7279    0.0509   184.826   200.000     9.175
 3200.5072     6.306    2.6453    0.0578   760.839   200.000     7.511
 3200.6596     9.738    2.6791    0.0584   295.907   200.000     8.882
 3200.8120     9.573    2.6827    0.0580   228.902   200.000     8.059
 3200.9644     8.403    2.6924    0.0499   568.584   200.000     8.115
 3201.1168    13.907    2.6403    0.0622   770.866   200.000     8.085
 3201.2692    10.129    2.7377    0.0532   294.672   200.000     7.925
 3201.4216    10.611    2.6941    0.0387   786.617   200.000     9.100
 3201.5740     3.464    2.7271    0.0497   511.867   200.000     9.407
 3201.7264     4.594    2.7671    0.0380   902.745   200.000     7.835
 3201.8788    10.360    2.6297    0.0440   223.073   200.000     8.591
 3202.0312     4.952    2.7347    0.0479   381.684   200.000     8.610
 3202.1836     5.177    2.7393    0.0376   237.251   200.000     8.257
 3202.3360     5.833    2.6830    0.0487   190.558   200.000     8.847
 3202.4884     8.606    2.6581    0.0409   499.107   200.000     8.932
 3202.6408     7.105    2.7856    0.0481   253.467   200.000     8.853
 3202.7932     6.324    2.8174    0.0572   581.675   200.000     7.703
 3202.9456    14.904    2.8234    0.0574   518.680   200.000     8.973
 3203.0980     3.346    2.7261    0.0595   315.048   200.000     8.956
 3203.2504     9.038    2.6985    0.0442   468.108   200.000     8.290
 3203.4028    13.385    2.6950    0.0464   591.275   200.000     7.902
 3203.5552     8.423    2.7586    0.0471    89.774   200.000     8.098
 3203.7076     3.709    2.6386    0.0394   178.090   200.000     8.256
 3203.8600     7.386    2.8219    0.0462   343.819   200.000     7.728
 3204.0124     8.514    2.6783    0.0329  1157.518   200.000     8.428
 3204.1648     6.672    2.7066    0.0446   140.317   200.000     8.435
 3204.3172     2.957    2.6361    0.0500   243.712   200.000     8.432
 3204.4696     9.428    2.7562    0.0621   251.425   200.000     8.355
 3204.6220     4.428    2.7930    0.0594   509.179   200.000     8.276
 3204.7744     8.009    2.6889    0.0524   626.108   200.000     8.744
 3204.9268     5.448    2.7667    0.0363   364.384   200.000     8.067
 3205.0792     7.809    2.7015    0.0340   283.948   200.000     8.049
 3205.2316     7.436    2.6164    0.0547   154.713   200.000     8.493
 3205.3840    13.895    2.7311    0.0643   484.941   200.000     8.792
 3205.5364     9.621    2.7043    0.0634   304.430   200.000     8.268
 3205.6888    10.393    2.7330    0.0406   889.885   200.000     9.023
 3205.8412     8.475    2.7405    0.0481   453.180   200.000     8.508
 3205.9936     8.839    2.7174    0.0483   337.695   200.000     8.402
 3206.1460     6.628    2.7464    0.0526   369.806   200.000     8.721
 3206.2984     9.014    2.7056    0.0486   219.035   200.000     8.933
 3206.4508     0.850    2.6008    0.0463   100.213   200.000     8.788
 3206.6032    10.160    2.7377    0.0601   382.079   200.000     8.184
 3206.7556     3.543    2.7346    0.0595   262.766   200.000     8.419
 3206.9080     7.237    2.7009    0.0609   782.036   200.000     8.722
 3207.0604     2.453    2.7110    0.0449   502.399   200.000     9.278
 3207.2128    11.030    2.8346    0.0421   584.479   200.000     8.750
 3207.3652     8.892    2.7549    0.0543   471.614   200.000     8.449
 3207.5176     4.038    2.7325    0.0587   224.481   200.000     9.106
 3207.6700     8.340    2.7458    0.0557   622.879   200.000     8.367
 3207.8224    14.278    2.7077    0.0522   336.461   200.000     8.405
 3207.9748    12.042    2.6769    0.0585   306.181   200.000     7.484
 3208.1272     5.842    2.6591    0.0557   876.020   200.000     9.090
 3208.2796    10.503    2.6336    0.0625   354.359   200.000     9.160
 3208.4320     5.750    2.6511    0.0508   279.796   200.000     7.938
 3208.5844     6.306    2.6991    0.0573   512.419   200.000     8.627
 3208.7368    11.747    2.7595    0.0442   636.433   200.000     8.452
 3208.8892    10.865    2.7029    0.0505   231.329   200.000     8.731
 3209.0416     2.130    2.6549    0.0535   614.613   200.000     8.121
 3209.1940    11.050    2.6982    0.0571   448.312   200.000     8.701
 3209.3464    10.550    2.6636    0.0558   901.091   200.000     8.821
 3209.4988     5.603    2.7046    0.0476   500.774   200.000     8.715
 3209.6512    11.675    2.6977    0.0540   270.027   200.000     8.590
 3209.8036     9.404    2.7177    0.0569   487.953   200.000     8.554
 3209.9560     3.407    2.7677    0.0560   333.037   200.000     7.920
 3210.1084    11.558    2.7316    0.0552   530.892   200.000     8.185
 3210.2608    10.057    2.6634    0.0592   726.955   200.000     8.879
 3210.4132    10.723    2.7160    0.0415   266.954   200.000     8.109
 3210.5656    10.492    2.7312    0.0508   733.076   200.000     8.511
 3210.7180    12.926    2.6756    0.0469  1520.722   200.000     8.059
 3210.8704     4.741    2.7542    0.0507   355.747   200.000     8.461
 3211.0228     7.018    2.7756    0.0545   785.997   200.000     8.196
 3211.1752     6.649    2.7709    0.0534   685.163   200.000     8.113
 3211.3276     7.098    2.6533    0.0515   338.537   200.000     9.132
 3211.4800     6.182    2.6455    0.0508   197.906   200.000     8.868
 3211.6324     8.512    2.6655    0.0532   397.955   200.000     8.979
 3211.7848     5.021    2.7179    0.0421   354.589   200.000     8.291
 3211.9372     7.839    2.6893    0.0579   228.362   200.000     8.824
 3212.0896    12.397    2.6714    0.0483   383.495   200.000     8.822
 3212.2420     6.234    2.6948    0.0586   499.527   200.000     8.113
 3212.3944    11.894    2.6364    0.0436   152.118   200.000     7.407
 3212.5468     8.653    2.7143    0.0462   318.057   200.000     8.653
 3212.6992     8.097    2.7568    0.0574   997.921   200.000     8.686
 3212.8516     0.409    2.7303    0.0440   539.757   200.000     8.571
 3213.0040     6.559    2.6442    0.0440   466.345   200.000     7.925
 3213.1564     7.525    2.5889    0.0566   275.917   200.000     8.121
