~VERSION INFORMATION
 VERS.                 2.0    : CWLS LOG ASCII STANDARD
 WRAP.                 NO     : ONE LINE PER DEPTH STEP
~WELL INFORMATION
 WELL.                 NorthField-E1    : Well name
 FLD .                 North Field         : Field
 CTRY.                 Qatar       : Country
 STRT.M                2800.0000 : START DEPTH
 STOP.M                4000.0000   : STOP DEPTH
 STEP.M                0.1524        : STEP
 NULL.                 -999.25          : NULL VALUE
 SRVC.                 SubsurfAI        : Service company
~CURVE INFORMATION
 DEPT.M                              : Depth
 GR  .GAPI                           : Gamma Ray
 RHOB.G/C3                           : Bulk Density
 NPHI.V/V                            : Neutron Porosity
 RT  .OHMM                           : True Resistivity
 DT  .US/F                           : Sonic
 CALI.IN                             : Caliper
~PARAMETER INFORMATION
 LAT .                 25.8654   : Latitude
 LON .                 51.5321   : Longitude
 DESC.                 North Field — Khuff carbonate, worlds largest gas field
~A  DEPT        GR        RHOB      NPHI      RT        DT        CALI
# ...
 3282.1936    16.108    2.7135    0.0799    70.366   200.000     9.411
 3282.3460    14.669    2.6361    0.0811   214.108   200.000     8.581
 3282.4984    18.463    2.6767    0.0920   221.854   200.000     8.591
 3282.6508    23.548    2.7258    0.0886   305.869   200.000     8.324
 3282.8032    20.402    2.6513    0.0845   141.964   200.000     8.437
 3282.9556    18.283    2.7467    0.0868   240.848   200.000     8.598
 3283.1080    17.052    2.6909    0.0881   152.866   200.000     9.072
 3283.2604    18.884    2.7083    0.0622   128.833   200.000     8.120
 3283.4128    14.936    2.7230    0.0878    49.089   200.000     8.379
 3283.5652    12.915    2.6468    0.0590    64.362   200.000     8.325
 3283.7176    22.522    2.6785    0.0795   248.314   200.000     8.235
 3283.8700    15.105    2.6897    0.0681   184.357   200.000     8.671
 3284.0224    20.299    2.7009    0.0903    60.292   200.000     8.417
 3284.1748    13.732    2.6923    0.0840   258.137   200.000     8.280
 3284.3272    15.247    2.7112    0.0599    99.616   200.000     9.063
 3284.4796    15.898    2.6827    0.0870   127.059   200.000     8.435
 3284.6320    20.088    2.7581    0.0570   138.602   200.000     8.003
 3284.7844    15.947    2.7979    0.0794   156.976   200.000     7.743
 3284.9368    15.759    2.7015    0.0706    97.072   200.000     9.088
 3285.0892    19.125    2.6771    0.0710   164.179   200.000     8.968
 3285.2416    17.747    2.6234    0.0939   188.673   200.000     8.605
 3285.3940    20.405    2.6995    0.0971   131.638   200.000     8.308
 3285.5464    20.258    2.6724    0.0837   204.893   200.000     9.072
 3285.6988    15.860    2.6561    0.1015   198.447   200.000     8.333
 3285.8512    17.738    2.6430    0.0868   291.816   200.000     8.547
 3286.0036    18.939    2.6637    0.0775   282.601   200.000     8.977
 3286.1560    19.201    2.6414    0.0718   174.391   200.000     8.793
 3286.3084    10.945    2.7764    0.0681   131.185   200.000     8.144
 3286.4608    16.871    2.6795    0.0881   249.503   200.000     8.283
 3286.6132    17.802    2.6590    0.0803   126.032   200.000     8.257
 3286.7656    15.246    2.6991    0.0737    75.200   200.000     8.254
 3286.9180    13.324    2.5552    0.0580   365.673   200.000     8.997
 3287.0704    22.074    2.7062    0.0831    73.811   200.000     8.267
 3287.2228    18.873    2.6558    0.0755   462.295   200.000     8.000
 3287.3752    18.468    2.6274    0.0746    97.111   200.000     7.978
 3287.5276    16.611    2.6423    0.0900   157.942   200.000     8.061
 3287.6800    20.924    2.5807    0.0843   250.123   200.000     8.420
 3287.8324    21.328    2.6707    0.0571   181.209   200.000     8.491
 3287.9848    14.219    2.6548    0.0893   175.672   200.000     8.937
 3288.1372    23.267    2.7678    0.0844   141.158   200.000     8.495
 3288.2896    14.951    2.6294    0.0786   242.218   200.000     8.075
 3288.4420    18.092    2.6904    0.0774   265.603   200.000     9.494
 3288.5944    18.981    2.6570    0.0843   144.737   200.000     8.239
 3288.7468    12.229    2.6191    0.0789   307.060   200.000     8.403
 3288.8992    15.051    2.6067    0.0930   152.683   200.000     8.605
 3289.0516    16.530    2.6234    0.0799   201.455   200.000     9.110
 3289.2040    15.421    2.6637    0.0780   164.123   200.000     8.529
 3289.3564    23.840    2.6648    0.1046   207.902   200.000     8.376
 3289.5088    17.656    2.6980    0.0724   143.391   200.000     7.861
 3289.6612    16.986    2.7024    0.0823   107.667   200.000     8.718
 3289.8136    10.356    2.5438    0.0757    80.587   200.000     8.424
 3289.9660    15.150    2.7092    0.0911   140.665   200.000     8.392
 3290.1184    13.832    2.7683    0.0982   173.179   200.000     8.254
 3290.2708    14.187    2.7543    0.0647   197.212   200.000     7.832
 3290.4232    17.060    2.6086    0.0813   211.301   200.000     8.567
 3290.5756    19.944    2.5829    0.0823   403.395   200.000     7.935
 3290.7280    19.348    2.6671    0.0666   172.978   200.000     8.707
 3290.8804    24.657    2.6620    0.0731   201.123   200.000     9.071
 3291.0328    16.003    2.7028    0.0940   271.962   200.000     8.369
 3291.1852    17.911    2.6431    0.0769   128.135   200.000     8.287
 3291.3376    17.206    2.6668    0.0677   152.934   200.000     8.850
 3291.4900    15.844    2.6354    0.0862   299.843   200.000     7.817
 3291.6424    16.507    2.7252    0.0816   108.146   200.000     8.393
 3291.7948    23.803    2.6985    0.0672   204.790   200.000     8.442
 3291.9472    15.199    2.6866    0.0868   143.994   200.000     8.954
 3292.0996    21.172    2.7387    0.0547   224.698   200.000     8.951
 3292.2520    18.443    2.6196    0.0706   202.368   200.000     8.533
 3292.4044    21.109    2.6020    0.0823   217.412   200.000     8.189
 3292.5568     9.717    2.7084    0.0611   184.383   200.000     8.461
 3292.7092    11.742    2.6538    0.0819   231.762   200.000     8.345
 3292.8616    14.160    2.6305    0.0797   295.540   200.000     8.975
 3293.0140    20.703    2.7157    0.0686    97.369   200.000     8.726
 3293.1664    11.030    2.6677    0.0778    46.722   200.000     9.132
 3293.3188    29.100    2.6864    0.0629   216.004   200.000     8.638
 3293.4712    23.759    2.7626    0.0702   194.510   200.000     8.597
 3293.6236    12.849    2.6055    0.0733   242.380   200.000     8.135
 3293.7760    17.094    2.6000    0.0726   224.965   200.000     8.665
 3293.9284    16.085    2.6121    0.1006   137.551   200.000     8.328
 3294.0808    18.610    2.6737    0.1112    63.722   200.000     8.645
 3294.2332    26.033    2.6679    0.0935   135.274   200.000     8.334
 3294.3856    17.117    2.6690    0.0620    55.508   200.000     8.965
 3294.5380    14.813    2.5634    0.0717    82.982   200.000     7.885
 3294.6904    17.732    2.7325    0.0829   107.966   200.000     8.799
 3294.8428    16.912    2.5937    0.0699   347.414   200.000     8.417
 3294.9952    15.519    2.6320    0.0865   174.585   200.000     8.790
 3295.1476    17.699    2.5870    0.0941   597.467   200.000     8.305
 3295.3000    25.189    2.6715    0.0595   119.554   200.000     8.585
 3295.4524    24.133    2.5510    0.0873   129.547   200.000     8.286
 3295.6048    12.979    2.6324    0.0766   244.855   200.000     7.987
 3295.7572    28.112    2.7121    0.0882    77.329   200.000     8.827
 3295.9096    17.229    2.6497    0.0751   229.649   200.000     8.258
 3296.0620    18.582    2.7073    0.0847   212.208   200.000     8.968
 3296.2144    22.094    2.6382    0.0880   288.624   200.000     8.645
 3296.3668     9.361    2.7684    0.0886   155.095   200.000     8.270
 3296.5192    13.299    2.6767    0.0695    98.130   200.000     8.214
 3296.6716    16.506    2.6616    0.0806   156.707   200.000     8.678
 3296.8240    19.762    2.5935    0.0864   190.068   200.000     8.880
 3296.9764    20.739    2.6543    0.0900   127.327   200.000     8.187
 3297.1288    20.617    2.5396    0.0850    73.165   200.000     8.241
 3297.2812    14.311    2.7006    0.0548    62.707   200.000     8.421
 3297.4336    16.247    2.6505    0.0933   173.441   200.000     8.346
 3297.5860    16.484    2.7941    0.0732   274.123   200.000     8.834
 3297.7384    18.135    2.6604    0.1025   143.181   200.000     9.080
 3297.8908    21.524    2.6149    0.0823   108.220   200.000     8.658
 3298.0432    11.486    2.5656    0.0927    50.996   200.000     8.312
 3298.1956    12.585    2.6285    0.0667   184.628   200.000     8.320
 3298.3480    15.169    2.6348    0.0764   249.878   200.000     8.896
 3298.5004    23.130    2.6717    0.0742   225.994   200.000     8.747
 3298.6528    21.527    2.7082    0.0846    97.607   200.000     8.241
 3298.8052    18.273    2.7827    0.0864   207.725   200.000     8.092
 3298.9576    16.364    2.6276    0.0903   169.917   200.000     8.620
 3299.1100    17.125    2.6799    0.0826   170.725   200.000     8.829
 3299.2624    11.549    2.6903    0.0649   146.677   200.000     8.281
