~VERSION INFORMATION
 VERS.                 2.0    : CWLS LOG ASCII STANDARD
 WRAP.                 NO     : ONE LINE PER DEPTH STEP
~WELL INFORMATION
 WELL.                 NorthField-E1    : Well name
 FLD .                 North Field         : Field
 CTRY.                 Qatar       : Country
 STRT.M                2800.0000 : START DEPTH
 STOP.M                4000.0000   : STOP DEPTH
 STEP.M                0.1524        : STEP
 NULL.                 -999.25          : NULL VALUE
 SRVC.                 SubsurfAI        : Service company
~CURVE INFORMATION
 DEPT.M                              : Depth
 GR  .GAPI                           : Gamma Ray
 RHOB.G/C3                           : Bulk Density
 NPHI.V/V                            : Neutron Porosity
 RT  .OHMM                           : True Resistivity
 DT  .US/F                           : Sonic
 CALI.IN                             : Caliper
~PARAMETER INFORMATION
 LAT .                 25.8654   : Latitude
 LON .                 51.5321   : Longitude
 DESC.                 North Field — Khuff carbonate, worlds largest gas field
~A  DEPT        GR        RHOB      NPHI      RT        DT        CALI
# ...
 3678.2812     6.182    2.9480    0.0124  1075.473   200.000     8.763
 3678.4336     8.368    2.9391    0.0110  1349.815   200.000     9.110
 3678.5860     8.584    2.9394    0.0096   810.367   200.000     8.842
 3678.7384     1.452    2.8898    0.0106   976.898   200.000     8.856
 3678.8908     0.696    3.0353    0.0111   677.532   200.000     8.448
 3679.0432     6.461    2.9720    0.0064   542.793   200.000     8.078
 3679.1956     7.124    2.9573    0.0092   664.553   200.000     8.492
 3679.3480     7.607    2.9117    0.0123   753.350   200.000     8.569
 3679.5004     1.542    2.8593    0.0079  1426.022   200.000     8.690
 3679.6528     1.698    2.9084    0.0088   884.900   200.000     8.836
 3679.8052     4.424    3.0582    0.0093  1045.534   200.000     8.745
 3679.9576     0.463    3.0332    0.0082   618.478   200.000     8.168
 3680.1100     4.113    2.9924    0.0087   695.929   200.000     8.525
 3680.2624     6.222    2.9171    0.0075   496.858   200.000     8.491
 3680.4148     4.034    2.9930    0.0108   913.649   200.000     8.890
 3680.5672     3.998    3.0726    0.0123  1028.507   200.000     7.943
 3680.7196    11.739    3.0063    0.0127  1611.051   200.000     8.052
 3680.8720     4.799    2.9123    0.0084  1423.165   200.000     7.887
 3681.0244     8.860    2.9840    0.0085   923.694   200.000     8.829
 3681.1768     8.970    2.9692    0.0103   462.798   200.000     8.838
 3681.3292     8.990    3.0490    0.0106  1562.335   200.000     8.216
 3681.4816     4.999    2.9712    0.0093   786.004   200.000     8.002
 3681.6340     2.944    2.9063    0.0103  1463.100   200.000     9.215
 3681.7864     7.842    2.9834    0.0097  1128.043   200.000     8.069
 3681.9388     2.810    2.9432    0.0106   550.565   200.000     8.394
 3682.0912     4.220    2.9381    0.0110  1484.220   200.000     9.319
 3682.2436     6.558    3.0407    0.0082   783.003   200.000     8.507
 3682.3960     5.360    2.9522    0.0095   484.165   200.000     8.661
 3682.5484    -3.285    2.9877    0.0141   524.719   200.000     8.277
 3682.7008     3.273    3.0034    0.0093   878.027   200.000     8.483
 3682.8532     6.528    3.0137    0.0092   841.548   200.000     8.745
 3683.0056     4.370    3.0338    0.0055   613.228   200.000     7.872
 3683.1580     6.144    2.9517    0.0085  1287.448   200.000     9.172
 3683.3104     5.874    3.0556    0.0108  1469.253   200.000     8.793
 3683.4628     4.164    2.9556    0.0104   899.366   200.000     8.268
 3683.6152     3.007    2.9927    0.0109   925.065   200.000     8.540
 3683.7676    10.644    2.9861    0.0100  1172.966   200.000     8.750
 3683.9200     4.588    2.9075    0.0111  1489.540   200.000     7.802
 3684.0724    -1.624    2.9186    0.0121  3781.313   200.000     8.734
 3684.2248    10.077    3.0219    0.0074   569.858   200.000     9.398
 3684.3772     8.873    3.0089    0.0093  1017.777   200.000     8.493
 3684.5296     5.806    3.0292    0.0089  1361.059   200.000     8.497
 3684.6820     5.916    3.0707    0.0079  1185.924   200.000     8.713
 3684.8344     8.336    2.9479    0.0090  2278.593   200.000     9.043
 3684.9868     9.418    3.0493    0.0077  2786.525   200.000     7.654
 3685.1392     6.625    2.9833    0.0108  1238.827   200.000     9.579
 3685.2916     5.271    2.9594    0.0116   259.876   200.000     8.871
 3685.4440     6.851    2.9267    0.0083  1375.815   200.000     9.256
 3685.5964     5.168    2.9493    0.0117  1953.520   200.000     8.140
 3685.7488     0.214    3.0002    0.0098   960.229   200.000     8.634
 3685.9012    12.345    2.8969    0.0107   548.112   200.000     8.342
 3686.0536     6.806    2.9134    0.0094  1604.320   200.000     8.631
 3686.2060     0.271    2.9565    0.0080   436.842   200.000     8.618
 3686.3584    -0.137    2.9592    0.0091   749.606   200.000     8.144
 3686.5108     3.947    2.9852    0.0105   655.258   200.000     8.112
 3686.6632     8.622    2.8857    0.0089  1050.765   200.000     8.494
 3686.8156     4.558    3.0537    0.0128  1200.965   200.000     8.508
 3686.9680     2.980    2.9784    0.0107   806.078   200.000     8.831
 3687.1204     5.268    3.0832    0.0089   526.418   200.000     8.192
 3687.2728     8.170    3.0299    0.0092   396.876   200.000     7.784
 3687.4252     4.761    2.8986    0.0109   635.807   200.000     8.821
 3687.5776     7.930    2.9810    0.0094   444.660   200.000     8.837
 3687.7300     4.556    2.9699    0.0090  1270.078   200.000     8.116
 3687.8824     4.289    2.8855    0.0103   382.326   200.000     8.113
 3688.0348     3.431    3.0196    0.0101  1259.482   200.000     8.773
 3688.1872     5.640    2.9425    0.0072   629.770   200.000     8.449
 3688.3396    -1.459    2.8815    0.0102  1634.268   200.000     8.384
 3688.4920     5.917    2.9261    0.0113   528.896   200.000     8.660
 3688.6444     5.496    3.0113    0.0101   563.604   200.000     8.975
 3688.7968     8.701    2.8856    0.0124   928.111   200.000     8.997
 3688.9492     5.532    2.9605    0.0110  1819.108   200.000     7.971
 3689.1016     6.128    2.7828    0.0100  1718.972   200.000     8.820
 3689.2540     3.372    2.9724    0.0112   812.874   200.000     8.303
 3689.4064     0.725    2.9599    0.0097   389.597   200.000     8.152
 3689.5588     5.411    2.9155    0.0108   866.551   200.000     8.302
 3689.7112    10.284    2.9629    0.0091  1960.673   200.000     8.693
 3689.8636     2.586    3.1000    0.0116  1048.972   200.000     8.673
 3690.0160     4.903    3.0401    0.0105   940.941   200.000     7.864
 3690.1684     2.164    3.0007    0.0080  1227.023   200.000     8.229
 3690.3208     0.081    2.9532    0.0077   488.001   200.000     8.365
 3690.4732     7.918    3.0597    0.0086  1268.913   200.000     8.675
 3690.6256     8.286    2.9401    0.0086  2860.939   200.000     9.131
 3690.7780     5.539    2.8981    0.0094  1693.836   200.000     8.436
 3690.9304     7.745    2.9663    0.0107   780.153   200.000     8.232
 3691.0828     7.263    2.9196    0.0087   757.573   200.000     7.851
 3691.2352     6.488    2.8946    0.0093  1193.829   200.000     8.388
 3691.3876     5.686    2.9052    0.0115  1197.709   200.000     8.711
 3691.5400     4.980    2.9699    0.0113   578.762   200.000     8.663
 3691.6924     2.730    2.9536    0.0096   973.234   200.000     8.108
 3691.8448     3.055    2.8727    0.0086  1325.823   200.000     8.717
 3691.9972     7.975    2.9137    0.0115  1820.121   200.000     8.927
 3692.1496     5.606    3.0081    0.0103   631.990   200.000     8.187
 3692.3020     0.392    2.9973    0.0112   768.124   200.000     8.486
 3692.4544     4.068    2.9108    0.0096  1009.774   200.000     9.031
 3692.6068     6.967    3.0066    0.0113   697.060   200.000     9.032
 3692.7592     5.713    3.0447    0.0089  3608.214   200.000     8.922
 3692.9116     6.088    2.8972    0.0120   338.920   200.000     8.561
 3693.0640     5.424    3.0073    0.0095   951.870   200.000     8.306
 3693.2164     4.113    2.9657    0.0128   592.728   200.000     9.031
 3693.3688    -1.587    3.0076    0.0100   835.801   200.000     8.713
 3693.5212     4.750    3.0166    0.0092   207.524   200.000     8.832
 3693.6736     3.914    3.0347    0.0106  1528.431   200.000     8.461
 3693.8260     6.704    2.9734    0.0074  1733.112   200.000     8.105
 3693.9784     4.206    3.0114    0.0098   838.175   200.000     7.992
 3694.1308     3.387    2.9361    0.0075   912.050   200.000     8.250
 3694.2832     7.380    2.9273    0.0117  1724.774   200.000     8.496
 3694.4356     5.599    2.9436    0.0125  2293.359   200.000     8.425
 3694.5880     8.191    2.7474    0.0095   787.070   200.000     9.082
 3694.7404     4.843    3.0125    0.0100   617.008   200.000     8.417
 3694.8928     9.414    3.0134    0.0109   756.133   200.000     8.711
 3695.0452     5.937    2.9505    0.0091  1599.351   200.000     8.558
 3695.1976     5.199    2.8944    0.0109   777.938   200.000     8.643
 3695.3500    -0.817    2.9326    0.0101  1439.649   200.000     9.159
