~VERSION INFORMATION
 VERS.                 2.0    : CWLS LOG ASCII STANDARD
 WRAP.                 NO     : ONE LINE PER DEPTH STEP
~WELL INFORMATION
 WELL.                 NorthField-E1    : Well name
 FLD .                 North Field         : Field
 CTRY.                 Qatar       : Country
 STRT.M                2800.0000 : START DEPTH
 STOP.M                4000.0000   : STOP DEPTH
 STEP.M                0.1524        : STEP
 NULL.                 -999.25          : NULL VALUE
 SRVC.                 SubsurfAI        : Service company
~CURVE INFORMATION
 DEPT.M                              : Depth
 GR  .GAPI                           : Gamma Ray
 RHOB.G/C3                           : Bulk Density
 NPHI.V/V                            : Neutron Porosity
 RT  .OHMM                           : True Resistivity
 DT  .US/F                           : Sonic
 CALI.IN                             : Caliper
~PARAMETER INFORMATION
 LAT .                 25.8654   : Latitude
 LON .                 51.5321   : Longitude
 DESC.                 North Field — Khuff carbonate, worlds largest gas field
~A  DEPT        GR        RHOB      NPHI      RT        DT        CALI
# ...
 2886.1060    13.459    2.5913    0.1054    35.537   200.000     8.451
 2886.2584    10.903    2.5453    0.1105    90.837   200.000     8.330
 2886.4108    13.317    2.6915    0.1103   114.390   200.000     8.346
 2886.5632    13.234    2.6441    0.1310    21.735   200.000     8.769
 2886.7156    24.195    2.6087    0.1169   140.998   200.000     8.503
 2886.8680    13.506    2.7344    0.1121   161.077   200.000     8.839
 2887.0204    14.538    2.7122    0.1273   118.113   200.000     8.833
 2887.1728    10.961    2.6147    0.0994   146.295   200.000     8.833
 2887.3252    16.186    2.6714    0.1116   111.864   200.000     7.934
 2887.4776    17.545    2.6969    0.0944   104.304   200.000     8.419
 2887.6300    20.960    2.7346    0.1207    75.372   200.000     8.508
 2887.7824    15.324    2.6037    0.1096   110.176   200.000     8.064
 2887.9348    22.017    2.6294    0.1228    80.015   200.000     8.219
 2888.0872    12.164    2.5405    0.0982    59.687   200.000     8.591
 2888.2396    13.643    2.7080    0.1262   252.417   200.000     8.074
 2888.3920    11.642    2.6369    0.1034   233.172   200.000     8.684
 2888.5444    11.998    2.5984    0.1007    81.923   200.000     8.972
 2888.6968    17.026    2.7012    0.1090    28.706   200.000     8.687
 2888.8492    16.532    2.7685    0.1091    42.068   200.000     8.556
 2889.0016    17.246    2.6349    0.1058    51.633   200.000     8.338
 2889.1540    18.507    2.6420    0.1312   174.120   200.000     8.506
 2889.3064    10.773    2.5840    0.0959   118.959   200.000     7.958
 2889.4588     6.805    2.6217    0.1191   130.984   200.000     8.576
 2889.6112    12.763    2.6687    0.1096    90.152   200.000     8.446
 2889.7636    17.192    2.6496    0.0846    47.123   200.000     8.751
 2889.9160    18.346    2.6664    0.0700   139.267   200.000     8.826
 2890.0684    18.016    2.6631    0.1243    97.127   200.000     7.986
 2890.2208    13.429    2.6149    0.1199    99.397   200.000     7.318
 2890.3732    15.371    2.7022    0.0900    78.444   200.000     8.178
 2890.5256    15.026    2.6919    0.1026    99.422   200.000     8.867
 2890.6780    12.992    2.6592    0.1015    49.674   200.000     7.517
 2890.8304    17.315    2.5837    0.0978    56.790   200.000     8.085
 2890.9828    10.375    2.6158    0.0998    87.279   200.000     8.639
 2891.1352    12.317    2.6279    0.0813   123.219   200.000     8.334
 2891.2876    15.579    2.6993    0.1157   125.946   200.000     8.953
 2891.4400    14.932    2.7238    0.0942   182.553   200.000     8.268
 2891.5924    19.372    2.6226    0.1156    90.436   200.000     8.324
 2891.7448    19.045    2.5555    0.1065    55.871   200.000     8.717
 2891.8972    16.390    2.6755    0.1146   129.345   200.000     8.139
 2892.0496    19.720    2.6977    0.0944   112.617   200.000     8.497
 2892.2020    13.364    2.6778    0.0941    50.072   200.000     7.657
 2892.3544    11.399    2.6886    0.0814    95.659   200.000     8.126
 2892.5068    13.745    2.7154    0.0525   104.107   200.000     8.540
 2892.6592    15.439    2.6217    0.0994   120.257   200.000     9.021
 2892.8116    18.625    2.7347    0.1176   184.677   200.000     7.976
 2892.9640    14.114    2.6412    0.1055    55.601   200.000     9.184
 2893.1164     7.567    2.6721    0.0910    33.318   200.000     8.663
 2893.2688    12.321    2.7694    0.1058   122.325   200.000     8.261
 2893.4212    17.301    2.7142    0.1059    90.896   200.000     8.435
 2893.5736    13.022    2.5575    0.1085    57.814   200.000     8.263
 2893.7260    12.361    2.7086    0.1116   169.093   200.000     8.778
 2893.8784    15.121    2.6520    0.1063   111.230   200.000     8.375
 2894.0308    17.182    2.6767    0.0839    80.807   200.000     8.509
 2894.1832    10.034    2.7379    0.0765   140.325   200.000     8.359
 2894.3356    16.206    2.6831    0.1184    91.582   200.000     8.761
 2894.4880    22.055    2.6834    0.1093    88.855   200.000     8.423
 2894.6404    12.161    2.6668    0.1070    74.486   200.000     8.246
 2894.7928    16.743    2.6939    0.0728   203.259   200.000     8.182
 2894.9452    15.102    2.6506    0.0846   123.692   200.000     8.955
 2895.0976    11.965    2.7104    0.0853   141.052   200.000     9.162
 2895.2500    20.484    2.6259    0.0923    70.457   200.000     8.211
 2895.4024    11.765    2.6439    0.0639    86.527   200.000     7.968
 2895.5548    20.059    2.7289    0.1195   404.302   200.000     7.934
 2895.7072    14.687    2.7178    0.1046   246.083   200.000     8.117
 2895.8596    14.448    2.6312    0.0806   101.728   200.000     8.392
 2896.0120    12.167    2.7046    0.1184    99.794   200.000     8.234
 2896.1644    14.358    2.5679    0.0977    77.834   200.000     8.663
 2896.3168    17.463    2.7084    0.1071    89.727   200.000     8.092
 2896.4692    15.572    2.7481    0.1297    75.273   200.000     8.857
 2896.6216    19.069    2.5721    0.0879    40.826   200.000     8.659
 2896.7740    16.498    2.5673    0.0875    51.195   200.000     8.206
 2896.9264    14.068    2.6307    0.1018   239.588   200.000     8.768
 2897.0788    15.498    2.6221    0.1057   178.186   200.000     8.780
 2897.2312    16.488    2.6565    0.1151   268.388   200.000     8.734
 2897.3836    10.949    2.7000    0.1287    49.475   200.000     8.209
 2897.5360    14.483    2.6781    0.0907    62.752   200.000     8.783
 2897.6884    19.220    2.7405    0.1092    80.009   200.000     8.358
 2897.8408    18.232    2.6881    0.1045   112.218   200.000     8.634
 2897.9932    19.814    2.6280    0.0874    84.965   200.000     8.930
 2898.1456    16.094    2.6320    0.1217    63.067   200.000     8.400
 2898.2980    11.934    2.7019    0.0756   120.702   200.000     8.662
 2898.4504    17.997    2.6594    0.1048   131.921   200.000     8.470
 2898.6028    10.992    2.6538    0.1175   181.252   200.000     8.173
 2898.7552    12.446    2.6680    0.1075    73.737   200.000     7.634
 2898.9076     9.712    2.6023    0.1222    75.083   200.000     8.952
 2899.0600    22.546    2.6287    0.1174    62.561   200.000     8.315
 2899.2124    13.737    2.6815    0.0997    64.936   200.000     8.615
 2899.3648    18.603    2.6104    0.1138   130.845   200.000     8.941
 2899.5172    18.974    2.6787    0.0815    85.296   200.000     8.608
 2899.6696    13.549    2.6637    0.1005    39.966   200.000     8.146
 2899.8220    17.017    2.6818    0.1123    71.025   200.000     8.297
 2899.9744    14.855    2.7424    0.0987   159.277   200.000     8.467
 2900.1268    18.569    2.6491    0.0932    73.418   200.000     8.236
 2900.2792    18.636    2.5649    0.1254   102.319   200.000     8.962
 2900.4316    13.824    2.6418    0.0965    70.252   200.000     8.068
 2900.5840    13.473    2.5962    0.0825    36.073   200.000     8.250
 2900.7364    19.801    2.6188    0.1116   134.050   200.000     8.254
 2900.8888    16.929    2.6288    0.0986    84.468   200.000     9.032
 2901.0412    18.668    2.5955    0.1400    29.284   200.000     8.707
 2901.1936    12.458    2.6506    0.0999   104.885   200.000     9.151
 2901.3460    14.193    2.6622    0.0839   116.503   200.000     8.706
 2901.4984    15.889    2.5974    0.1029    98.408   200.000     8.511
 2901.6508    13.231    2.6186    0.0943    50.406   200.000     8.056
 2901.8032    19.939    2.6827    0.0960   115.225   200.000     8.601
 2901.9556    12.549    2.6655    0.1014   313.335   200.000     8.287
 2902.1080    15.134    2.6001    0.0897   205.946   200.000     7.970
 2902.2604    19.936    2.6700    0.1133   152.064   200.000     9.174
 2902.4128    17.399    2.6478    0.0932    96.071   200.000     8.272
 2902.5652    14.354    2.6189    0.1024    83.461   200.000     8.097
 2902.7176    18.166    2.5343    0.1059   172.276   200.000     8.498
 2902.8700    16.122    2.6797    0.1110    37.681   200.000     8.588
 2903.0224    13.395    2.6282    0.0967    36.816   200.000     8.667
 2903.1748    12.876    2.5625    0.0874   183.156   200.000     8.972
