~VERSION INFORMATION
 VERS.                 2.0    : CWLS LOG ASCII STANDARD
 WRAP.                 NO     : ONE LINE PER DEPTH STEP
~WELL INFORMATION
 WELL.                 NorthField-E1    : Well name
 FLD .                 North Field         : Field
 CTRY.                 Qatar       : Country
 STRT.M                2800.0000 : START DEPTH
 STOP.M                4000.0000   : STOP DEPTH
 STEP.M                0.1524        : STEP
 NULL.                 -999.25          : NULL VALUE
 SRVC.                 SubsurfAI        : Service company
~CURVE INFORMATION
 DEPT.M                              : Depth
 GR  .GAPI                           : Gamma Ray
 RHOB.G/C3                           : Bulk Density
 NPHI.V/V                            : Neutron Porosity
 RT  .OHMM                           : True Resistivity
 DT  .US/F                           : Sonic
 CALI.IN                             : Caliper
~PARAMETER INFORMATION
 LAT .                 25.8654   : Latitude
 LON .                 51.5321   : Longitude
 DESC.                 North Field — Khuff carbonate, worlds largest gas field
~A  DEPT        GR        RHOB      NPHI      RT        DT        CALI
# ...
 3109.9816     5.816    2.7268    0.0287   295.816   200.000     8.835
 3110.1340     9.764    2.6066    0.0578   319.325   200.000     8.307
 3110.2864     7.862    2.7483    0.0531   799.723   200.000     8.189
 3110.4388    11.839    2.6778    0.0568   790.376   200.000     8.433
 3110.5912     9.980    2.7291    0.0520   261.526   200.000     8.330
 3110.7436     7.155    2.7584    0.0565   532.331   200.000     8.719
 3110.8960     5.023    2.6787    0.0531   377.638   200.000     8.349
 3111.0484     7.340    2.7905    0.0376   360.505   200.000     8.471
 3111.2008    10.578    2.6584    0.0521   393.131   200.000     8.815
 3111.3532     6.704    2.7964    0.0435   276.236   200.000     8.313
 3111.5056     6.894    2.7171    0.0384   256.302   200.000     8.705
 3111.6580     8.101    2.6150    0.0544   309.169   200.000     8.721
 3111.8104     5.223    2.8050    0.0665   623.134   200.000     8.946
 3111.9628     9.740    2.7135    0.0398   336.072   200.000     8.778
 3112.1152    10.439    2.7067    0.0567   398.311   200.000     8.404
 3112.2676    11.526    2.6320    0.0562   247.631   200.000     8.641
 3112.4200     9.134    2.7303    0.0427   514.787   200.000     8.711
 3112.5724     6.838    2.6541    0.0557   303.230   200.000     8.781
 3112.7248     2.135    2.8386    0.0566   253.047   200.000     9.249
 3112.8772     9.174    2.7318    0.0527  1173.671   200.000     8.556
 3113.0296     7.175    2.6790    0.0595   313.274   200.000     8.881
 3113.1820     5.963    2.6944    0.0359   894.390   200.000     8.631
 3113.3344    11.177    2.7654    0.0426   363.514   200.000     8.750
 3113.4868     4.827    2.7432    0.0467   522.700   200.000     8.214
 3113.6392     8.170    2.8197    0.0454   452.804   200.000     8.253
 3113.7916     8.998    2.6919    0.0415   977.241   200.000     8.494
 3113.9440     8.521    2.6651    0.0529   241.157   200.000     8.813
 3114.0964     4.401    2.5990    0.0466   337.406   200.000     8.291
 3114.2488     8.622    2.7244    0.0363   839.558   200.000     8.435
 3114.4012     7.417    2.7796    0.0607   527.756   200.000     8.012
 3114.5536     6.551    2.7086    0.0596   496.993   200.000     8.830
 3114.7060     7.816    2.6742    0.0542   458.926   200.000     8.361
 3114.8584     5.816    2.7015    0.0516   374.572   200.000     8.175
 3115.0108     8.634    2.6269    0.0445   801.084   200.000     7.762
 3115.1632     8.666    2.6949    0.0448   795.949   200.000     8.853
 3115.3156    10.640    2.7286    0.0392   553.140   200.000     9.374
 3115.4680     7.664    2.6803    0.0541   637.486   200.000     8.234
 3115.6204     4.592    2.7624    0.0533   822.555   200.000     8.714
 3115.7728    -0.308    2.7015    0.0578   355.114   200.000     8.697
 3115.9252     4.310    2.6115    0.0631   366.499   200.000     8.206
 3116.0776     6.416    2.7961    0.0452   307.726   200.000     9.533
 3116.2300     9.203    2.7815    0.0497   161.162   200.000     8.315
 3116.3824     3.460    2.7096    0.0384   108.698   200.000     8.673
 3116.5348    14.018    2.7175    0.0496   514.634   200.000     8.803
 3116.6872     6.773    2.6544    0.0434   291.566   200.000    10.089
 3116.8396    11.994    2.7494    0.0442   164.425   200.000     8.125
 3116.9920    14.224    2.7578    0.0603   341.197   200.000     9.241
 3117.1444     1.841    2.6533    0.0407   291.179   200.000     8.784
 3117.2968     8.724    2.7766    0.0491   344.335   200.000     8.087
 3117.4492     4.797    2.6750    0.0547   226.932   200.000     7.875
 3117.6016     6.471    2.6965    0.0490   696.656   200.000     8.916
 3117.7540     6.890    2.7271    0.0497   568.950   200.000     9.008
 3117.9064     3.309    2.6628    0.0587   335.844   200.000     8.503
 3118.0588     3.328    2.6075    0.0541   329.379   200.000     8.235
 3118.2112     9.575    2.7746    0.0409   340.837   200.000     8.493
 3118.3636    11.390    2.6967    0.0498   590.334   200.000     8.271
 3118.5160     8.184    2.6461    0.0623   252.590   200.000     8.589
 3118.6684    10.080    2.7709    0.0640   361.952   200.000     9.307
 3118.8208    12.771    2.7020    0.0497   302.142   200.000     8.544
 3118.9732     8.756    2.7803    0.0448   385.367   200.000     8.349
 3119.1256     9.340    2.7027    0.0440   338.980   200.000     8.970
 3119.2780     0.866    2.6867    0.0362   276.239   200.000     7.858
 3119.4304    11.292    2.7230    0.0516   545.412   200.000     8.537
 3119.5828     4.796    2.7634    0.0547  1391.933   200.000     8.174
 3119.7352     6.696    2.6711    0.0544   524.507   200.000     8.531
 3119.8876     9.463    2.7391    0.0455   342.077   200.000     8.062
 3120.0400     7.094    2.6573    0.0488   351.409   200.000     8.183
 3120.1924     3.758    2.6871    0.0556   460.384   200.000     8.566
 3120.3448     0.975    2.8198    0.0520   612.714   200.000     8.561
 3120.4972     4.374    2.7416    0.0490   423.663   200.000     8.369
 3120.6496     8.020    2.7031    0.0442   304.214   200.000     8.207
 3120.8020     9.347    2.7678    0.0528   698.906   200.000     8.609
 3120.9544     5.932    2.7175    0.0523   395.245   200.000     8.181
 3121.1068     8.816    2.7226    0.0471   200.187   200.000     8.145
 3121.2592     5.740    2.6320    0.0461   200.598   200.000     8.604
 3121.4116    10.462    2.6481    0.0502   326.579   200.000     8.206
 3121.5640     9.456    2.7385    0.0341   629.697   200.000     9.075
 3121.7164    10.042    2.6474    0.0464   522.305   200.000     8.418
 3121.8688     9.460    2.6731    0.0475   136.613   200.000     8.711
 3122.0212    11.436    2.7624    0.0534   436.570   200.000     8.329
 3122.1736     5.551    2.6885    0.0661   358.938   200.000     8.810
 3122.3260    -0.970    2.7106    0.0659   268.978   200.000     8.283
 3122.4784    12.112    2.7187    0.0574   571.249   200.000     8.025
 3122.6308     9.573    2.7739    0.0506   335.076   200.000     8.662
 3122.7832     8.263    2.6395    0.0379   599.519   200.000     8.797
 3122.9356     9.940    2.6389    0.0489   318.902   200.000     8.619
 3123.0880     9.744    2.7674    0.0502   390.053   200.000     8.609
 3123.2404     6.172    2.7361    0.0563   526.897   200.000     8.012
 3123.3928     8.052    2.6519    0.0511   258.621   200.000     8.361
 3123.5452     8.944    2.7809    0.0554   373.889   200.000     7.905
 3123.6976    10.600    2.7576    0.0508   627.711   200.000     8.974
 3123.8500     4.898    2.6768    0.0571   244.005   200.000     8.367
 3124.0024     8.748    2.7663    0.0567   283.511   200.000     7.634
 3124.1548     9.501    2.6529    0.0399   404.143   200.000     8.326
 3124.3072     5.866    2.6860    0.0435   630.830   200.000     8.116
 3124.4596     3.603    2.7095    0.0610   151.830   200.000     8.400
 3124.6120     9.457    2.7172    0.0373   522.721   200.000     7.491
 3124.7644    12.972    2.7317    0.0342   294.372   200.000     8.860
 3124.9168     4.126    2.7112    0.0694   526.280   200.000     8.501
 3125.0692     8.883    2.6757    0.0447   743.903   200.000     8.143
 3125.2216    10.479    2.6169    0.0396   412.557   200.000     8.725
 3125.3740    12.972    2.8030    0.0605   222.489   200.000     8.621
 3125.5264    14.435    2.7970    0.0455   450.547   200.000     7.784
 3125.6788     9.151    2.6561    0.0416   142.879   200.000     8.919
 3125.8312     7.431    2.7561    0.0626   746.454   200.000     8.400
 3125.9836     8.611    2.6982    0.0504    86.118   200.000     7.957
 3126.1360     9.417    2.6880    0.0576  1416.176   200.000     8.118
 3126.2884     6.581    2.7573    0.0473   492.651   200.000     8.884
 3126.4408     6.698    2.7910    0.0345   251.574   200.000     8.201
 3126.5932     6.042    2.7346    0.0481   506.063   200.000     8.891
 3126.7456     9.265    2.6626    0.0576   627.356   200.000     8.771
 3126.8980    10.301    2.6953    0.0533   473.402   200.000     8.581
 3127.0504     9.683    2.7020    0.0365   499.837   200.000     8.050
