~VERSION INFORMATION
 VERS.                 2.0    : CWLS LOG ASCII STANDARD
 WRAP.                 NO     : ONE LINE PER DEPTH STEP
~WELL INFORMATION
 WELL.                 NorthField-E1    : Well name
 FLD .                 North Field         : Field
 CTRY.                 Qatar       : Country
 STRT.M                2800.0000 : START DEPTH
 STOP.M                4000.0000   : STOP DEPTH
 STEP.M                0.1524        : STEP
 NULL.                 -999.25          : NULL VALUE
 SRVC.                 SubsurfAI        : Service company
~CURVE INFORMATION
 DEPT.M                              : Depth
 GR  .GAPI                           : Gamma Ray
 RHOB.G/C3                           : Bulk Density
 NPHI.V/V                            : Neutron Porosity
 RT  .OHMM                           : True Resistivity
 DT  .US/F                           : Sonic
 CALI.IN                             : Caliper
~PARAMETER INFORMATION
 LAT .                 25.8654   : Latitude
 LON .                 51.5321   : Longitude
 DESC.                 North Field — Khuff carbonate, worlds largest gas field
~A  DEPT        GR        RHOB      NPHI      RT        DT        CALI
# ...
 3041.0968     7.427    2.6260    0.0514   720.703   200.000     8.773
 3041.2492     6.379    2.5948    0.0472   629.502   200.000     8.716
 3041.4016    10.810    2.7010    0.0475   581.150   200.000     8.367
 3041.5540     7.854    2.7919    0.0665   417.179   200.000     8.470
 3041.7064     8.476    2.7420    0.0539   554.866   200.000     8.285
 3041.8588     8.634    2.7366    0.0455   941.588   200.000     8.570
 3042.0112     8.047    2.6664    0.0587   546.380   200.000     8.797
 3042.1636    12.850    2.7521    0.0486   339.880   200.000     8.144
 3042.3160     4.586    2.6554    0.0531   249.316   200.000     8.111
 3042.4684    14.718    2.7872    0.0470   601.801   200.000     8.664
 3042.6208     7.415    2.6444    0.0517   611.317   200.000     8.492
 3042.7732     8.419    2.7531    0.0562   345.088   200.000     8.959
 3042.9256     7.033    2.7739    0.0541   659.714   200.000     7.557
 3043.0780    11.918    2.8081    0.0507   243.454   200.000     8.900
 3043.2304     9.237    2.7056    0.0350   262.084   200.000     9.257
 3043.3828     6.828    2.6977    0.0515   386.353   200.000     8.785
 3043.5352     4.400    2.7748    0.0474   203.900   200.000     8.349
 3043.6876     5.220    2.6361    0.0453   231.928   200.000     9.081
 3043.8400    13.884    2.6788    0.0322   467.200   200.000     8.667
 3043.9924    10.679    2.6954    0.0412   332.770   200.000     8.955
 3044.1448     8.731    2.7238    0.0440   317.362   200.000     8.109
 3044.2972     8.905    2.7500    0.0484   519.517   200.000     8.036
 3044.4496     6.540    2.7231    0.0393   152.180   200.000     8.247
 3044.6020     9.484    2.7116    0.0457   443.828   200.000     8.230
 3044.7544     9.434    2.8551    0.0468   215.689   200.000     8.626
 3044.9068    11.782    2.7309    0.0577   648.782   200.000     8.361
 3045.0592     2.768    2.7274    0.0502  1497.037   200.000     8.612
 3045.2116    11.614    2.6553    0.0691   514.194   200.000     9.215
 3045.3640     5.985    2.6750    0.0502   277.812   200.000     8.717
 3045.5164    11.125    2.7654    0.0450   415.000   200.000     8.748
 3045.6688    11.744    2.6943    0.0610   287.820   200.000     8.755
 3045.8212     2.855    2.7294    0.0531   520.329   200.000     8.469
 3045.9736     4.723    2.7545    0.0517   977.957   200.000     8.470
 3046.1260     8.235    2.7030    0.0594   476.513   200.000     8.961
 3046.2784     4.617    2.6810    0.0555   624.763   200.000     8.354
 3046.4308     8.052    2.7127    0.0558   272.020   200.000     8.537
 3046.5832     4.735    2.8367    0.0583   476.469   200.000     8.656
 3046.7356    12.827    2.7064    0.0569   238.456   200.000     8.155
 3046.8880     4.672    2.6973    0.0519   573.073   200.000     8.982
 3047.0404     3.286    2.6849    0.0492   304.687   200.000     8.291
 3047.1928    14.097    2.7645    0.0562   218.441   200.000     8.479
 3047.3452     9.875    2.7199    0.0475  1341.887   200.000     8.117
 3047.4976     2.438    2.7766    0.0434   510.455   200.000     8.435
 3047.6500    10.045    2.7533    0.0577   578.290   200.000     8.568
 3047.8024     2.954    2.7830    0.0719   263.236   200.000     8.117
 3047.9548    12.371    2.6720    0.0419   837.034   200.000     8.838
 3048.1072     9.492    2.7361    0.0507   228.367   200.000     8.386
 3048.2596     5.177    2.6734    0.0526   675.037   200.000     9.016
 3048.4120     7.592    2.7149    0.0476   329.262   200.000     8.713
 3048.5644     7.934    2.6331    0.0607   485.433   200.000     8.722
 3048.7168    10.659    2.7106    0.0347   166.945   200.000     9.175
 3048.8692    11.363    2.7317    0.0520   640.569   200.000     8.227
 3049.0216     8.391    2.7464    0.0437   279.801   200.000     8.234
 3049.1740     9.855    2.7785    0.0463   303.318   200.000     8.929
 3049.3264     8.213    2.6694    0.0580   190.255   200.000     8.878
 3049.4788     5.695    2.7257    0.0439   312.361   200.000     8.893
 3049.6312     6.100    2.5994    0.0577   698.695   200.000     8.853
 3049.7836     5.604    2.6930    0.0432   376.867   200.000     8.889
 3049.9360    10.774    2.7395    0.0560   840.583   200.000     8.332
 3050.0884     7.006    2.7214    0.0587   394.855   200.000     8.865
 3050.2408     7.703    2.7253    0.0636   383.407   200.000     8.816
 3050.3932     8.852    2.6382    0.0458   431.223   200.000     8.881
 3050.5456    10.809    2.6514    0.0618   360.069   200.000     8.587
 3050.6980     5.126    2.7790    0.0587   198.871   200.000     8.139
 3050.8504     9.072    2.7534    0.0497   232.844   200.000     8.106
 3051.0028     5.082    2.7355    0.0555   301.134   200.000     8.948
 3051.1552     6.515    2.7598    0.0450   283.468   200.000     8.396
 3051.3076     4.326    2.8233    0.0794   314.661   200.000     8.713
 3051.4600     5.801    2.6936    0.0497   251.053   200.000     8.407
 3051.6124     8.872    2.7438    0.0485   388.781   200.000     8.925
 3051.7648    11.578    2.7605    0.0418   741.593   200.000     8.044
 3051.9172     5.587    2.7552    0.0429   256.481   200.000     9.576
 3052.0696     5.780    2.8112    0.0359   423.429   200.000     8.370
 3052.2220     7.197    2.7177    0.0523   675.767   200.000     8.531
 3052.3744     6.460    2.6719    0.0558   479.718   200.000     8.116
 3052.5268     4.576    2.7526    0.0595   847.614   200.000     9.018
 3052.6792    13.968    2.7530    0.0521   620.379   200.000     8.416
 3052.8316     5.253    2.6684    0.0556  1309.562   200.000     8.092
 3052.9840     6.414    2.7122    0.0469   280.950   200.000     8.594
 3053.1364     7.800    2.5659    0.0512   591.641   200.000     8.588
 3053.2888     9.095    2.7060    0.0474   510.230   200.000     7.738
 3053.4412     8.363    2.6687    0.0509   520.104   200.000     8.711
 3053.5936     4.484    2.6799    0.0390   355.604   200.000     8.499
 3053.7460     2.967    2.7918    0.0597   464.699   200.000     8.371
 3053.8984    11.897    2.6879    0.0494   985.571   200.000     8.201
 3054.0508     5.718    2.7098    0.0557   652.533   200.000     8.317
 3054.2032     7.333    2.6601    0.0471   795.958   200.000     9.443
 3054.3556     8.216    2.8178    0.0423   400.937   200.000     8.325
 3054.5080     9.317    2.7322    0.0356   346.054   200.000     8.592
 3054.6604     9.025    2.7695    0.0492   413.447   200.000     8.338
 3054.8128     7.490    2.6159    0.0594   254.666   200.000     8.283
 3054.9652     8.704    2.7384    0.0502   371.169   200.000     8.564
 3055.1176    11.326    2.7451    0.0484   481.535   200.000     8.537
 3055.2700     6.005    2.7239    0.0539   238.147   200.000     8.457
 3055.4224     4.898    2.7161    0.0489   222.170   200.000     9.005
 3055.5748     3.512    2.6925    0.0492   344.661   200.000     8.040
 3055.7272     4.349    2.6256    0.0476   510.068   200.000     7.652
 3055.8796    -0.925    2.7433    0.0558   500.824   200.000     8.585
 3056.0320     5.554    2.7473    0.0472   571.572   200.000     8.160
 3056.1844     9.384    2.6839    0.0529   356.185   200.000     8.437
 3056.3368    15.611    2.7402    0.0534   495.320   200.000     8.898
 3056.4892     2.568    2.8008    0.0610   633.275   200.000     8.860
 3056.6416     9.546    2.6585    0.0516   577.668   200.000     8.255
 3056.7940     8.820    2.7909    0.0558   483.435   200.000     8.776
 3056.9464     6.552    2.7173    0.0443   170.118   200.000     8.053
 3057.0988    15.165    2.8105    0.0514   254.724   200.000     8.317
 3057.2512     4.237    2.6970    0.0311   378.712   200.000     8.061
 3057.4036     8.028    2.6795    0.0458  1016.809   200.000     8.749
 3057.5560    13.709    2.7048    0.0440   405.909   200.000     8.205
 3057.7084     7.962    2.7433    0.0544  1582.346   200.000     8.891
 3057.8608     9.585    2.7022    0.0476   430.743   200.000     8.593
 3058.0132     4.570    2.7939    0.0527   436.013   200.000     8.647
 3058.1656     9.792    2.7716    0.0515   471.717   200.000     9.241
