~VERSION INFORMATION
 VERS.                 2.0    : CWLS LOG ASCII STANDARD
 WRAP.                 NO     : ONE LINE PER DEPTH STEP
~WELL INFORMATION
 WELL.                 NorthField-E1    : Well name
 FLD .                 North Field         : Field
 CTRY.                 Qatar       : Country
 STRT.M                2800.0000 : START DEPTH
 STOP.M                4000.0000   : STOP DEPTH
 STEP.M                0.1524        : STEP
 NULL.                 -999.25          : NULL VALUE
 SRVC.                 SubsurfAI        : Service company
~CURVE INFORMATION
 DEPT.M                              : Depth
 GR  .GAPI                           : Gamma Ray
 RHOB.G/C3                           : Bulk Density
 NPHI.V/V                            : Neutron Porosity
 RT  .OHMM                           : True Resistivity
 DT  .US/F                           : Sonic
 CALI.IN                             : Caliper
~PARAMETER INFORMATION
 LAT .                 25.8654   : Latitude
 LON .                 51.5321   : Longitude
 DESC.                 North Field — Khuff carbonate, worlds largest gas field
~A  DEPT        GR        RHOB      NPHI      RT        DT        CALI
# ...
 3592.1752     7.324    2.9707    0.0114  1318.435   200.000     8.203
 3592.3276     6.853    3.0538    0.0104   979.375   200.000     8.611
 3592.4800     8.769    3.0169    0.0098  1614.269   200.000     8.052
 3592.6324     4.452    3.0708    0.0100   703.515   200.000     8.574
 3592.7848     7.921    3.0058    0.0103  1576.884   200.000     7.981
 3592.9372     4.857    3.0052    0.0097  2056.864   200.000     8.421
 3593.0896     9.303    2.9868    0.0110  2183.394   200.000     8.640
 3593.2420     4.938    2.8466    0.0109  1569.555   200.000     8.508
 3593.3944     4.964    2.9206    0.0122  2649.029   200.000     8.367
 3593.5468     6.636    3.0367    0.0102   691.930   200.000     8.586
 3593.6992     7.803    2.9193    0.0115   480.801   200.000     8.352
 3593.8516     9.929    3.0578    0.0095  2552.885   200.000     9.000
 3594.0040     5.901    3.0109    0.0137   450.697   200.000     7.862
 3594.1564     4.947    2.9441    0.0113  3576.079   200.000     8.580
 3594.3088     7.963    2.9350    0.0106   733.268   200.000     8.035
 3594.4612     5.151    2.9249    0.0076   875.288   200.000     8.034
 3594.6136     6.094    2.9240    0.0104   289.206   200.000     8.833
 3594.7660     6.056    2.9728    0.0081   999.492   200.000     7.428
 3594.9184     2.076    2.9059    0.0075  2843.028   200.000     8.832
 3595.0708     7.891    2.9999    0.0103   939.066   200.000     8.678
 3595.2232     4.826    3.0487    0.0081  1007.084   200.000     7.754
 3595.3756     3.399    2.9258    0.0101   776.364   200.000     8.375
 3595.5280    12.108    2.8203    0.0080  1355.120   200.000     8.241
 3595.6804    10.777    3.0366    0.0093   798.825   200.000     8.042
 3595.8328     6.701    3.0131    0.0117  1477.238   200.000     8.082
 3595.9852     5.174    2.9345    0.0121   694.983   200.000     9.356
 3596.1376     0.199    2.9371    0.0100   721.803   200.000     8.337
 3596.2900     8.290    3.0716    0.0077  1265.577   200.000     8.156
 3596.4424     6.106    2.8943    0.0092  1435.739   200.000     8.592
 3596.5948     4.909    3.0149    0.0111  1514.661   200.000     8.258
 3596.7472     7.677    2.9159    0.0089  1000.834   200.000     8.489
 3596.8996     5.025    2.9240    0.0125  1791.918   200.000     8.742
 3597.0520     7.605    2.9481    0.0116   901.803   200.000     8.445
 3597.2044     9.860    2.9245    0.0083  1683.361   200.000     8.659
 3597.3568     5.613    2.9589    0.0071   465.021   200.000     8.821
 3597.5092     5.399    2.9118    0.0121   432.149   200.000     8.631
 3597.6616     8.117    2.8895    0.0098  1922.499   200.000     8.403
 3597.8140     6.693    2.9245    0.0081  1041.630   200.000     9.392
 3597.9664     8.404    2.9229    0.0107  2546.072   200.000     8.123
 3598.1188     4.269    2.9177    0.0093   557.715   200.000     8.941
 3598.2712     5.922    2.9601    0.0103  1010.789   200.000     8.302
 3598.4236     2.022    3.0237    0.0105   780.521   200.000     8.764
 3598.5760     2.745    2.9783    0.0101  1187.985   200.000     8.703
 3598.7284     1.945    3.0254    0.0108   764.698   200.000     8.348
 3598.8808     8.482    2.9818    0.0109   799.621   200.000     8.059
 3599.0332     7.401    2.9483    0.0092  1143.787   200.000     8.925
 3599.1856     2.377    2.8989    0.0111  1001.570   200.000     8.389
 3599.3380    11.943    2.9815    0.0085   596.344   200.000     8.789
 3599.4904     2.333    2.9671    0.0097   878.920   200.000     7.901
 3599.6428     6.139    2.9750    0.0096  1221.541   200.000     8.868
 3599.7952    -3.255    2.9214    0.0090  1537.795   200.000     8.317
 3599.9476    -0.571    2.9256    0.0085  1195.262   200.000     9.336
 3600.1000     9.700    2.7948    0.0094  1690.928   200.000     8.403
 3600.2524     3.192    2.8498    0.0095   638.911   200.000     8.353
 3600.4048     5.257    2.9340    0.0119   595.586   200.000     8.909
 3600.5572     1.686    3.1000    0.0079  1126.056   200.000     8.360
 3600.7096     1.571    2.9719    0.0117  1516.663   200.000     8.614
 3600.8620     2.942    3.0073    0.0116  1214.438   200.000     8.387
 3601.0144     9.161    2.9625    0.0105  1086.388   200.000     7.887
 3601.1668     8.382    3.0014    0.0102   450.435   200.000     7.792
 3601.3192     9.193    2.9687    0.0114   698.658   200.000     8.742
 3601.4716     7.632    2.9079    0.0098   848.850   200.000     8.467
 3601.6240     4.054    2.9094    0.0105  3586.199   200.000     8.822
 3601.7764     2.568    2.9181    0.0086   760.843   200.000     8.449
 3601.9288    10.439    3.0039    0.0119  1268.544   200.000     8.508
 3602.0812     6.048    3.0547    0.0087  2362.445   200.000     8.763
 3602.2336     5.009    3.0459    0.0085  1116.171   200.000     8.287
 3602.3860     2.531    2.9978    0.0118   483.543   200.000     8.534
 3602.5384     5.788    3.0221    0.0089   959.495   200.000     8.868
 3602.6908     2.848    3.0890    0.0079  1340.234   200.000     8.100
 3602.8432     7.702    2.9218    0.0117  1021.448   200.000     8.036
 3602.9956     6.051    2.9669    0.0115   865.493   200.000     8.389
 3603.1480    10.205    2.9001    0.0094   799.168   200.000     8.449
 3603.3004     3.564    2.9444    0.0101   833.040   200.000     7.649
 3603.4528     0.216    2.9724    0.0114  1770.459   200.000     8.084
 3603.6052     5.394    3.0127    0.0096  3098.610   200.000     8.469
 3603.7576     2.553    2.9910    0.0097  1472.971   200.000     8.609
 3603.9100     8.622    2.9406    0.0128  1053.322   200.000     7.571
 3604.0624     8.197    2.8992    0.0118  2378.736   200.000     8.354
 3604.2148     3.738    2.8901    0.0103  1060.643   200.000     9.135
 3604.3672     6.114    3.0162    0.0095  3917.677   200.000     8.131
 3604.5196     2.555    2.9152    0.0110   503.947   200.000     8.311
 3604.6720     3.148    2.8833    0.0107   912.751   200.000     8.755
 3604.8244     6.838    2.9585    0.0108  1964.779   200.000     8.368
 3604.9768    11.164    2.9037    0.0098  1066.816   200.000     8.515
 3605.1292     4.169    3.0452    0.0079   849.856   200.000     8.034
 3605.2816     0.283    2.9543    0.0116  1957.144   200.000     8.079
 3605.4340     7.001    3.0596    0.0120  1149.470   200.000     8.635
 3605.5864     7.416    3.0021    0.0123   766.657   200.000     8.603
 3605.7388     3.802    2.9713    0.0105   756.382   200.000     8.939
 3605.8912     6.180    2.9277    0.0097  1422.219   200.000     9.038
 3606.0436     2.111    2.9803    0.0094   613.446   200.000     8.535
 3606.1960     6.016    3.0114    0.0101  1166.397   200.000     8.812
 3606.3484     5.029    2.9304    0.0084   567.027   200.000     8.157
 3606.5008     5.320    2.9680    0.0080  3350.596   200.000     8.445
 3606.6532     2.733    3.0825    0.0109  1254.612   200.000     9.216
 3606.8056     5.786    2.9736    0.0112  1304.342   200.000     8.566
 3606.9580     6.917    3.0022    0.0101   392.754   200.000     8.735
 3607.1104    -2.447    2.9877    0.0132  1436.738   200.000     7.589
 3607.2628     2.256    2.9190    0.0079   630.838   200.000     8.887
 3607.4152     4.603    2.9631    0.0112  2028.492   200.000     8.576
 3607.5676     0.949    2.9584    0.0098  1424.136   200.000     8.698
 3607.7200     1.792    2.8713    0.0102   987.270   200.000     8.217
 3607.8724     7.249    2.7811    0.0083  1564.617   200.000     7.998
 3608.0248     8.568    2.8978    0.0107  1269.603   200.000     8.123
 3608.1772     7.708    2.9761    0.0086   929.233   200.000     8.395
 3608.3296     8.530    2.8731    0.0112  1816.993   200.000     8.133
 3608.4820     3.917    2.9412    0.0116  1198.546   200.000     8.365
 3608.6344     2.556    2.9801    0.0107   854.765   200.000     8.927
 3608.7868     4.027    3.0080    0.0110  1025.412   200.000     8.115
 3608.9392    13.060    2.9232    0.0088  1439.046   200.000     8.853
 3609.0916     3.125    2.8726    0.0091   428.035   200.000     9.347
 3609.2440     6.449    3.0400    0.0094   661.930   200.000     8.081
