~VERSION INFORMATION
 VERS.                 2.0    : CWLS LOG ASCII STANDARD
 WRAP.                 NO     : ONE LINE PER DEPTH STEP
~WELL INFORMATION
 WELL.                 NorthField-E1    : Well name
 FLD .                 North Field         : Field
 CTRY.                 Qatar       : Country
 STRT.M                2800.0000 : START DEPTH
 STOP.M                4000.0000   : STOP DEPTH
 STEP.M                0.1524        : STEP
 NULL.                 -999.25          : NULL VALUE
 SRVC.                 SubsurfAI        : Service company
~CURVE INFORMATION
 DEPT.M                              : Depth
 GR  .GAPI                           : Gamma Ray
 RHOB.G/C3                           : Bulk Density
 NPHI.V/V                            : Neutron Porosity
 RT  .OHMM                           : True Resistivity
 DT  .US/F                           : Sonic
 CALI.IN                             : Caliper
~PARAMETER INFORMATION
 LAT .                 25.8654   : Latitude
 LON .                 51.5321   : Longitude
 DESC.                 North Field — Khuff carbonate, worlds largest gas field
~A  DEPT        GR        RHOB      NPHI      RT        DT        CALI
# ...
 3506.0692    22.021    2.6130    0.0762   145.627   200.000     8.212
 3506.2216    14.577    2.6425    0.0896    47.938   200.000     9.039
 3506.3740    13.758    2.6805    0.0806   167.792   200.000     8.826
 3506.5264    16.085    2.7085    0.0820   165.660   200.000     8.792
 3506.6788    15.461    2.7343    0.0749   171.511   200.000     8.688
 3506.8312    29.572    2.6177    0.0742   190.044   200.000     8.107
 3506.9836    15.571    2.7277    0.0722   230.103   200.000     8.163
 3507.1360    16.987    2.6785    0.0880   185.671   200.000     8.307
 3507.2884    12.930    2.6493    0.0814   151.133   200.000     8.449
 3507.4408    19.730    2.7657    0.0645   128.998   200.000     8.277
 3507.5932    17.176    2.6321    0.0721   222.826   200.000     8.066
 3507.7456    16.705    2.7621    0.0782   247.034   200.000     8.674
 3507.8980    17.318    2.7361    0.0888   152.831   200.000     8.677
 3508.0504    17.510    2.7242    0.0975    89.155   200.000     8.335
 3508.2028    17.913    2.6961    0.0805   174.280   200.000     8.443
 3508.3552    19.749    2.8235    0.0837   226.210   200.000     8.324
 3508.5076    23.691    2.7669    0.0788   296.805   200.000     8.202
 3508.6600    10.950    2.6128    0.0712   115.380   200.000     8.322
 3508.8124    21.674    2.6576    0.0980   382.115   200.000     8.964
 3508.9648    15.299    2.6867    0.0727   158.923   200.000     8.314
 3509.1172    20.838    2.7401    0.0897   156.966   200.000     8.512
 3509.2696    20.185    2.6129    0.1130   108.514   200.000     8.313
 3509.4220    11.260    2.6841    0.1085   176.364   200.000     9.361
 3509.5744    11.246    2.7204    0.0815   112.291   200.000     8.738
 3509.7268    17.550    2.6227    0.0772    74.972   200.000     7.994
 3509.8792    18.747    2.5359    0.0769    83.502   200.000     8.645
 3510.0316    17.225    2.6057    0.0707   164.268   200.000     8.108
 3510.1840    16.407    2.5894    0.0973   114.201   200.000     9.131
 3510.3364    19.297    2.6598    0.0852   381.616   200.000     8.449
 3510.4888    16.562    2.6817    0.0796   231.410   200.000     8.333
 3510.6412    19.250    2.6621    0.0976   221.596   200.000     8.297
 3510.7936    24.012    2.6688    0.0689   163.690   200.000     8.088
 3510.9460    17.660    2.7352    0.0805    82.957   200.000     8.509
 3511.0984    15.699    2.7312    0.0703   185.968   200.000     8.619
 3511.2508    25.339    2.6936    0.0980   105.958   200.000     8.360
 3511.4032    15.345    2.6996    0.0725   203.954   200.000     8.733
 3511.5556    14.944    2.6149    0.0665    93.364   200.000     8.275
 3511.7080    15.601    2.6313    0.0567   198.906   200.000     8.929
 3511.8604    21.864    2.6964    0.0784   134.005   200.000     8.226
 3512.0128    15.332    2.7124    0.0848   209.691   200.000     8.441
 3512.1652    24.083    2.6321    0.0425   336.547   200.000     8.869
 3512.3176    22.829    2.6617    0.0820   235.227   200.000     8.278
 3512.4700    19.454    2.7321    0.0845   372.103   200.000     8.750
 3512.6224    15.101    2.5222    0.0764   195.182   200.000     8.653
 3512.7748    17.754    2.6459    0.0803   148.909   200.000     8.068
 3512.9272    11.997    2.6585    0.0966   283.740   200.000     8.654
 3513.0796    16.036    2.5921    0.0817   206.223   200.000     7.593
 3513.2320    14.259    2.7675    0.0841    75.502   200.000     8.496
 3513.3844    12.170    2.6583    0.0835   217.769   200.000     8.607
 3513.5368    15.156    2.7234    0.0779   155.087   200.000     8.638
 3513.6892    18.842    2.6207    0.0890    79.831   200.000     8.558
 3513.8416    16.546    2.6045    0.0789    95.819   200.000     8.974
 3513.9940    22.364    2.6903    0.0973   182.081   200.000     8.746
 3514.1464    15.907    2.6789    0.0817   156.162   200.000     8.627
 3514.2988    17.086    2.6590    0.0764    96.730   200.000     8.820
 3514.4512    24.832    2.6329    0.1092    70.911   200.000     7.982
 3514.6036    19.594    2.7328    0.0945   246.459   200.000     9.060
 3514.7560    17.391    2.8284    0.0847   166.730   200.000     8.079
 3514.9084    20.278    2.6929    0.0825   175.246   200.000     8.520
 3515.0608    20.913    2.5911    0.0700   253.453   200.000     8.979
 3515.2132    15.445    2.6838    0.0788   247.618   200.000     7.850
 3515.3656    17.522    2.6332    0.0916    82.339   200.000     8.850
 3515.5180    19.248    2.6781    0.0810   302.791   200.000     8.364
 3515.6704    17.406    2.6037    0.0849   160.386   200.000     8.721
 3515.8228    21.093    2.6131    0.0733    98.966   200.000     8.763
 3515.9752    19.988    2.6666    0.0995   182.844   200.000     8.549
 3516.1276    15.936    2.7325    0.0745   163.282   200.000     8.387
 3516.2800    14.166    2.6620    0.0681   164.332   200.000     8.162
 3516.4324    14.562    2.7548    0.0725   146.678   200.000     8.606
 3516.5848    16.477    2.6367    0.0737   173.206   200.000     9.234
 3516.7372    13.405    2.6859    0.0720   145.044   200.000     8.353
 3516.8896    17.771    2.6603    0.0871   124.374   200.000     8.312
 3517.0420    12.558    2.6360    0.0734   468.937   200.000     9.189
 3517.1944    16.833    2.6497    0.0842   228.077   200.000     8.459
 3517.3468    21.204    2.6079    0.0921   229.031   200.000     8.826
 3517.4992    18.317    2.7083    0.0998   227.790   200.000     8.518
 3517.6516    15.851    2.6173    0.0706   143.024   200.000     8.502
 3517.8040    17.463    2.6054    0.0724   122.649   200.000     8.781
 3517.9564    20.433    2.7792    0.1070   278.614   200.000     8.405
 3518.1088    20.858    2.6862    0.0769   186.624   200.000     8.824
 3518.2612    15.026    2.7120    0.0986   269.921   200.000     8.257
 3518.4136    17.268    2.6898    0.1097    87.880   200.000     8.397
 3518.5660    16.870    2.6646    0.0772   105.664   200.000     8.758
 3518.7184    19.031    2.7511    0.0931    87.246   200.000     8.747
 3518.8708    20.703    2.5793    0.0697   163.419   200.000     8.693
 3519.0232    14.923    2.6377    0.0741   169.463   200.000     8.599
 3519.1756    18.569    2.7303    0.0830   288.300   200.000     8.594
 3519.3280    18.710    2.7176    0.0715   225.187   200.000     8.739
 3519.4804    18.113    2.7233    0.0940   305.169   200.000     8.393
 3519.6328    19.276    2.6934    0.0781    50.558   200.000     8.633
 3519.7852    12.395    2.6599    0.0844   114.549   200.000     8.409
 3519.9376    21.113    2.6436    0.0695   127.898   200.000     9.120
 3520.0900     3.671    2.9921    0.0105  1229.323   200.000     8.277
 3520.2424     3.931    2.9040    0.0081  1026.392   200.000     9.116
 3520.3948    10.827    2.9059    0.0122   708.425   200.000     8.412
 3520.5472     6.902    2.9835    0.0106   520.462   200.000     7.967
 3520.6996     6.690    3.0103    0.0111   871.482   200.000     8.212
 3520.8520     2.629    2.9745    0.0088   619.892   200.000     8.364
 3521.0044     3.002    2.9930    0.0124   367.194   200.000     8.301
 3521.1568     7.816    2.9174    0.0119   928.662   200.000     8.555
 3521.3092     0.247    2.8446    0.0098  1302.713   200.000     8.377
 3521.4616     5.763    2.9005    0.0089   560.305   200.000     8.749
 3521.6140     4.085    2.8950    0.0090  3771.470   200.000     9.164
 3521.7664     3.201    2.8822    0.0102  2667.005   200.000     8.865
 3521.9188     4.248    2.9130    0.0110   422.310   200.000     9.084
 3522.0712     5.050    2.8869    0.0096  2296.563   200.000     8.361
 3522.2236     7.008    3.0155    0.0108  1695.903   200.000     8.018
 3522.3760     5.074    2.9523    0.0113  1114.796   200.000     9.105
 3522.5284     5.348    3.0164    0.0076   679.688   200.000     8.991
 3522.6808     2.191    2.9968    0.0095   613.356   200.000     8.630
 3522.8332     1.426    2.9241    0.0081  2000.198   200.000     8.766
 3522.9856     4.827    2.9607    0.0092  1208.261   200.000     8.955
 3523.1380     5.551    3.0187    0.0092  1570.356   200.000     8.584
