~VERSION INFORMATION
 VERS.                 2.0    : CWLS LOG ASCII STANDARD
 WRAP.                 NO     : ONE LINE PER DEPTH STEP
~WELL INFORMATION
 WELL.                 NorthField-E1    : Well name
 FLD .                 North Field         : Field
 CTRY.                 Qatar       : Country
 STRT.M                2800.0000 : START DEPTH
 STOP.M                4000.0000   : STOP DEPTH
 STEP.M                0.1524        : STEP
 NULL.                 -999.25          : NULL VALUE
 SRVC.                 SubsurfAI        : Service company
~CURVE INFORMATION
 DEPT.M                              : Depth
 GR  .GAPI                           : Gamma Ray
 RHOB.G/C3                           : Bulk Density
 NPHI.V/V                            : Neutron Porosity
 RT  .OHMM                           : True Resistivity
 DT  .US/F                           : Sonic
 CALI.IN                             : Caliper
~PARAMETER INFORMATION
 LAT .                 25.8654   : Latitude
 LON .                 51.5321   : Longitude
 DESC.                 North Field — Khuff carbonate, worlds largest gas field
~A  DEPT        GR        RHOB      NPHI      RT        DT        CALI
# ...
 3902.1568    15.307    2.7400    0.0358   343.340   200.000     7.966
 3902.3092    12.658    2.7603    0.0327   355.739   200.000     8.877
 3902.4616     3.202    2.6750    0.0452   414.847   200.000     8.495
 3902.6140    12.311    2.7429    0.0325   688.047   200.000     9.241
 3902.7664     8.542    2.7731    0.0358   455.203   200.000     8.715
 3902.9188    10.465    2.7174    0.0413   659.012   200.000     8.118
 3903.0712    11.423    2.6985    0.0518   248.294   200.000     8.469
 3903.2236     8.419    2.7789    0.0397   980.043   200.000     8.648
 3903.3760    13.702    2.8121    0.0390   726.529   200.000     8.003
 3903.5284    13.865    2.7205    0.0420   522.319   200.000     8.671
 3903.6808    10.838    2.7072    0.0450   377.021   200.000     8.232
 3903.8332    13.068    2.6840    0.0433   767.877   200.000     8.709
 3903.9856    13.464    2.6224    0.0403   333.776   200.000     9.257
 3904.1380     9.503    2.7497    0.0379   176.527   200.000     8.285
 3904.2904     9.430    2.6982    0.0399   337.366   200.000     8.697
 3904.4428     4.679    2.6807    0.0339   564.541   200.000     8.334
 3904.5952     8.022    2.6802    0.0472   310.285   200.000     8.555
 3904.7476     8.536    2.6956    0.0403   460.135   200.000     8.666
 3904.9000     8.803    2.7378    0.0491   270.997   200.000     8.495
 3905.0524     8.659    2.6404    0.0329   450.119   200.000     8.486
 3905.2048     8.119    2.7360    0.0464   676.353   200.000     8.620
 3905.3572     6.572    2.7153    0.0386   149.875   200.000     9.120
 3905.5096    10.733    2.7182    0.0382   387.837   200.000     8.304
 3905.6620     7.749    2.6803    0.0408   441.698   200.000     8.664
 3905.8144    12.001    2.7451    0.0392   529.890   200.000     8.634
 3905.9668    11.547    2.6547    0.0339   245.144   200.000     8.653
 3906.1192     9.559    2.6671    0.0488   353.508   200.000     8.693
 3906.2716    10.751    2.7684    0.0444   907.399   200.000     7.664
 3906.4240    11.066    2.8010    0.0401   349.004   200.000     8.457
 3906.5764    12.181    2.7618    0.0425   579.545   200.000     8.807
 3906.7288    11.193    2.8255    0.0426   372.262   200.000     8.037
 3906.8812     6.247    2.7473    0.0358   810.986   200.000     9.458
 3907.0336    12.346    2.6797    0.0493   362.253   200.000     8.291
 3907.1860    10.316    2.6621    0.0492   313.069   200.000     8.972
 3907.3384     9.491    2.7974    0.0395   381.694   200.000     8.733
 3907.4908    13.244    2.6962    0.0395  1363.834   200.000     8.273
 3907.6432     5.733    2.7443    0.0391   341.561   200.000     8.891
 3907.7956     6.350    2.8160    0.0421   446.828   200.000     8.555
 3907.9480     6.588    2.7153    0.0514   784.352   200.000     8.615
 3908.1004    14.382    2.7540    0.0525   486.809   200.000     8.673
 3908.2528    13.054    2.7693    0.0427   378.644   200.000     8.559
 3908.4052     4.524    2.6933    0.0421   629.578   200.000     7.805
 3908.5576    11.783    2.6907    0.0447   549.291   200.000     8.900
 3908.7100    15.455    2.7681    0.0446   395.672   200.000     8.080
 3908.8624     7.223    2.7871    0.0379   535.300   200.000     8.118
 3909.0148     9.050    2.7784    0.0372  1166.199   200.000     7.941
 3909.1672     6.189    2.6735    0.0445   478.503   200.000     8.094
 3909.3196     7.707    2.7290    0.0458   500.581   200.000     8.720
 3909.4720    10.171    2.7640    0.0487   320.378   200.000     8.043
 3909.6244     8.432    2.7485    0.0459   251.507   200.000     7.942
 3909.7768    14.091    2.7645    0.0382  1628.736   200.000     8.111
 3909.9292     9.003    2.7373    0.0434   655.427   200.000     8.358
 3910.0816    13.132    2.7677    0.0450  1207.193   200.000     8.402
 3910.2340    11.261    2.7265    0.0306   695.961   200.000     8.519
 3910.3864    10.174    2.6959    0.0499   597.839   200.000     7.682
 3910.5388     4.592    2.6448    0.0410   492.114   200.000     8.365
 3910.6912    11.229    2.7755    0.0470   939.090   200.000     9.077
 3910.8436     8.083    2.7669    0.0379  1067.344   200.000     7.695
 3910.9960     4.368    2.8067    0.0426   352.461   200.000     8.350
 3911.1484    13.355    2.7529    0.0440   956.566   200.000     8.328
 3911.3008    17.515    2.7095    0.0389   738.435   200.000     8.914
 3911.4532    14.387    2.6470    0.0430    99.865   200.000     8.718
 3911.6056     8.224    2.7078    0.0417   661.915   200.000     9.343
 3911.7580    11.239    2.6659    0.0339   737.025   200.000     8.782
 3911.9104    13.535    2.7044    0.0407  1051.408   200.000     8.258
 3912.0628     7.867    2.7654    0.0352   370.811   200.000     8.742
 3912.2152    11.676    2.6284    0.0411   357.423   200.000     8.609
 3912.3676    12.553    2.8231    0.0324   820.661   200.000     8.715
 3912.5200     6.676    2.8288    0.0375   541.865   200.000     9.181
 3912.6724     6.959    2.7647    0.0357   196.270   200.000     8.714
 3912.8248    11.070    2.7162    0.0480   480.514   200.000     9.008
 3912.9772    10.148    2.7107    0.0404   725.585   200.000     8.738
 3913.1296    14.456    2.7167    0.0380   946.047   200.000     8.559
 3913.2820     8.716    2.7491    0.0419   590.507   200.000     9.391
 3913.4344     7.502    2.7002    0.0374   765.592   200.000     8.387
 3913.5868     5.107    2.7761    0.0486   341.718   200.000     8.036
 3913.7392    11.010    2.7168    0.0269   715.129   200.000     8.580
 3913.8916    11.692    2.6408    0.0466   415.499   200.000     8.608
 3914.0440     5.858    2.8413    0.0455   246.552   200.000     9.078
 3914.1964    10.483    2.7186    0.0402   591.644   200.000     8.537
 3914.3488     5.387    2.7210    0.0471   966.123   200.000     8.695
 3914.5012     9.586    2.7246    0.0321  1214.495   200.000     8.252
 3914.6536    11.456    2.7369    0.0495   295.412   200.000     8.929
 3914.8060    11.450    2.6619    0.0412   421.614   200.000     8.237
 3914.9584     4.148    2.7437    0.0491   899.820   200.000     7.827
 3915.1108     9.015    2.7010    0.0395   442.855   200.000     9.137
 3915.2632    11.053    2.7028    0.0354   313.513   200.000     7.747
 3915.4156    11.084    2.7555    0.0429   302.584   200.000     8.887
 3915.5680     9.705    2.8004    0.0462   686.945   200.000     8.115
 3915.7204    11.677    2.7120    0.0339  2395.299   200.000     8.540
 3915.8728     6.062    2.8025    0.0495   509.473   200.000     8.439
 3916.0252     6.133    2.7371    0.0424   611.171   200.000     8.808
 3916.1776     9.715    2.6802    0.0409   393.967   200.000     8.266
 3916.3300    10.591    2.7525    0.0360   355.897   200.000     7.583
 3916.4824     9.798    2.7046    0.0388   208.240   200.000     8.712
 3916.6348    10.487    2.8370    0.0385   660.287   200.000     8.744
 3916.7872    11.511    2.8258    0.0347   608.831   200.000     8.889
 3916.9396    11.675    2.7790    0.0319   266.396   200.000     8.984
 3917.0920     9.853    2.6733    0.0502   290.935   200.000     8.985
 3917.2444     9.228    2.8236    0.0446   459.371   200.000     8.391
 3917.3968    10.650    2.7441    0.0342   311.144   200.000     8.175
 3917.5492     9.255    2.6068    0.0344   710.999   200.000     7.947
 3917.7016    13.207    2.7627    0.0458   611.343   200.000     8.587
 3917.8540     9.686    2.8034    0.0344   468.193   200.000     8.420
 3918.0064     7.302    2.7267    0.0381   407.450   200.000     8.701
 3918.1588     8.924    2.7505    0.0339   264.267   200.000     8.316
 3918.3112     0.636    2.7826    0.0474   584.952   200.000     8.732
 3918.4636    14.291    2.7676    0.0425   390.840   200.000     8.546
 3918.6160    11.783    2.7836    0.0394   133.942   200.000     8.025
 3918.7684     9.647    2.7144    0.0439   393.126   200.000     9.428
 3918.9208     8.222    2.7658    0.0403   343.819   200.000     8.894
 3919.0732     6.604    2.6891    0.0463   374.017   200.000     8.150
 3919.2256    11.638    2.8074    0.0409   541.409   200.000     8.278
