~VERSION INFORMATION
 VERS.                 2.0    : CWLS LOG ASCII STANDARD
 WRAP.                 NO     : ONE LINE PER DEPTH STEP
~WELL INFORMATION
 WELL.                 NorthField-E1    : Well name
 FLD .                 North Field         : Field
 CTRY.                 Qatar       : Country
 STRT.M                2800.0000 : START DEPTH
 STOP.M                4000.0000   : STOP DEPTH
 STEP.M                0.1524        : STEP
 NULL.                 -999.25          : NULL VALUE
 SRVC.                 SubsurfAI        : Service company
~CURVE INFORMATION
 DEPT.M                              : Depth
 GR  .GAPI                           : Gamma Ray
 RHOB.G/C3                           : Bulk Density
 NPHI.V/V                            : Neutron Porosity
 RT  .OHMM                           : True Resistivity
 DT  .US/F                           : Sonic
 CALI.IN                             : Caliper
~PARAMETER INFORMATION
 LAT .                 25.8654   : Latitude
 LON .                 51.5321   : Longitude
 DESC.                 North Field — Khuff carbonate, worlds largest gas field
~A  DEPT        GR        RHOB      NPHI      RT        DT        CALI
# ...
 3833.2720     5.752    2.6996    0.0517   939.499   200.000     8.163
 3833.4244     8.927    2.7237    0.0369  1210.403   200.000     9.434
 3833.5768     9.962    2.7602    0.0344   366.489   200.000     8.656
 3833.7292     9.718    2.6418    0.0446   474.014   200.000     8.378
 3833.8816     2.145    2.7528    0.0307   421.894   200.000     8.607
 3834.0340    11.159    2.7484    0.0329   191.921   200.000     8.137
 3834.1864    12.866    2.6739    0.0460  1216.538   200.000     8.959
 3834.3388     8.413    2.7113    0.0420   487.714   200.000     8.634
 3834.4912     9.217    2.7772    0.0380  1053.812   200.000     8.738
 3834.6436     8.539    2.7617    0.0377   453.503   200.000     7.918
 3834.7960    12.969    2.7888    0.0334   234.355   200.000     8.668
 3834.9484     5.248    2.6469    0.0284   690.873   200.000     9.349
 3835.1008    10.599    2.6716    0.0354   210.842   200.000     8.644
 3835.2532     7.943    2.8191    0.0373   890.064   200.000     8.396
 3835.4056     8.592    2.6500    0.0385   338.067   200.000     8.551
 3835.5580    10.498    2.7235    0.0384   757.212   200.000     8.870
 3835.7104     7.554    2.7237    0.0435   464.766   200.000     8.366
 3835.8628     9.602    2.7892    0.0414   558.723   200.000     8.705
 3836.0152     4.168    2.7054    0.0421  1647.086   200.000     8.724
 3836.1676     9.814    2.7949    0.0388   728.990   200.000     7.620
 3836.3200    10.743    2.7119    0.0356   466.333   200.000     8.655
 3836.4724     9.462    2.7736    0.0416   571.660   200.000     8.225
 3836.6248     9.321    2.8430    0.0436   249.761   200.000     8.270
 3836.7772    13.915    2.7628    0.0389   334.652   200.000     8.604
 3836.9296    12.967    2.7669    0.0304   235.612   200.000     8.839
 3837.0820    10.829    2.7962    0.0402   260.231   200.000     8.383
 3837.2344    12.075    2.7791    0.0393   511.953   200.000     8.919
 3837.3868    13.088    2.7539    0.0301   652.313   200.000     8.683
 3837.5392    12.830    2.7463    0.0386   674.766   200.000     8.498
 3837.6916    10.404    2.7561    0.0463   613.987   200.000     8.232
 3837.8440     8.649    2.8032    0.0350   513.508   200.000     8.848
 3837.9964    12.438    2.8111    0.0444   674.524   200.000     8.738
 3838.1488     6.516    2.7326    0.0459   639.112   200.000     9.077
 3838.3012    13.477    2.6689    0.0376   332.147   200.000     7.849
 3838.4536     6.436    2.6754    0.0354   190.834   200.000     8.808
 3838.6060     8.401    2.7879    0.0333   748.781   200.000     8.308
 3838.7584     9.517    2.6836    0.0388   188.342   200.000     8.529
 3838.9108    12.395    2.7462    0.0348   603.595   200.000     8.546
 3839.0632     8.313    2.7129    0.0408   430.666   200.000     8.845
 3839.2156    12.222    2.6918    0.0437  1056.323   200.000     8.145
 3839.3680     7.875    2.6881    0.0360   867.948   200.000     8.434
 3839.5204     6.006    2.6952    0.0326   588.852   200.000     7.848
 3839.6728    12.507    2.7546    0.0329   364.509   200.000     8.078
 3839.8252     9.822    2.6749    0.0337   728.130   200.000     8.083
 3839.9776    14.547    2.8356    0.0389   433.067   200.000     7.946
 3840.1300    11.850    2.8029    0.0435   390.356   200.000     8.458
 3840.2824     7.028    2.7376    0.0338   261.783   200.000     8.210
 3840.4348     6.724    2.7884    0.0395   366.886   200.000     8.258
 3840.5872    11.191    2.7013    0.0315   432.265   200.000     8.282
 3840.7396    11.140    2.7470    0.0468   635.423   200.000     7.771
 3840.8920     6.876    2.7203    0.0311   320.192   200.000     8.668
 3841.0444    13.233    2.6876    0.0399   214.047   200.000     9.308
 3841.1968    11.997    2.6506    0.0423   438.744   200.000     8.350
 3841.3492     8.905    2.7511    0.0418   872.675   200.000     8.944
 3841.5016     7.777    2.7908    0.0490   508.792   200.000     8.641
 3841.6540    13.444    2.6978    0.0411   670.225   200.000     7.834
 3841.8064    10.692    2.7069    0.0490   326.044   200.000     8.482
 3841.9588    10.687    2.7806    0.0360   430.038   200.000     7.872
 3842.1112     4.895    2.7231    0.0418   205.015   200.000     8.598
 3842.2636     8.121    2.7833    0.0359   473.415   200.000     8.991
 3842.4160     7.371    2.8191    0.0321   452.259   200.000     8.471
 3842.5684     4.362    2.6825    0.0393  1222.225   200.000     8.411
 3842.7208     8.895    2.7626    0.0387   632.511   200.000     8.288
 3842.8732    10.126    2.6586    0.0461   854.649   200.000     8.480
 3843.0256    16.006    2.7087    0.0339   349.847   200.000     8.261
 3843.1780    10.822    2.6481    0.0342   667.982   200.000     8.491
 3843.3304     4.841    2.7566    0.0340   392.920   200.000     8.481
 3843.4828    10.055    2.7826    0.0279   265.490   200.000     8.115
 3843.6352     7.807    2.7638    0.0391   350.585   200.000     8.832
 3843.7876     4.436    2.7276    0.0472  2246.298   200.000     8.749
 3843.9400     7.298    2.7298    0.0388  1587.124   200.000     8.258
 3844.0924    10.267    2.8111    0.0368   327.518   200.000     9.227
 3844.2448    13.399    2.7879    0.0379   832.910   200.000     8.710
 3844.3972    11.541    2.7172    0.0458   392.300   200.000     8.230
 3844.5496    10.534    2.6542    0.0390   523.691   200.000     8.969
 3844.7020    10.092    2.6403    0.0355   726.573   200.000     8.174
 3844.8544     8.587    2.7041    0.0385   759.467   200.000     9.406
 3845.0068     3.886    2.8136    0.0464   497.843   200.000     8.025
 3845.1592     9.888    2.6416    0.0418   370.257   200.000     8.200
 3845.3116    13.598    2.7031    0.0390   540.351   200.000     8.813
 3845.4640    12.054    2.6506    0.0321  1045.372   200.000     8.067
 3845.6164    12.604    2.6801    0.0448   677.159   200.000     8.397
 3845.7688    10.021    2.7554    0.0468   504.379   200.000     9.680
 3845.9212     6.940    2.6974    0.0475   835.207   200.000     8.332
 3846.0736    10.785    2.7207    0.0365   405.240   200.000     8.538
 3846.2260     9.835    2.7368    0.0454   596.475   200.000     8.182
 3846.3784     8.304    2.6841    0.0419   475.930   200.000     8.262
 3846.5308     9.594    2.7393    0.0366   613.475   200.000     8.701
 3846.6832     6.952    2.7310    0.0438   521.923   200.000     8.329
 3846.8356     8.209    2.6716    0.0468  1337.901   200.000     7.977
 3846.9880    11.811    2.7213    0.0368   534.618   200.000     7.643
 3847.1404    11.551    2.7032    0.0365   234.295   200.000     8.728
 3847.2928    10.227    2.8175    0.0507   600.221   200.000     8.814
 3847.4452     9.677    2.7551    0.0460   730.409   200.000     8.168
 3847.5976    12.263    2.7160    0.0251  1207.048   200.000     8.337
 3847.7500    11.992    2.7782    0.0344   340.734   200.000     8.470
 3847.9024     9.708    2.8458    0.0479   532.950   200.000     8.844
 3848.0548    13.038    2.6716    0.0393   465.511   200.000     8.244
 3848.2072    12.005    2.7122    0.0440  1335.602   200.000     8.986
 3848.3596     5.318    2.7233    0.0441   400.365   200.000     8.332
 3848.5120    11.133    2.8235    0.0379   601.216   200.000     7.942
 3848.6644     7.849    2.7295    0.0438   867.734   200.000     8.515
 3848.8168    12.700    2.6989    0.0299   329.303   200.000     7.594
 3848.9692     6.674    2.6701    0.0420   898.020   200.000     8.871
 3849.1216    10.393    2.7097    0.0484   285.145   200.000     9.178
 3849.2740     9.785    2.7428    0.0385   994.040   200.000     8.027
 3849.4264     6.921    2.7474    0.0313  1191.766   200.000     8.732
 3849.5788    11.052    2.7267    0.0413   257.926   200.000     8.857
 3849.7312     8.015    2.6397    0.0378   745.818   200.000     8.654
 3849.8836     8.173    2.7893    0.0460   708.061   200.000     8.950
 3850.0360    13.225    2.7143    0.0431  1167.944   200.000     8.906
 3850.1884     8.176    2.7921    0.0464   326.469   200.000     8.647
 3850.3408     6.444    2.7880    0.0455   815.124   200.000     8.350
