~VERSION INFORMATION
 VERS.                 2.0    : CWLS LOG ASCII STANDARD
 WRAP.                 NO     : ONE LINE PER DEPTH STEP
~WELL INFORMATION
 WELL.                 Ghawar-D1    : Well name
 FLD .                 Ghawar         : Field
 CTRY.                 Saudi Arabia       : Country
 STRT.M                1600.0000 : START DEPTH
 STOP.M                2800.0000   : STOP DEPTH
 STEP.M                0.1524        : STEP
 NULL.                 -999.25          : NULL VALUE
 SRVC.                 SubsurfAI        : Service company
~CURVE INFORMATION
 DEPT.M                              : Depth
 GR  .GAPI                           : Gamma Ray
 RHOB.G/C3                           : Bulk Density
 NPHI.V/V                            : Neutron Porosity
 RT  .OHMM                           : True Resistivity
 DT  .US/F                           : Sonic
 CALI.IN                             : Caliper
~PARAMETER INFORMATION
 LAT .                 25.1234   : Latitude
 LON .                 49.3421   : Longitude
 DESC.                 Ghawar — Arab-D carbonate reservoir, world largest oil field
~A  DEPT        GR        RHOB      NPHI      RT        DT        CALI
# ...
 2237.1844    11.400    2.8996    0.0000   257.579   200.000     7.668
 2237.3368     8.895    2.9535    0.0000   305.336   200.000     8.723
 2237.4892     1.048    2.9967    0.0000  1284.931   200.000     8.260
 2237.6416    10.461    2.9258    0.0000   804.329   200.000     8.196
 2237.7940     5.848    2.9070    0.0000   236.406   200.000     8.023
 2237.9464    10.462    2.8534    0.0000   746.838   200.000     8.143
 2238.0988     3.351    2.9006    0.0000   969.001   200.000     8.628
 2238.2512     5.498    2.9040    0.0000  1234.213   200.000     8.581
 2238.4036     3.104    2.9671    0.0000   545.976   200.000     8.486
 2238.5560     5.801    2.9493    0.0000   716.242   200.000     8.676
 2238.7084    10.541    3.0322    0.0000  1293.223   200.000     8.712
 2238.8608     8.429    2.9410    0.0000   580.541   200.000     7.402
 2239.0132     7.257    2.9207    0.0000  1209.134   200.000     8.645
 2239.1656     3.353    2.9480    0.0000  1282.097   200.000     8.866
 2239.3180     5.436    2.9302    0.0000   859.000   200.000     8.295
 2239.4704     5.048    2.9514    0.0000   539.059   200.000     8.698
 2239.6228     2.085    2.9811    0.0000   679.505   200.000     8.356
 2239.7752    10.583    2.9224    0.0000  1568.371   200.000     8.467
 2239.9276     8.185    2.9522    0.0000  1161.247   200.000     8.424
 2240.0800    12.440    2.9909    0.0000   622.524   200.000     8.591
 2240.2324     2.625    2.8717    0.0000   423.440   200.000     8.966
 2240.3848     1.583    2.9728    0.0000   454.968   200.000     9.098
 2240.5372     2.707    2.9033    0.0000  1803.049   200.000     8.358
 2240.6896     4.585    3.0053    0.0000  1542.320   200.000     8.745
 2240.8420    -0.542    2.8699    0.0000  2708.489   200.000     8.438
 2240.9944     7.504    2.9913    0.0000   199.045   200.000     8.945
 2241.1468     5.829    2.9513    0.0000   687.975   200.000     8.403
 2241.2992     7.121    2.9473    0.0000  2707.616   200.000     8.761
 2241.4516     3.164    2.9915    0.0000  1033.020   200.000     8.410
 2241.6040     4.741    3.0212    0.0000  1012.185   200.000     8.161
 2241.7564     3.622    3.0262    0.0000  1800.578   200.000     8.007
 2241.9088     4.233    2.8995    0.0000  1772.008   200.000     9.331
 2242.0612     4.797    3.0048    0.0000  2039.565   200.000     8.036
 2242.2136     6.289    2.8690    0.0000   609.334   200.000     8.589
 2242.3660     4.752    2.9285    0.0000   562.564   200.000     8.882
 2242.5184     5.531    2.9932    0.0000  1415.016   200.000     8.883
 2242.6708     9.501    2.9394    0.0000   487.061   200.000     8.505
 2242.8232    10.463    2.8603    0.0000  1426.890   200.000     8.235
 2242.9756     8.818    2.9050    0.0000   899.985   200.000     8.199
 2243.1280     8.297    2.8651    0.0000   689.862   200.000     8.757
 2243.2804     3.849    2.9499    0.0000   573.854   200.000     8.889
 2243.4328     3.481    2.9696    0.0000  1000.850   200.000     8.897
 2243.5852     4.456    2.9294    0.0000  1959.143   200.000     8.594
 2243.7376     3.280    2.9220    0.0000  1024.201   200.000     8.026
 2243.8900     7.791    2.9010    0.0000   173.068   200.000     9.072
 2244.0424     8.269    2.9600    0.0000   899.077   200.000     8.759
 2244.1948     2.108    3.0147    0.0000   776.378   200.000     9.048
 2244.3472     6.246    2.9261    0.0000  1007.719   200.000     7.971
 2244.4996     6.240    3.1000    0.0000   436.059   200.000     8.664
 2244.6520     0.232    3.0279    0.0000   909.608   200.000     8.498
 2244.8044     9.058    3.0484    0.0000  1015.560   200.000     8.169
 2244.9568    10.218    2.9954    0.0000  1089.718   200.000     8.720
 2245.1092     2.986    2.9739    0.0000   625.428   200.000     9.099
 2245.2616     6.961    2.9016    0.0000  1334.596   200.000     7.898
 2245.4140     8.556    2.9755    0.0000  2438.443   200.000     8.555
 2245.5664    -0.537    2.8639    0.0000   568.929   200.000     9.006
 2245.7188     7.766    2.9584    0.0000  2644.635   200.000     8.831
 2245.8712     6.445    3.0343    0.0000   555.023   200.000     8.548
 2246.0236     4.738    2.9419    0.0000   573.993   200.000     8.448
 2246.1760     5.975    2.9786    0.0000   451.418   200.000     8.776
 2246.3284     6.584    2.9734    0.0000   536.150   200.000     7.468
 2246.4808     1.953    2.9745    0.0000   429.497   200.000     7.658
 2246.6332     5.802    3.0491    0.0000  1182.643   200.000     8.212
 2246.7856     3.678    2.9642    0.0000   693.652   200.000     8.438
 2246.9380     8.016    2.8925    0.0000  1742.167   200.000     9.064
 2247.0904    12.896    3.0062    0.0000   825.617   200.000     8.776
 2247.2428     3.464    2.9713    0.0000  1488.024   200.000     7.562
 2247.3952     6.625    2.8634    0.0000   301.224   200.000     8.290
 2247.5476     4.791    2.9785    0.0000   882.623   200.000     7.890
 2247.7000     4.067    3.0186    0.0000  2045.488   200.000     7.803
 2247.8524     6.644    3.0276    0.0000  1275.349   200.000     8.733
 2248.0048     7.670    2.8835    0.0000  1408.357   200.000     9.091
 2248.1572     3.858    2.9699    0.0000   599.402   200.000     8.731
 2248.3096     3.108    2.8551    0.0000   850.298   200.000     8.301
 2248.4620     3.844    2.9933    0.0000   683.307   200.000     8.922
 2248.6144     3.168    3.0168    0.0000  1263.512   200.000     8.006
 2248.7668     0.763    2.9112    0.0000   946.931   200.000     8.081
 2248.9192     6.326    2.9744    0.0000  2815.576   200.000     8.799
 2249.0716     6.809    2.8642    0.0000  1277.958   200.000     8.037
 2249.2240     6.769    2.8448    0.0000   608.963   200.000     8.827
 2249.3764     0.027    3.0375    0.0000   416.876   200.000     8.238
 2249.5288    -1.839    2.8236    0.0000  1813.785   200.000     9.280
 2249.6812     7.127    2.9956    0.0000  1234.691   200.000     8.119
 2249.8336     9.847    2.8524    0.0000   789.769   200.000     7.930
 2249.9860     1.445    2.9152    0.0000   508.877   200.000     8.762
 2250.1384    11.270    3.0392    0.0000   743.666   200.000     8.679
 2250.2908     6.621    3.0029    0.0000   640.682   200.000     8.622
 2250.4432     5.339    2.9828    0.0000   799.375   200.000     8.610
 2250.5956     8.657    2.9208    0.0000   771.371   200.000     8.128
 2250.7480     6.818    2.9443    0.0000  1970.036   200.000     8.262
 2250.9004     8.452    2.9144    0.0000  1225.592   200.000     8.558
 2251.0528     6.854    2.9007    0.0000  1876.729   200.000     8.750
 2251.2052     4.846    3.0339    0.0000  1066.494   200.000     8.694
 2251.3576     7.483    2.9341    0.0000  1414.013   200.000     8.209
 2251.5100     1.701    2.9149    0.0000   898.186   200.000     8.902
 2251.6624     1.797    2.8802    0.0000   616.030   200.000     7.995
 2251.8148     8.139    3.0159    0.0000  1260.121   200.000     8.372
 2251.9672     4.806    3.0114    0.0000  2634.988   200.000     8.379
 2252.1196     6.876    3.0354    0.0000   921.893   200.000     8.403
 2252.2720     2.403    2.8738    0.0000  1801.429   200.000     7.916
 2252.4244     6.240    2.9377    0.0000  2415.264   200.000     7.867
 2252.5768     7.919    2.9031    0.0000  1152.590   200.000     8.498
 2252.7292     2.678    3.0484    0.0000  1938.993   200.000     8.828
 2252.8816     8.043    2.9258    0.0000   823.358   200.000     7.508
 2253.0340     7.406    3.0590    0.0000   867.580   200.000     8.655
 2253.1864    11.390    2.8159    0.0000   592.445   200.000     8.627
 2253.3388     7.610    2.8593    0.0000   888.397   200.000     8.986
 2253.4912     4.991    3.1000    0.0000   868.458   200.000     8.804
 2253.6436     8.205    2.9331    0.0000  1519.739   200.000     8.616
 2253.7960     7.127    2.9978    0.0000  1639.817   200.000     8.926
 2253.9484     3.935    2.9971    0.0000   593.773   200.000     8.464
 2254.1008     4.051    3.0116    0.0000  1813.035   200.000     8.393
 2254.2532    10.080    2.8997    0.0000   567.548   200.000     9.622
