~VERSION INFORMATION
 VERS.                 2.0    : CWLS LOG ASCII STANDARD
 WRAP.                 NO     : ONE LINE PER DEPTH STEP
~WELL INFORMATION
 WELL.                 Ghawar-D1    : Well name
 FLD .                 Ghawar         : Field
 CTRY.                 Saudi Arabia       : Country
 STRT.M                1600.0000 : START DEPTH
 STOP.M                2800.0000   : STOP DEPTH
 STEP.M                0.1524        : STEP
 NULL.                 -999.25          : NULL VALUE
 SRVC.                 SubsurfAI        : Service company
~CURVE INFORMATION
 DEPT.M                              : Depth
 GR  .GAPI                           : Gamma Ray
 RHOB.G/C3                           : Bulk Density
 NPHI.V/V                            : Neutron Porosity
 RT  .OHMM                           : True Resistivity
 DT  .US/F                           : Sonic
 CALI.IN                             : Caliper
~PARAMETER INFORMATION
 LAT .                 25.1234   : Latitude
 LON .                 49.3421   : Longitude
 DESC.                 Ghawar — Arab-D carbonate reservoir, world largest oil field
~A  DEPT        GR        RHOB      NPHI      RT        DT        CALI
# ...
 2392.1752    13.898    2.7042    0.0969   128.677   200.000     8.589
 2392.3276    10.011    2.5425    0.1134    83.105   200.000     9.484
 2392.4800    11.502    2.6062    0.0959   145.795   200.000     8.138
 2392.6324    17.104    2.6161    0.1020    44.534   200.000     8.492
 2392.7848    11.372    2.5795    0.1057   113.489   200.000     8.062
 2392.9372    11.136    2.6046    0.0982   212.370   200.000     9.066
 2393.0896    12.455    2.5593    0.0946    54.682   200.000     8.116
 2393.2420    12.595    2.5938    0.1137    77.688   200.000     8.813
 2393.3944    13.992    2.7788    0.1273   130.249   200.000     8.461
 2393.5468    14.373    2.6995    0.1125    87.814   200.000     8.410
 2393.6992    10.201    2.5624    0.0964   209.791   200.000     8.717
 2393.8516    17.318    2.6271    0.0986   169.981   200.000     8.712
 2394.0040    13.088    2.6537    0.1149   109.875   200.000     7.836
 2394.1564    13.979    2.6935    0.1182   117.623   200.000     8.577
 2394.3088    15.553    2.6522    0.1227   132.072   200.000     8.818
 2394.4612    14.562    2.7425    0.1429   244.592   200.000     8.246
 2394.6136    19.515    2.6135    0.0920    47.841   200.000     8.057
 2394.7660    19.650    2.6566    0.1062    27.346   200.000     9.516
 2394.9184    10.736    2.6386    0.0891   143.228   200.000     8.403
 2395.0708    16.829    2.7753    0.0980   172.048   200.000     7.791
 2395.2232    14.823    2.5440    0.0955    73.511   200.000     8.742
 2395.3756    18.573    2.6823    0.0951    86.116   200.000     8.270
 2395.5280    16.111    2.5943    0.0913    92.986   200.000     8.972
 2395.6804    12.676    2.6033    0.1105    94.591   200.000     8.063
 2395.8328    14.601    2.5907    0.0979    97.313   200.000     8.012
 2395.9852    12.571    2.6585    0.1084    98.898   200.000     8.480
 2396.1376    16.639    2.5956    0.1277    83.111   200.000     8.156
 2396.2900    15.481    2.6274    0.1191   116.537   200.000     8.704
 2396.4424    17.815    2.6066    0.1206   112.099   200.000     8.040
 2396.5948    22.289    2.6113    0.0882    97.990   200.000     8.687
 2396.7472    10.697    2.6769    0.1577   173.563   200.000     8.639
 2396.8996    12.134    2.6495    0.1179   146.236   200.000     8.502
 2397.0520    18.173    2.6407    0.1273   156.636   200.000     7.985
 2397.2044    14.473    2.6828    0.1382   141.777   200.000     9.265
 2397.3568    13.890    2.6661    0.1046   223.663   200.000     8.879
 2397.5092    21.479    2.5880    0.1106    95.631   200.000     7.939
 2397.6616    10.145    2.7157    0.1222   265.818   200.000     8.418
 2397.8140    17.756    2.5660    0.1140    80.118   200.000     7.922
 2397.9664    14.656    2.5977    0.1314    92.315   200.000     8.581
 2398.1188    14.838    2.5696    0.1243   213.572   200.000     8.447
 2398.2712    16.105    2.6714    0.1081    25.546   200.000     7.895
 2398.4236     9.544    2.5991    0.1052    57.288   200.000     8.191
 2398.5760    16.864    2.7098    0.1381   114.166   200.000     8.374
 2398.7284    17.208    2.5778    0.1422    83.365   200.000     8.416
 2398.8808    17.377    2.6409    0.1317   176.587   200.000     8.942
 2399.0332     7.661    2.6287    0.1229    98.168   200.000     8.148
 2399.1856    11.371    2.6763    0.0996   154.529   200.000     7.789
 2399.3380    23.704    2.5713    0.1219    81.806   200.000     8.462
 2399.4904    13.146    2.5926    0.1192    87.953   200.000     8.809
 2399.6428    11.711    2.7044    0.1274    98.520   200.000     8.891
 2399.7952    19.233    2.6159    0.1138    93.184   200.000     8.493
 2399.9476    11.493    2.6162    0.1126   102.528   200.000     7.954
 2400.1000    16.222    2.5757    0.1112    81.300   200.000     8.689
 2400.2524    11.774    2.6405    0.1218    41.217   200.000     7.991
 2400.4048    17.576    2.6565    0.0949    40.799   200.000     8.432
 2400.5572    10.347    2.7489    0.1067   155.796   200.000     9.061
 2400.7096    11.942    2.5913    0.1077    85.873   200.000     8.875
 2400.8620    15.251    2.6204    0.0900   142.641   200.000     8.908
 2401.0144    12.609    2.6706    0.1231   139.947   200.000     8.511
 2401.1668     9.829    2.6670    0.1184   140.988   200.000     8.533
 2401.3192    14.349    2.5363    0.1052    68.945   200.000     8.604
 2401.4716    15.743    2.6162    0.1048   264.085   200.000     8.679
 2401.6240    11.623    2.6420    0.1247    69.159   200.000     9.397
 2401.7764    21.396    2.6129    0.1127    62.592   200.000     8.823
 2401.9288    13.852    2.6686    0.1302   206.087   200.000     8.471
 2402.0812    13.581    2.6638    0.1097   145.755   200.000     8.556
 2402.2336    11.646    2.6264    0.1212   418.668   200.000     9.743
 2402.3860    12.418    2.6279    0.0844    93.970   200.000     8.731
 2402.5384    17.518    2.6160    0.1279   183.941   200.000     9.197
 2402.6908    16.107    2.6965    0.1402    75.291   200.000     8.231
 2402.8432    20.018    2.6572    0.1195   119.058   200.000     8.216
 2402.9956    13.576    2.7416    0.0848   188.610   200.000     8.466
 2403.1480    15.017    2.6899    0.0969    72.703   200.000     8.558
 2403.3004    16.444    2.6610    0.1005    87.938   200.000     8.661
 2403.4528    12.680    2.6387    0.0894   133.832   200.000     8.370
 2403.6052     9.000    2.7375    0.1218   199.144   200.000     8.446
 2403.7576    18.820    2.6457    0.1128    80.049   200.000     7.773
 2403.9100    14.064    2.6347    0.0772    74.918   200.000     8.330
 2404.0624    20.917    2.6430    0.0871    68.130   200.000     8.627
 2404.2148    11.645    2.6273    0.1136    64.279   200.000     9.137
 2404.3672    17.174    2.6387    0.1271    84.820   200.000     8.561
 2404.5196    16.245    2.6133    0.1470   100.365   200.000     8.813
 2404.6720    17.482    2.6472    0.0975   267.273   200.000     8.836
 2404.8244    10.766    2.6417    0.1117   274.149   200.000     8.570
 2404.9768    12.260    2.6227    0.1466    81.582   200.000     9.282
 2405.1292    12.622    2.6623    0.1114   130.071   200.000     7.674
 2405.2816    11.533    2.6505    0.1069   139.728   200.000     8.475
 2405.4340    11.514    2.6686    0.0914   188.068   200.000     8.806
 2405.5864    17.479    2.7046    0.0610   120.406   200.000     9.087
 2405.7388    16.365    2.7071    0.1378    50.237   200.000     7.881
 2405.8912    14.168    2.6628    0.1222    34.219   200.000     8.553
 2406.0436    22.943    2.6421    0.1227   148.694   200.000     8.495
 2406.1960    16.662    2.6684    0.1273    30.527   200.000     8.686
 2406.3484    12.408    2.5739    0.0964   105.173   200.000     8.378
 2406.5008    14.511    2.6874    0.0965    66.936   200.000     8.941
 2406.6532    14.317    2.6620    0.1093   223.719   200.000     8.010
 2406.8056     9.504    2.6064    0.1144   293.150   200.000     8.726
 2406.9580    10.633    2.6587    0.0673   123.564   200.000     8.923
 2407.1104    18.721    2.6940    0.1041    91.850   200.000     8.521
 2407.2628    11.866    2.6004    0.1115    88.876   200.000     8.450
 2407.4152    15.713    2.6936    0.1146    70.615   200.000     8.805
 2407.5676    15.470    2.6811    0.0972   103.797   200.000     8.552
 2407.7200    12.293    2.6985    0.1362   216.361   200.000     8.821
 2407.8724    15.834    2.6108    0.1223    68.312   200.000     8.671
 2408.0248    17.506    2.6878    0.1099    45.341   200.000     8.216
 2408.1772    12.830    2.6605    0.1195   121.416   200.000     8.577
 2408.3296    10.982    2.6114    0.1344   111.866   200.000     8.571
 2408.4820    13.464    2.6758    0.1377   140.563   200.000     8.922
 2408.6344    15.103    2.6009    0.1314   137.288   200.000     8.749
 2408.7868    16.582    2.6783    0.0816    58.452   200.000     8.438
 2408.9392    14.297    2.6333    0.1099   157.057   200.000     8.546
 2409.0916     7.240    2.7016    0.0866   126.532   200.000     8.251
 2409.2440    11.657    2.6764    0.1193   125.034   200.000     8.828
