~VERSION INFORMATION
 VERS.                 2.0    : CWLS LOG ASCII STANDARD
 WRAP.                 NO     : ONE LINE PER DEPTH STEP
~WELL INFORMATION
 WELL.                 Ghawar-D1    : Well name
 FLD .                 Ghawar         : Field
 CTRY.                 Saudi Arabia       : Country
 STRT.M                1600.0000 : START DEPTH
 STOP.M                2800.0000   : STOP DEPTH
 STEP.M                0.1524        : STEP
 NULL.                 -999.25          : NULL VALUE
 SRVC.                 SubsurfAI        : Service company
~CURVE INFORMATION
 DEPT.M                              : Depth
 GR  .GAPI                           : Gamma Ray
 RHOB.G/C3                           : Bulk Density
 NPHI.V/V                            : Neutron Porosity
 RT  .OHMM                           : True Resistivity
 DT  .US/F                           : Sonic
 CALI.IN                             : Caliper
~PARAMETER INFORMATION
 LAT .                 25.1234   : Latitude
 LON .                 49.3421   : Longitude
 DESC.                 Ghawar — Arab-D carbonate reservoir, world largest oil field
~A  DEPT        GR        RHOB      NPHI      RT        DT        CALI
# ...
 2633.2720    11.718    2.5976    0.0474   111.067   200.000     8.449
 2633.4244    10.058    2.7159    0.0657   158.695   200.000     8.698
 2633.5768     9.808    2.6549    0.0671   139.599   200.000     8.227
 2633.7292    10.288    2.7000    0.0558   350.557   200.000     8.385
 2633.8816     1.032    2.6921    0.0497   594.255   200.000     8.638
 2634.0340     5.755    2.7483    0.0553   158.996   200.000     8.098
 2634.1864    10.715    2.7187    0.0692   175.101   200.000     8.712
 2634.3388    10.411    2.6589    0.0651   354.206   200.000     8.694
 2634.4912     5.899    2.7523    0.0601   140.204   200.000     8.284
 2634.6436    11.254    2.7228    0.0658   256.143   200.000     8.485
 2634.7960    12.716    2.7801    0.0503   439.515   200.000     8.775
 2634.9484     9.627    2.6986    0.0715   315.179   200.000     8.928
 2635.1008     4.963    2.7006    0.0695   322.591   200.000     8.728
 2635.2532    11.943    2.7037    0.0409   202.806   200.000     8.683
 2635.4056     8.333    2.6884    0.0591   543.365   200.000     8.443
 2635.5580    11.277    2.6322    0.0644   319.269   200.000     8.158
 2635.7104    10.343    2.6275    0.0508   411.544   200.000     8.583
 2635.8628     7.976    2.7598    0.0577   647.240   200.000     8.478
 2636.0152     8.469    2.6880    0.0673   259.327   200.000     8.842
 2636.1676    11.250    2.7065    0.0631   267.073   200.000     8.956
 2636.3200    13.896    2.7490    0.0783   213.463   200.000     8.985
 2636.4724     7.462    2.7446    0.0524   270.212   200.000     8.889
 2636.6248     1.279    2.6234    0.0486   290.935   200.000     8.703
 2636.7772     9.974    2.6081    0.0605   203.369   200.000     8.470
 2636.9296     3.954    2.7466    0.0652    92.014   200.000     8.140
 2637.0820     7.400    2.6210    0.0577   455.092   200.000     8.703
 2637.2344     9.534    2.6458    0.0659   123.210   200.000     8.578
 2637.3868     8.369    2.7212    0.0642   823.454   200.000     8.381
 2637.5392     9.664    2.6953    0.0519   510.393   200.000     9.905
 2637.6916     6.560    2.6440    0.0555   235.051   200.000     8.824
 2637.8440    12.220    2.6672    0.0525   805.845   200.000     8.681
 2637.9964     5.017    2.7253    0.0650  1419.864   200.000     8.585
 2638.1488    10.642    2.6619    0.0478   317.075   200.000     8.512
 2638.3012     4.696    2.7950    0.0811   178.322   200.000     8.132
 2638.4536     8.904    2.6664    0.0534   382.687   200.000     8.433
 2638.6060    10.483    2.6013    0.0698   639.783   200.000     8.066
 2638.7584     6.720    2.6487    0.0827   410.871   200.000     8.337
 2638.9108     4.933    2.6823    0.0515   182.962   200.000     8.459
 2639.0632     9.428    2.7851    0.0571   508.008   200.000     7.967
 2639.2156     9.289    2.7384    0.0574   188.515   200.000     8.705
 2639.3680     4.754    2.6737    0.0569   149.023   200.000     8.677
 2639.5204    12.930    2.7044    0.0551   196.986   200.000     8.877
 2639.6728     7.157    2.7039    0.0658   237.531   200.000     8.874
 2639.8252     6.105    2.6850    0.0532   157.195   200.000     9.179
 2639.9776     7.084    2.6866    0.0547   527.190   200.000     8.672
 2640.1300     8.547    2.6726    0.0675   250.159   200.000     8.316
 2640.2824     4.971    2.6295    0.0630   318.619   200.000     8.151
 2640.4348     8.509    2.6778    0.0544   181.784   200.000     8.258
 2640.5872     1.609    2.7024    0.0483   249.831   200.000     8.739
 2640.7396     3.943    2.6804    0.0422   466.780   200.000     7.909
 2640.8920     6.809    2.6017    0.0616   185.963   200.000     8.613
 2641.0444     9.621    2.6268    0.0549   235.285   200.000     8.690
 2641.1968     6.753    2.7073    0.0569   233.641   200.000     8.879
 2641.3492     8.254    2.6905    0.0791   181.981   200.000     9.187
 2641.5016     3.826    2.6363    0.0721   615.802   200.000     8.916
 2641.6540     8.276    2.6220    0.0695  1271.639   200.000     9.106
 2641.8064     8.252    2.6436    0.0678   263.165   200.000     8.452
 2641.9588    13.261    2.6606    0.0629   216.116   200.000     8.752
 2642.1112     3.375    2.6726    0.0641   322.170   200.000     8.106
 2642.2636     9.510    2.7032    0.0678   458.206   200.000     7.973
 2642.4160    10.798    2.7346    0.0551   400.594   200.000     8.205
 2642.5684    10.458    2.8026    0.0777   433.026   200.000     9.177
 2642.7208     9.740    2.6835    0.0593   420.865   200.000     8.970
 2642.8732    16.175    2.7849    0.0603   311.056   200.000     8.063
 2643.0256     7.513    2.7372    0.0516   400.734   200.000     9.083
 2643.1780     8.240    2.7161    0.0631   233.650   200.000     8.277
 2643.3304     5.829    2.6151    0.0596   537.862   200.000     8.291
 2643.4828    17.248    2.6871    0.0612   463.946   200.000     8.601
 2643.6352     8.946    2.7243    0.0600   252.936   200.000     8.185
 2643.7876    12.498    2.7668    0.0506   218.494   200.000     8.512
 2643.9400     5.251    2.6925    0.0414   210.665   200.000     8.236
 2644.0924     8.266    2.5858    0.0506   401.860   200.000     8.233
 2644.2448    12.759    2.6823    0.0629   448.280   200.000     8.830
 2644.3972     9.666    2.8300    0.0559   627.243   200.000     9.036
 2644.5496     4.106    2.7014    0.0461   213.669   200.000     8.801
 2644.7020    10.438    2.7112    0.0530   334.039   200.000     7.783
 2644.8544     7.805    2.6275    0.0475   254.522   200.000     8.585
 2645.0068    10.695    2.6273    0.0607   431.108   200.000     8.603
 2645.1592     8.729    2.7662    0.0408   230.649   200.000     8.434
 2645.3116     8.510    2.6672    0.0660   177.336   200.000     8.725
 2645.4640    10.149    2.6383    0.0671   632.697   200.000     8.120
 2645.6164     3.411    2.6954    0.0715   646.892   200.000     8.809
 2645.7688    12.585    2.6884    0.0789   223.300   200.000     8.150
 2645.9212     7.305    2.8072    0.0589   185.632   200.000     8.990
 2646.0736     9.147    2.6948    0.0659   362.987   200.000     8.426
 2646.2260    10.942    2.6607    0.0609   707.934   200.000     8.108
 2646.3784     1.595    2.7113    0.0556   515.984   200.000     8.760
 2646.5308     9.430    2.7212    0.0484   217.775   200.000     8.902
 2646.6832    12.537    2.6968    0.0589   189.128   200.000     8.604
 2646.8356     8.537    2.7494    0.0622   195.231   200.000     8.484
 2646.9880     8.127    2.6553    0.0525   385.803   200.000     8.801
 2647.1404     5.325    2.7123    0.0556   183.171   200.000     7.777
 2647.2928     6.674    2.7075    0.0649   531.435   200.000     9.121
 2647.4452    10.874    2.6758    0.0580   299.100   200.000     8.790
 2647.5976     5.749    2.6403    0.0656  1248.746   200.000     9.053
 2647.7500     8.389    2.7253    0.0603   322.050   200.000     9.492
 2647.9024    13.255    2.6861    0.0743   499.210   200.000     8.379
 2648.0548    11.563    2.6841    0.0667   161.896   200.000     8.625
 2648.2072     8.927    2.7491    0.0805   914.071   200.000     8.251
 2648.3596     4.802    2.7773    0.0613   370.695   200.000     7.780
 2648.5120     8.471    2.7298    0.0551   202.383   200.000     8.629
 2648.6644     7.178    2.6120    0.0532   306.258   200.000     8.037
 2648.8168     5.102    2.6270    0.0540   192.952   200.000     7.840
 2648.9692    10.618    2.8173    0.0529   137.180   200.000     7.988
 2649.1216     6.219    2.6681    0.0703   428.050   200.000     8.116
 2649.2740    -2.422    2.6858    0.0537   415.381   200.000     8.626
 2649.4264     2.636    2.6982    0.0788   998.195   200.000     7.645
 2649.5788     6.269    2.7299    0.0476   131.600   200.000     9.239
 2649.7312     8.473    2.7287    0.0627   263.919   200.000     8.520
 2649.8836    10.990    2.7947    0.0615   506.226   200.000     8.669
 2650.0360     6.933    2.6132    0.0430   411.830   200.000     8.033
 2650.1884     2.491    2.6828    0.0573   208.369   200.000     8.244
 2650.3408     9.694    2.7443    0.0841   117.255   200.000     8.117
