~VERSION INFORMATION
 VERS.                 2.0    : CWLS LOG ASCII STANDARD
 WRAP.                 NO     : ONE LINE PER DEPTH STEP
~WELL INFORMATION
 WELL.                 Ghawar-D1    : Well name
 FLD .                 Ghawar         : Field
 CTRY.                 Saudi Arabia       : Country
 STRT.M                1600.0000 : START DEPTH
 STOP.M                2800.0000   : STOP DEPTH
 STEP.M                0.1524        : STEP
 NULL.                 -999.25          : NULL VALUE
 SRVC.                 SubsurfAI        : Service company
~CURVE INFORMATION
 DEPT.M                              : Depth
 GR  .GAPI                           : Gamma Ray
 RHOB.G/C3                           : Bulk Density
 NPHI.V/V                            : Neutron Porosity
 RT  .OHMM                           : True Resistivity
 DT  .US/F                           : Sonic
 CALI.IN                             : Caliper
~PARAMETER INFORMATION
 LAT .                 25.1234   : Latitude
 LON .                 49.3421   : Longitude
 DESC.                 Ghawar — Arab-D carbonate reservoir, world largest oil field
~A  DEPT        GR        RHOB      NPHI      RT        DT        CALI
# ...
 2547.1660    18.235    2.6108    0.1491   129.513   200.000     8.013
 2547.3184    18.829    2.6887    0.1076   268.104   200.000     7.818
 2547.4708    21.053    2.6412    0.1206   114.850   200.000     8.601
 2547.6232    10.962    2.6509    0.0770   142.332   200.000     8.596
 2547.7756    15.256    2.6462    0.1047    40.373   200.000     9.886
 2547.9280     8.375    2.6832    0.1159   100.576   200.000     9.118
 2548.0804    17.634    2.5941    0.0982   139.736   200.000     9.045
 2548.2328    14.667    2.6132    0.1050   101.738   200.000     8.332
 2548.3852    18.230    2.6652    0.1192    93.645   200.000     8.695
 2548.5376    10.448    2.6686    0.1095    99.437   200.000     8.542
 2548.6900    14.997    2.6926    0.1417    71.696   200.000     8.743
 2548.8424     6.880    2.6419    0.1131   287.730   200.000     8.511
 2548.9948    11.936    2.7905    0.1206   264.005   200.000     8.619
 2549.1472    10.507    2.6809    0.1243    93.586   200.000     8.425
 2549.2996    12.599    2.6025    0.1013    73.511   200.000     8.461
 2549.4520    18.800    2.6557    0.1090    24.738   200.000     8.687
 2549.6044    16.102    2.5892    0.1066   220.335   200.000     8.402
 2549.7568    16.308    2.6042    0.0601   155.045   200.000     8.708
 2549.9092    13.139    2.5320    0.1202    76.893   200.000     7.879
 2550.0616    11.803    2.6519    0.1238   121.904   200.000     8.425
 2550.2140    10.411    2.6734    0.1314   214.113   200.000     7.810
 2550.3664    15.147    2.5357    0.0730    98.701   200.000     8.787
 2550.5188    11.412    2.6605    0.1284    69.365   200.000     8.294
 2550.6712    16.108    2.5860    0.1140    79.241   200.000     8.684
 2550.8236    14.143    2.6048    0.1441   211.911   200.000     8.459
 2550.9760    10.960    2.5820    0.1424   204.752   200.000     8.806
 2551.1284    21.552    2.6673    0.1003   217.976   200.000     8.395
 2551.2808    19.352    2.6499    0.1594   107.672   200.000     8.929
 2551.4332    11.190    2.6566    0.0927   221.776   200.000     8.875
 2551.5856     6.257    2.6329    0.0819   181.238   200.000     8.865
 2551.7380    13.838    2.7323    0.1080    59.637   200.000     8.037
 2551.8904    13.933    2.6148    0.1186   153.045   200.000     8.499
 2552.0428    18.215    2.6662    0.1153   270.800   200.000     8.496
 2552.1952    12.219    2.6956    0.1314   118.595   200.000     8.630
 2552.3476    15.998    2.6707    0.1037   142.470   200.000     8.213
 2552.5000    12.911    2.6324    0.1067    63.866   200.000     8.507
 2552.6524    13.394    2.7238    0.1087    90.001   200.000     8.629
 2552.8048     9.040    2.5945    0.1024   341.573   200.000     8.569
 2552.9572    16.958    2.6348    0.1150   123.077   200.000     9.372
 2553.1096    12.947    2.6823    0.1226   199.041   200.000     8.029
 2553.2620    13.183    2.6576    0.1282    57.439   200.000     8.508
 2553.4144    16.789    2.6381    0.1241    53.521   200.000     8.393
 2553.5668    13.800    2.5608    0.1267    80.529   200.000     8.353
 2553.7192    19.650    2.6847    0.0942   133.720   200.000     8.166
 2553.8716    13.842    2.6317    0.1250   146.496   200.000     8.359
 2554.0240    18.965    2.6887    0.0980   267.270   200.000     7.941
 2554.1764    17.245    2.6072    0.1243   228.945   200.000     8.160
 2554.3288    12.366    2.5999    0.1151    63.961   200.000     9.119
 2554.4812     9.529    2.6085    0.1092    56.299   200.000     8.422
 2554.6336    15.445    2.6162    0.1476   132.368   200.000     8.211
 2554.7860    20.629    2.6148    0.1049    65.742   200.000     7.832
 2554.9384    17.547    2.7151    0.1140    90.345   200.000     8.303
 2555.0908     3.195    2.7132    0.1121    49.640   200.000     9.386
 2555.2432     6.648    2.6065    0.0972    96.093   200.000     8.473
 2555.3956    15.597    2.6295    0.1161    66.607   200.000     8.168
 2555.5480    14.466    2.6854    0.1031    87.691   200.000     8.437
 2555.7004    15.931    2.6138    0.1390    46.861   200.000     8.833
 2555.8528    16.802    2.5591    0.1434    54.737   200.000     8.374
 2556.0052    16.609    2.6270    0.0945    85.532   200.000     8.033
 2556.1576    16.330    2.7100    0.1074    55.467   200.000     8.473
 2556.3100    12.648    2.6429    0.1091   145.060   200.000     8.893
 2556.4624    12.731    2.6320    0.1127   100.245   200.000     8.164
 2556.6148    18.972    2.6411    0.1148   265.017   200.000     8.696
 2556.7672    16.125    2.6145    0.1142    63.357   200.000     8.490
 2556.9196    13.705    2.7524    0.1049    59.384   200.000     7.342
 2557.0720     9.765    2.5862    0.1167   109.199   200.000     8.163
 2557.2244    12.184    2.6307    0.1087    55.138   200.000     9.117
 2557.3768    16.654    2.6406    0.1044   123.164   200.000     9.085
 2557.5292    13.651    2.6525    0.1271   105.390   200.000     8.371
 2557.6816     9.556    2.6212    0.1080    78.369   200.000     8.233
 2557.8340    13.590    2.6680    0.1043   101.703   200.000     8.339
 2557.9864    16.030    2.6623    0.1216    82.773   200.000     7.802
 2558.1388    16.048    2.6648    0.1147   217.782   200.000     8.341
 2558.2912    17.075    2.6807    0.1061   334.503   200.000     9.021
 2558.4436    14.251    2.6583    0.1031   103.879   200.000     8.612
 2558.5960    16.777    2.6636    0.1111   139.738   200.000     8.553
 2558.7484    15.480    2.6503    0.1256    53.905   200.000     8.925
 2558.9008    22.332    2.6619    0.1110   105.507   200.000     8.451
 2559.0532    16.523    2.6692    0.1072    83.524   200.000     8.660
 2559.2056    16.496    2.6533    0.1072   297.052   200.000     8.530
 2559.3580    14.966    2.5283    0.1124    93.786   200.000     9.406
 2559.5104    16.807    2.6659    0.1398    73.364   200.000     8.556
 2559.6628    16.718    2.6368    0.1144    93.151   200.000     8.905
 2559.8152    13.617    2.6435    0.0891    96.072   200.000     8.722
 2559.9676     5.469    2.6178    0.1245   125.205   200.000     8.158
 2560.1200     5.126    2.7769    0.0599   139.059   200.000     7.650
 2560.2724     5.233    2.7047    0.0567   102.522   200.000     8.337
 2560.4248     4.230    2.7118    0.0554   375.521   200.000     8.626
 2560.5772     6.509    2.7468    0.0430   179.201   200.000     8.680
 2560.7296     6.091    2.7219    0.0824   316.672   200.000     8.859
 2560.8820     8.065    2.6157    0.0570   201.595   200.000     8.747
 2561.0344     7.917    2.7278    0.0437   184.060   200.000     9.181
 2561.1868     3.390    2.6580    0.0650   452.153   200.000     7.738
 2561.3392     5.253    2.7001    0.0571   172.615   200.000     8.560
 2561.4916     6.488    2.7615    0.0523   314.121   200.000     7.774
 2561.6440     8.821    2.8483    0.0618   432.757   200.000     8.598
 2561.7964     3.744    2.7782    0.0364   586.734   200.000     8.690
 2561.9488    11.217    2.7391    0.0663   497.736   200.000     8.329
 2562.1012    13.218    2.6178    0.0558   823.464   200.000     8.490
 2562.2536     6.855    2.7385    0.0684   399.093   200.000     7.319
 2562.4060     8.440    2.7498    0.0635   233.951   200.000     8.356
 2562.5584     9.127    2.6947    0.0584   263.778   200.000     8.496
 2562.7108     9.042    2.7585    0.0584   246.406   200.000     8.979
 2562.8632    10.078    2.6758    0.0671   545.186   200.000     8.134
 2563.0156     4.609    2.7406    0.0633   139.680   200.000     8.242
 2563.1680     7.265    2.6619    0.0522   528.373   200.000     8.456
 2563.3204     8.743    2.7385    0.0482   262.931   200.000     8.347
 2563.4728     6.833    2.6361    0.0427   373.957   200.000     8.716
 2563.6252    10.960    2.6798    0.0615   339.162   200.000     8.084
 2563.7776     7.593    2.8227    0.0756   355.627   200.000     7.905
 2563.9300     7.734    2.7025    0.0368   532.232   200.000     8.247
 2564.0824    12.011    2.7575    0.0647   401.170   200.000     8.008
 2564.2348    12.178    2.6856    0.0796   352.653   200.000     8.701
