~VERSION INFORMATION
 VERS.                 2.0    : CWLS LOG ASCII STANDARD
 WRAP.                 NO     : ONE LINE PER DEPTH STEP
~WELL INFORMATION
 WELL.                 Ghawar-D1    : Well name
 FLD .                 Ghawar         : Field
 CTRY.                 Saudi Arabia       : Country
 STRT.M                1600.0000 : START DEPTH
 STOP.M                2800.0000   : STOP DEPTH
 STEP.M                0.1524        : STEP
 NULL.                 -999.25          : NULL VALUE
 SRVC.                 SubsurfAI        : Service company
~CURVE INFORMATION
 DEPT.M                              : Depth
 GR  .GAPI                           : Gamma Ray
 RHOB.G/C3                           : Bulk Density
 NPHI.V/V                            : Neutron Porosity
 RT  .OHMM                           : True Resistivity
 DT  .US/F                           : Sonic
 CALI.IN                             : Caliper
~PARAMETER INFORMATION
 LAT .                 25.1234   : Latitude
 LON .                 49.3421   : Longitude
 DESC.                 Ghawar — Arab-D carbonate reservoir, world largest oil field
~A  DEPT        GR        RHOB      NPHI      RT        DT        CALI
# ...
 2788.2628    12.032    2.7295    0.0667   191.437   200.000     8.362
 2788.4152     9.756    2.6783    0.0536   390.669   200.000     7.866
 2788.5676     9.174    2.6074    0.0384    84.358   200.000     8.479
 2788.7200     9.848    2.7311    0.0703   263.709   200.000     8.363
 2788.8724     6.969    2.7130    0.0686   124.081   200.000     8.964
 2789.0248     0.356    2.7535    0.0777   446.790   200.000     8.615
 2789.1772    13.738    2.7210    0.0532   126.791   200.000     8.816
 2789.3296    10.524    2.7394    0.0699   253.866   200.000     8.706
 2789.4820     8.195    2.7701    0.0646   232.925   200.000     8.752
 2789.6344     7.778    2.7594    0.0426   256.901   200.000     7.980
 2789.7868     2.412    2.6239    0.0492   203.103   200.000     8.445
 2789.9392    11.572    2.6500    0.0525   261.200   200.000     8.629
 2790.0916     7.101    2.6286    0.0547   115.137   200.000     8.731
 2790.2440    13.804    2.6448    0.0501   169.725   200.000     9.512
 2790.3964     1.299    2.6600    0.0564   353.236   200.000     8.742
 2790.5488     6.031    2.6427    0.0585   372.286   200.000     8.814
 2790.7012    -3.388    2.6190    0.0405   721.271   200.000     8.579
 2790.8536     5.967    2.5952    0.0689   156.956   200.000     8.200
 2791.0060     5.775    2.6989    0.0457   102.881   200.000     7.960
 2791.1584     6.422    2.7695    0.0431   109.632   200.000     7.886
 2791.3108    12.762    2.5822    0.0684   330.172   200.000     8.227
 2791.4632     4.989    2.6851    0.0851   610.389   200.000     9.251
 2791.6156     5.491    2.6677    0.0552   176.156   200.000     8.041
 2791.7680     8.381    2.6785    0.0606   489.209   200.000     8.339
 2791.9204     5.822    2.6720    0.0805   324.590   200.000     8.598
 2792.0728     7.259    2.6767    0.0468   360.076   200.000     8.443
 2792.2252     8.907    2.6959    0.0789   710.034   200.000     8.187
 2792.3776     3.060    2.7351    0.0493   427.222   200.000     8.571
 2792.5300    10.410    2.7273    0.0499   218.468   200.000     8.648
 2792.6824    10.924    2.6475    0.0433   245.553   200.000     8.632
 2792.8348     7.807    2.7112    0.0513   116.158   200.000     8.516
 2792.9872     4.586    2.7135    0.0557   295.120   200.000     8.236
 2793.1396     9.812    2.6628    0.0607   452.074   200.000     8.915
 2793.2920     9.847    2.7037    0.0684   259.304   200.000     8.204
 2793.4444     6.234    2.6981    0.0592   355.276   200.000     8.038
 2793.5968     4.827    2.7484    0.0614   241.020   200.000     8.497
 2793.7492     5.532    2.6527    0.0611   245.538   200.000     7.647
 2793.9016    10.626    2.6210    0.0732   278.715   200.000     8.857
 2794.0540     4.845    2.6888    0.0646   208.802   200.000     7.916
 2794.2064    10.985    2.7018    0.0433   209.771   200.000     8.474
 2794.3588     9.771    2.7366    0.0665   396.922   200.000     7.943
 2794.5112     7.147    2.7025    0.0496   525.620   200.000     8.314
 2794.6636     7.012    2.6293    0.0671   438.295   200.000     8.412
 2794.8160     5.701    2.6581    0.0711   287.767   200.000     8.162
 2794.9684     9.627    2.8285    0.0564   199.417   200.000     9.064
 2795.1208     7.423    2.7176    0.0709   380.945   200.000     9.091
 2795.2732     8.796    2.6851    0.0527   264.845   200.000     9.449
 2795.4256     6.800    2.6260    0.0642   989.619   200.000     8.283
 2795.5780     9.968    2.6396    0.0521   180.087   200.000     8.940
 2795.7304     1.349    2.6462    0.0522   236.684   200.000     8.992
 2795.8828     9.337    2.6362    0.0793  1040.405   200.000     8.290
 2796.0352     9.750    2.5966    0.0686   328.893   200.000     8.174
 2796.1876     0.188    2.6517    0.0553   326.290   200.000     8.802
 2796.3400     9.882    2.6527    0.0594   465.315   200.000     8.840
 2796.4924     3.854    2.6789    0.0748   235.300   200.000     8.836
 2796.6448     6.296    2.7662    0.0681   509.053   200.000     8.435
 2796.7972     6.536    2.7305    0.0561   241.192   200.000     8.275
 2796.9496     7.882    2.7046    0.0615   401.511   200.000     8.440
 2797.1020     8.578    2.7430    0.0539   364.745   200.000     8.549
 2797.2544    10.787    2.6816    0.0693   367.366   200.000     9.079
 2797.4068     5.888    2.6982    0.0588   906.623   200.000     8.100
 2797.5592    11.747    2.6839    0.0602   107.837   200.000     9.852
 2797.7116    10.097    2.7377    0.0594   183.288   200.000     8.804
 2797.8640     9.313    2.6969    0.0701   567.525   200.000     8.166
 2798.0164     7.265    2.6296    0.0577   239.062   200.000     8.088
 2798.1688    10.802    2.7248    0.0624   991.677   200.000     8.825
 2798.3212     8.262    2.6578    0.0608   343.154   200.000     8.464
 2798.4736     5.012    2.5819    0.0605   409.642   200.000     8.840
 2798.6260     5.006    2.7581    0.0588   448.529   200.000     8.546
 2798.7784     0.805    2.7464    0.0745   305.878   200.000     8.263
 2798.9308    12.799    2.7097    0.0428   245.043   200.000     8.412
 2799.0832     7.494    2.6598    0.0660   217.093   200.000     8.497
 2799.2356     7.402    2.6344    0.0408   227.902   200.000     8.567
 2799.3880     3.956    2.8615    0.0509   288.901   200.000     7.855
 2799.5404    10.247    2.6593    0.0485   363.458   200.000     8.297
 2799.6928     5.184    2.6757    0.0689   496.830   200.000     8.126
 2799.8452     3.690    2.7306    0.0564   231.379   200.000     8.299
 2799.9976     4.882    2.6890    0.0798   252.887   200.000     8.151
