~VERSION INFORMATION
 VERS.                 2.0    : CWLS LOG ASCII STANDARD
 WRAP.                 NO     : ONE LINE PER DEPTH STEP
~WELL INFORMATION
 WELL.                 Ghawar-D1    : Well name
 FLD .                 Ghawar         : Field
 CTRY.                 Saudi Arabia       : Country
 STRT.M                1600.0000 : START DEPTH
 STOP.M                2800.0000   : STOP DEPTH
 STEP.M                0.1524        : STEP
 NULL.                 -999.25          : NULL VALUE
 SRVC.                 SubsurfAI        : Service company
~CURVE INFORMATION
 DEPT.M                              : Depth
 GR  .GAPI                           : Gamma Ray
 RHOB.G/C3                           : Bulk Density
 NPHI.V/V                            : Neutron Porosity
 RT  .OHMM                           : True Resistivity
 DT  .US/F                           : Sonic
 CALI.IN                             : Caliper
~PARAMETER INFORMATION
 LAT .                 25.1234   : Latitude
 LON .                 49.3421   : Longitude
 DESC.                 Ghawar — Arab-D carbonate reservoir, world largest oil field
~A  DEPT        GR        RHOB      NPHI      RT        DT        CALI
# ...
 1996.0876     9.332    2.6957    0.0586   350.503   200.000     8.604
 1996.2400     7.618    2.7672    0.0450   193.746   200.000     8.640
 1996.3924     6.579    2.6805    0.0504   226.380   200.000     8.261
 1996.5448    13.962    2.6777    0.0618   323.790   200.000     8.443
 1996.6972     5.094    2.6888    0.0489   445.044   200.000     8.613
 1996.8496     9.774    2.7182    0.0506   223.942   200.000     7.914
 1997.0020     5.429    2.6766    0.0501   229.927   200.000     9.049
 1997.1544     7.558    2.6555    0.0674   354.474   200.000     8.832
 1997.3068    10.645    2.7318    0.0479   269.661   200.000     8.768
 1997.4592    16.503    2.7216    0.0523   425.709   200.000     7.732
 1997.6116    14.381    2.7212    0.0493   225.281   200.000     8.296
 1997.7640     4.939    2.7329    0.0448   225.577   200.000     8.112
 1997.9164     6.520    2.7644    0.0490   404.732   200.000     7.994
 1998.0688     5.277    2.7778    0.0435   196.112   200.000     8.746
 1998.2212    10.678    2.7464    0.0447   122.256   200.000     8.847
 1998.3736     4.785    2.5659    0.0505   255.379   200.000     8.090
 1998.5260    16.757    2.6732    0.0525   220.269   200.000     8.095
 1998.6784     9.394    2.7378    0.0549   267.740   200.000     8.693
 1998.8308    10.009    2.7102    0.0504   413.304   200.000     8.664
 1998.9832    10.777    2.6454    0.0462   134.930   200.000     8.969
 1999.1356    11.073    2.8287    0.0429   151.163   200.000     8.671
 1999.2880    12.241    2.6833    0.0561   115.996   200.000     8.102
 1999.4404    13.603    2.6332    0.0501   325.440   200.000     8.648
 1999.5928    10.242    2.6900    0.0589   116.590   200.000     9.063
 1999.7452    11.636    2.7346    0.0503   410.753   200.000     8.549
 1999.8976     5.314    2.7238    0.0410    99.668   200.000     8.223
 2000.0500    13.368    2.7352    0.0454   310.687   200.000     8.511
 2000.2024    13.074    2.8367    0.0618   115.730   200.000     8.808
 2000.3548     9.457    2.9170    0.0490   204.290   200.000     8.730
 2000.5072    10.200    2.6444    0.0447   176.806   200.000     8.134
 2000.6596    11.396    2.6897    0.0445   133.602   200.000     8.113
 2000.8120    13.250    2.7443    0.0490   428.553   200.000     8.700
 2000.9644     7.048    2.7404    0.0548   300.764   200.000     7.654
 2001.1168     6.902    2.7605    0.0524   174.202   200.000     8.455
 2001.2692     4.361    2.7143    0.0511   350.217   200.000     8.379
 2001.4216    14.403    2.6633    0.0456   313.768   200.000     8.195
 2001.5740    11.267    2.6711    0.0534   258.111   200.000     8.982
 2001.7264    13.915    2.7012    0.0476    77.372   200.000     9.002
 2001.8788    14.663    2.7642    0.0588   229.874   200.000     8.629
 2002.0312     9.032    2.6329    0.0522   336.688   200.000     8.211
 2002.1836     1.574    2.8273    0.0541   274.264   200.000     8.819
 2002.3360    10.536    2.7189    0.0500   214.177   200.000     8.515
 2002.4884     2.158    2.7561    0.0486   130.085   200.000     8.650
 2002.6408    10.382    2.5867    0.0495   303.082   200.000     8.488
 2002.7932    12.198    2.6798    0.0359   269.742   200.000     8.485
 2002.9456    10.574    2.7010    0.0474   242.463   200.000     8.720
 2003.0980     9.824    2.7102    0.0545   185.271   200.000     9.023
 2003.2504     8.296    2.6218    0.0425   385.887   200.000     7.619
 2003.4028    14.027    2.6998    0.0534   163.192   200.000     8.701
 2003.5552    12.349    2.7427    0.0339   211.027   200.000     8.998
 2003.7076     9.986    2.7453    0.0566   504.282   200.000     8.740
 2003.8600    12.704    2.6997    0.0706   428.705   200.000     8.491
 2004.0124    13.559    2.7102    0.0558   165.641   200.000     8.223
 2004.1648     9.834    2.7784    0.0479   238.112   200.000     8.300
 2004.3172     6.707    2.8047    0.0631   159.175   200.000     7.983
 2004.4696    12.503    2.7595    0.0466   307.589   200.000     8.276
 2004.6220     7.048    2.6884    0.0575   369.342   200.000     8.653
 2004.7744    11.473    2.6468    0.0452   342.443   200.000     8.550
 2004.9268    10.537    2.7584    0.0514   445.732   200.000     9.055
 2005.0792    10.047    2.8654    0.0379   310.031   200.000     8.761
 2005.2316    11.912    2.7242    0.0472   190.284   200.000     8.719
 2005.3840    10.856    2.6162    0.0465   322.239   200.000     8.364
 2005.5364     9.664    2.7098    0.0573   222.802   200.000     8.183
 2005.6888    11.112    2.7355    0.0516   298.655   200.000     9.424
 2005.8412    12.760    2.6982    0.0466   191.325   200.000     8.826
 2005.9936    12.527    2.6997    0.0458   256.167   200.000     8.730
 2006.1460    11.385    2.6746    0.0483   150.992   200.000     8.467
 2006.2984     7.646    2.8141    0.0415   184.149   200.000     8.230
 2006.4508     8.029    2.6751    0.0608   394.367   200.000     8.456
 2006.6032    15.485    2.6717    0.0499   180.517   200.000     8.464
 2006.7556     9.829    2.7279    0.0428   376.572   200.000     9.056
 2006.9080    10.573    2.6804    0.0438   682.082   200.000     8.987
 2007.0604     9.477    2.7359    0.0453   280.859   200.000     8.477
 2007.2128     9.386    2.7413    0.0495   241.503   200.000     7.666
 2007.3652    11.993    2.7136    0.0462   208.586   200.000     9.124
 2007.5176     8.323    2.7624    0.0481   292.465   200.000     8.618
 2007.6700     7.861    2.6828    0.0463   346.568   200.000     8.749
 2007.8224     8.108    2.7397    0.0540   235.976   200.000     8.362
 2007.9748    12.964    2.7373    0.0396   153.173   200.000     7.848
 2008.1272    13.746    2.6735    0.0499   234.230   200.000     8.088
 2008.2796    10.333    2.7824    0.0510   498.537   200.000     7.693
 2008.4320     5.499    2.6661    0.0417    64.618   200.000     9.224
 2008.5844    17.295    2.7218    0.0439   363.279   200.000     7.530
 2008.7368     6.824    2.7819    0.0629   204.690   200.000     9.027
 2008.8892    11.531    2.6624    0.0524   175.283   200.000     8.348
 2009.0416     6.181    2.6135    0.0338   476.616   200.000     7.804
 2009.1940     7.567    2.7082    0.0589   113.719   200.000     8.224
 2009.3464    13.765    2.7750    0.0501   138.892   200.000     8.763
 2009.4988    10.376    2.7814    0.0525   314.886   200.000     7.744
 2009.6512     7.063    2.6292    0.0552   483.905   200.000     8.384
 2009.8036     8.778    2.8484    0.0453   202.177   200.000     8.303
 2009.9560     8.972    2.6960    0.0476   243.396   200.000     8.509
 2010.1084    10.751    2.6879    0.0555   223.931   200.000     8.517
 2010.2608     9.792    2.6786    0.0467   810.140   200.000     7.948
 2010.4132    10.289    2.7735    0.0475   411.092   200.000     8.592
 2010.5656     3.767    2.6948    0.0533   266.418   200.000     8.518
 2010.7180    17.452    2.6436    0.0420   324.199   200.000     7.678
 2010.8704    10.614    2.7267    0.0531   505.210   200.000     8.083
 2011.0228    11.902    2.7864    0.0422   164.929   200.000     8.378
 2011.1752    12.179    2.7529    0.0396   311.753   200.000     8.610
 2011.3276    14.188    2.8171    0.0520   244.776   200.000     8.133
 2011.4800    10.817    2.7831    0.0592    96.971   200.000     8.802
 2011.6324    12.050    2.7220    0.0678   164.030   200.000     8.295
 2011.7848     7.975    2.7897    0.0559   251.824   200.000     8.645
 2011.9372     8.976    2.7664    0.0434   224.728   200.000     7.963
 2012.0896    12.828    2.7745    0.0428   515.438   200.000     8.632
 2012.2420     7.349    2.6740    0.0625   132.776   200.000     8.123
 2012.3944    12.847    2.6772    0.0510   182.485   200.000     8.625
 2012.5468     7.874    2.7029    0.0559   374.245   200.000     8.479
 2012.6992     7.518    2.7090    0.0695   375.052   200.000     9.459
 2012.8516     7.451    2.6497    0.0413   150.641   200.000     8.556
 2013.0040    11.943    2.7004    0.0355   344.253   200.000     8.361
 2013.1564    11.283    2.7498    0.0541   291.919   200.000     8.842
