~VERSION INFORMATION
 VERS.                 2.0    : CWLS LOG ASCII STANDARD
 WRAP.                 NO     : ONE LINE PER DEPTH STEP
~WELL INFORMATION
 WELL.                 Ghawar-D1    : Well name
 FLD .                 Ghawar         : Field
 CTRY.                 Saudi Arabia       : Country
 STRT.M                1600.0000 : START DEPTH
 STOP.M                2800.0000   : STOP DEPTH
 STEP.M                0.1524        : STEP
 NULL.                 -999.25          : NULL VALUE
 SRVC.                 SubsurfAI        : Service company
~CURVE INFORMATION
 DEPT.M                              : Depth
 GR  .GAPI                           : Gamma Ray
 RHOB.G/C3                           : Bulk Density
 NPHI.V/V                            : Neutron Porosity
 RT  .OHMM                           : True Resistivity
 DT  .US/F                           : Sonic
 CALI.IN                             : Caliper
~PARAMETER INFORMATION
 LAT .                 25.1234   : Latitude
 LON .                 49.3421   : Longitude
 DESC.                 Ghawar — Arab-D carbonate reservoir, world largest oil field
~A  DEPT        GR        RHOB      NPHI      RT        DT        CALI
# ...
 2702.1568     6.085    2.6314    0.0630   394.248   200.000     7.921
 2702.3092     6.415    2.7851    0.0677   226.778   200.000     8.438
 2702.4616    10.436    2.7608    0.0558   286.231   200.000     8.781
 2702.6140     7.565    2.7244    0.0606   237.328   200.000     8.287
 2702.7664    12.690    2.6578    0.0735   407.206   200.000     8.558
 2702.9188     6.660    2.7244    0.0570   159.538   200.000     8.485
 2703.0712     7.393    2.7378    0.0643   182.078   200.000     8.852
 2703.2236     8.694    2.6739    0.0571   485.168   200.000     8.208
 2703.3760     6.057    2.6650    0.0806   431.371   200.000     8.100
 2703.5284     6.135    2.7733    0.0609   453.794   200.000     7.594
 2703.6808    10.781    2.6686    0.0564   814.179   200.000     8.259
 2703.8332     9.770    2.7162    0.0648   461.982   200.000     8.217
 2703.9856     5.531    2.7763    0.0505   212.885   200.000     8.230
 2704.1380    17.175    2.7523    0.0539   566.702   200.000     8.114
 2704.2904     5.453    2.6236    0.0597   199.649   200.000     8.313
 2704.4428    12.054    2.6508    0.0563   502.860   200.000     9.382
 2704.5952    13.764    2.5706    0.0603   165.934   200.000     8.479
 2704.7476    13.856    2.6515    0.0580   220.286   200.000     8.530
 2704.9000     7.756    2.6746    0.0506   593.772   200.000     7.988
 2705.0524    13.399    2.6729    0.0631   329.635   200.000     8.812
 2705.2048     1.878    2.8030    0.0709   595.357   200.000     7.739
 2705.3572    11.200    2.6561    0.0620   501.847   200.000     8.735
 2705.5096     9.392    2.7235    0.0575   481.683   200.000     8.784
 2705.6620     3.860    2.6915    0.0662   522.919   200.000     8.112
 2705.8144     2.503    2.7734    0.0595   565.348   200.000     8.748
 2705.9668     8.095    2.6788    0.0508   478.485   200.000     8.285
 2706.1192     9.034    2.6401    0.0478   173.715   200.000     8.178
 2706.2716     3.181    2.6194    0.0680   267.649   200.000     8.150
 2706.4240     8.727    2.7052    0.0598   167.004   200.000     8.841
 2706.5764     6.739    2.7908    0.0654   545.362   200.000     8.689
 2706.7288     6.249    2.7581    0.0474   305.554   200.000     8.826
 2706.8812     3.416    2.6513    0.0573   114.673   200.000     8.399
 2707.0336     8.791    2.6632    0.0448   314.723   200.000     8.902
 2707.1860     8.996    2.7043    0.0756   447.100   200.000     9.099
 2707.3384    13.415    2.5989    0.0647   664.236   200.000     8.212
 2707.4908     5.785    2.5648    0.0560   218.272   200.000     8.481
 2707.6432    10.076    2.6832    0.0568   583.539   200.000     8.839
 2707.7956     8.649    2.6869    0.0520   369.992   200.000     8.414
 2707.9480     6.954    2.7293    0.0575   201.210   200.000     9.102
 2708.1004     4.959    2.7259    0.0730   245.363   200.000     8.371
 2708.2528    11.697    2.7634    0.0475   131.401   200.000     8.525
 2708.4052     6.327    2.6429    0.0584   123.795   200.000     8.501
 2708.5576     9.298    2.6449    0.0616   134.662   200.000     8.702
 2708.7100    14.116    2.6928    0.0400   577.597   200.000     8.835
 2708.8624     8.464    2.6841    0.0639   453.743   200.000     8.538
 2709.0148    10.479    2.6711    0.0582   388.821   200.000     7.713
 2709.1672    10.911    2.7352    0.0585   121.961   200.000     8.204
 2709.3196     7.034    2.6978    0.0674   112.298   200.000     8.722
 2709.4720     8.720    2.6684    0.0617   246.442   200.000     8.517
 2709.6244     6.769    2.5856    0.0555   225.966   200.000     9.190
 2709.7768     8.578    2.7226    0.0742   542.998   200.000     8.780
 2709.9292     5.585    2.6120    0.0474   396.764   200.000     8.406
 2710.0816     6.073    2.7066    0.0685   396.190   200.000     8.373
 2710.2340     6.108    2.7197    0.0659   204.414   200.000     8.488
 2710.3864     4.569    2.6901    0.0693   148.931   200.000     8.318
 2710.5388     1.076    2.6476    0.0688   163.618   200.000     8.165
 2710.6912     5.535    2.6946    0.0513   335.623   200.000     8.900
 2710.8436     0.081    2.7430    0.0442   304.200   200.000     7.927
 2710.9960    12.370    2.6707    0.0697   208.972   200.000     8.285
 2711.1484     7.516    2.6685    0.0689   347.730   200.000     8.835
 2711.3008     4.109    2.7230    0.0611   298.733   200.000     8.792
 2711.4532    10.858    2.7239    0.0812   188.977   200.000     7.800
 2711.6056     9.534    2.6541    0.0755   128.702   200.000     8.246
 2711.7580    10.331    2.6559    0.0611   419.694   200.000     8.062
 2711.9104     6.160    2.6973    0.0604   264.632   200.000     8.844
 2712.0628     3.017    2.7214    0.0627   317.900   200.000     8.657
 2712.2152     7.901    2.5904    0.0630   160.706   200.000     8.940
 2712.3676    12.317    2.6764    0.0554   407.289   200.000     8.962
 2712.5200     9.656    2.6292    0.0669   209.412   200.000     8.725
 2712.6724     6.331    2.6904    0.0622   227.945   200.000     8.593
 2712.8248    12.489    2.6691    0.0615   678.337   200.000     8.149
 2712.9772    11.080    2.7118    0.0515   374.629   200.000     8.074
 2713.1296     7.517    2.6150    0.0624   306.533   200.000     8.258
 2713.2820     9.078    2.7111    0.0640   317.918   200.000     8.467
 2713.4344     8.784    2.7505    0.0507   196.013   200.000     8.223
 2713.5868     6.407    2.7306    0.0476   278.993   200.000     8.212
 2713.7392     8.552    2.6421    0.0517   249.235   200.000     8.947
 2713.8916    11.788    2.7431    0.0635   238.341   200.000     7.922
 2714.0440     5.268    2.6358    0.0532   178.480   200.000     8.578
 2714.1964    12.935    2.6116    0.0570   410.476   200.000     8.063
 2714.3488     8.201    2.7245    0.0693   332.083   200.000     8.490
 2714.5012     9.551    2.6591    0.0452   433.695   200.000     8.622
 2714.6536    10.582    2.7330    0.0561   330.704   200.000     8.653
 2714.8060     0.922    2.7056    0.0638   802.303   200.000     8.446
 2714.9584    12.269    2.6814    0.0599   197.646   200.000     8.655
 2715.1108     6.829    2.7646    0.0652   442.218   200.000     8.809
 2715.2632     4.719    2.6950    0.0509   740.259   200.000     8.291
 2715.4156     6.965    2.7285    0.0559   219.539   200.000     9.176
 2715.5680    11.400    2.6472    0.0606   340.011   200.000     8.426
 2715.7204     7.637    2.7067    0.0570   339.130   200.000     8.704
 2715.8728     6.202    2.6923    0.0556   200.915   200.000     7.906
 2716.0252     9.053    2.6862    0.0776   291.342   200.000     8.474
 2716.1776     8.314    2.6112    0.0740   333.525   200.000     7.834
 2716.3300     6.990    2.7386    0.0564   406.246   200.000     9.094
 2716.4824     8.997    2.7112    0.0647   145.125   200.000     8.712
 2716.6348    12.556    2.5437    0.0409   470.336   200.000     7.627
 2716.7872     6.275    2.6906    0.0732   377.567   200.000     7.348
 2716.9396     8.990    2.6634    0.0835   250.986   200.000     8.207
 2717.0920    12.946    2.7809    0.0534   526.528   200.000     8.392
 2717.2444    12.152    2.6820    0.0615   238.439   200.000     8.299
 2717.3968     9.275    2.7231    0.0490   221.918   200.000     8.293
 2717.5492    13.051    2.7020    0.0645   634.301   200.000     7.957
 2717.7016     6.107    2.7078    0.0731   395.811   200.000     9.226
 2717.8540    11.448    2.7015    0.0553   574.212   200.000     9.000
 2718.0064     9.256    2.7786    0.0575   345.973   200.000     8.557
 2718.1588     8.621    2.7243    0.0486   295.588   200.000     8.285
 2718.3112     6.852    2.7118    0.0502   181.514   200.000     8.612
 2718.4636     5.128    2.6972    0.0624   318.923   200.000     7.978
 2718.6160     6.806    2.6330    0.0447   257.673   200.000     8.774
 2718.7684     7.933    2.6149    0.0712   308.010   200.000     8.674
 2718.9208     8.190    2.7067    0.0689   188.296   200.000     7.814
 2719.0732    10.177    2.7420    0.0559   588.556   200.000     8.354
 2719.2256     9.289    2.8181    0.0550   332.456   200.000     8.369
