~VERSION INFORMATION
 VERS.                 2.0    : CWLS LOG ASCII STANDARD
 WRAP.                 NO     : ONE LINE PER DEPTH STEP
~WELL INFORMATION
 WELL.                 Ghawar-D1    : Well name
 FLD .                 Ghawar         : Field
 CTRY.                 Saudi Arabia       : Country
 STRT.M                1600.0000 : START DEPTH
 STOP.M                2800.0000   : STOP DEPTH
 STEP.M                0.1524        : STEP
 NULL.                 -999.25          : NULL VALUE
 SRVC.                 SubsurfAI        : Service company
~CURVE INFORMATION
 DEPT.M                              : Depth
 GR  .GAPI                           : Gamma Ray
 RHOB.G/C3                           : Bulk Density
 NPHI.V/V                            : Neutron Porosity
 RT  .OHMM                           : True Resistivity
 DT  .US/F                           : Sonic
 CALI.IN                             : Caliper
~PARAMETER INFORMATION
 LAT .                 25.1234   : Latitude
 LON .                 49.3421   : Longitude
 DESC.                 Ghawar — Arab-D carbonate reservoir, world largest oil field
~A  DEPT        GR        RHOB      NPHI      RT        DT        CALI
# ...
 2478.2812    15.397    2.5725    0.1223   146.359   200.000     8.216
 2478.4336    17.174    2.6041    0.1047   159.251   200.000     8.061
 2478.5860    12.596    2.7259    0.1143    60.757   200.000     8.781
 2478.7384    15.205    2.7673    0.1342   139.876   200.000     8.542
 2478.8908     9.342    2.5872    0.1266    98.822   200.000     8.905
 2479.0432    18.557    2.6293    0.1018    63.885   200.000     8.694
 2479.1956    11.774    2.5435    0.1393    37.684   200.000     8.906
 2479.3480    14.181    2.6474    0.1398   116.743   200.000     8.247
 2479.5004    13.147    2.6384    0.1088    37.550   200.000     8.484
 2479.6528     9.869    2.7315    0.0927    44.319   200.000     8.036
 2479.8052     9.253    2.7109    0.1031    68.620   200.000     8.423
 2479.9576     8.169    2.5331    0.1211   130.817   200.000     8.959
 2480.1100    19.031    2.6122    0.1155    98.444   200.000     8.333
 2480.2624    15.507    2.6648    0.1054   227.257   200.000     8.087
 2480.4148    20.717    2.6196    0.0995    80.687   200.000     8.506
 2480.5672    11.464    2.5842    0.0990   110.066   200.000     8.008
 2480.7196    17.088    2.6449    0.0916   124.773   200.000     8.783
 2480.8720     7.583    2.6217    0.1113   180.113   200.000     7.465
 2481.0244    18.833    2.6895    0.1001   133.730   200.000     8.626
 2481.1768    12.159    2.6193    0.1269    67.367   200.000     8.221
 2481.3292    17.701    2.5846    0.1124   112.844   200.000     9.012
 2481.4816    14.981    2.6409    0.0806    99.383   200.000     8.299
 2481.6340    13.432    2.6480    0.1347   100.362   200.000     8.474
 2481.7864    18.576    2.7020    0.0974   216.083   200.000     8.339
 2481.9388     9.828    2.5821    0.1026    80.115   200.000     9.351
 2482.0912     9.951    2.6780    0.0890   118.028   200.000     8.589
 2482.2436    10.449    2.6922    0.0957   189.079   200.000     8.582
 2482.3960    14.196    2.6082    0.0938   102.719   200.000     9.068
 2482.5484    15.099    2.6886    0.1152    72.050   200.000     8.723
 2482.7008    20.582    2.5977    0.1111    96.672   200.000     8.579
 2482.8532    17.029    2.6314    0.1075   137.085   200.000     9.458
 2483.0056    10.101    2.6584    0.1053   147.781   200.000     8.825
 2483.1580    21.896    2.6658    0.1197    75.321   200.000     8.627
 2483.3104    15.308    2.6638    0.1200    67.501   200.000     8.510
 2483.4628    14.640    2.6759    0.0894    99.780   200.000     8.330
 2483.6152    15.161    2.6530    0.1074   276.712   200.000     8.427
 2483.7676    14.914    2.5559    0.1086   169.084   200.000     9.247
 2483.9200    15.974    2.6411    0.0992   157.649   200.000     8.306
 2484.0724    11.900    2.5956    0.1042    92.561   200.000     8.896
 2484.2248     9.459    2.6458    0.0876    76.537   200.000     8.908
 2484.3772     9.395    2.6856    0.0973   175.441   200.000     7.933
 2484.5296     8.860    2.6861    0.0978   102.762   200.000     8.360
 2484.6820    16.566    2.6196    0.1087    60.198   200.000     9.382
 2484.8344    13.495    2.6901    0.0701    97.110   200.000     8.241
 2484.9868    16.810    2.6133    0.0887    76.131   200.000     8.568
 2485.1392    18.528    2.6488    0.1333   168.122   200.000     9.305
 2485.2916    11.686    2.6920    0.1197   147.068   200.000     8.567
 2485.4440    13.205    2.7277    0.0852    85.630   200.000     8.464
 2485.5964    15.509    2.6178    0.1258   130.448   200.000     8.320
 2485.7488    14.830    2.6541    0.1178    97.813   200.000     9.183
 2485.9012    15.444    2.7106    0.1051   240.923   200.000     9.038
 2486.0536    15.189    2.6736    0.1248    74.425   200.000     8.454
 2486.2060    11.293    2.6979    0.0969   151.661   200.000     7.579
 2486.3584    12.627    2.6968    0.1239   372.466   200.000     7.998
 2486.5108     9.257    2.6573    0.0686    66.923   200.000     9.218
 2486.6632     9.239    2.6129    0.1190   102.125   200.000     8.316
 2486.8156    13.916    2.5643    0.1197    76.999   200.000     8.539
 2486.9680    20.409    2.6175    0.1443   175.572   200.000     8.835
 2487.1204    17.872    2.6506    0.1297   320.051   200.000     8.482
 2487.2728    18.425    2.6433    0.1072    69.863   200.000     8.808
 2487.4252    14.291    2.7066    0.1270   144.874   200.000     8.524
 2487.5776    13.756    2.6741    0.1307   135.085   200.000     7.856
 2487.7300    12.451    2.5609    0.1237    80.628   200.000     8.624
 2487.8824    17.545    2.6391    0.0835    60.857   200.000     8.539
 2488.0348    17.342    2.6104    0.1125    97.524   200.000     8.705
 2488.1872    13.603    2.6389    0.1049   153.736   200.000     8.469
 2488.3396    13.935    2.7144    0.1078    39.684   200.000     7.991
 2488.4920    16.583    2.6715    0.0828   159.831   200.000     8.188
 2488.6444    14.796    2.6853    0.1176   138.946   200.000     8.604
 2488.7968    14.050    2.6153    0.0790   122.563   200.000     8.386
 2488.9492    18.079    2.7416    0.0941    48.402   200.000     8.454
 2489.1016     5.496    2.7589    0.1023   147.878   200.000     8.351
 2489.2540    14.744    2.5640    0.1097   142.524   200.000     8.537
 2489.4064    15.449    2.6217    0.1120    66.242   200.000     8.307
 2489.5588    16.783    2.5410    0.1074    87.118   200.000     9.266
 2489.7112     8.924    2.7062    0.1162    95.226   200.000     9.053
 2489.8636    13.765    2.6595    0.1014   134.064   200.000     8.704
 2490.0160    12.543    2.6229    0.1065    82.237   200.000     8.265
 2490.1684    21.995    2.6637    0.0979    72.276   200.000     8.163
 2490.3208    15.280    2.5950    0.1102    54.595   200.000     7.806
 2490.4732    16.602    2.6706    0.1473   150.137   200.000     9.218
 2490.6256    15.800    2.6091    0.1244   286.973   200.000     9.018
 2490.7780    14.767    2.5810    0.1169   105.903   200.000     8.717
 2490.9304    12.187    2.6177    0.1021    74.947   200.000     8.234
 2491.0828    16.445    2.6144    0.1111   343.944   200.000     8.471
 2491.2352     8.556    2.5766    0.1032    72.877   200.000     8.583
 2491.3876    11.428    2.6088    0.0787    78.171   200.000     8.379
 2491.5400    13.720    2.6704    0.1164   167.609   200.000     8.242
 2491.6924    16.624    2.5311    0.1125   123.674   200.000     8.758
 2491.8448    13.440    2.6446    0.1277    84.542   200.000     8.474
 2491.9972    12.332    2.5925    0.1008    99.977   200.000     8.049
 2492.1496    10.740    2.6652    0.1014   354.801   200.000     8.202
 2492.3020    14.571    2.5906    0.1164   142.262   200.000     8.024
 2492.4544    15.534    2.6505    0.1147    61.942   200.000     8.565
 2492.6068    19.635    2.7160    0.1181    71.072   200.000     8.092
 2492.7592    14.145    2.6309    0.0668    51.401   200.000     8.735
 2492.9116    11.234    2.5879    0.0944   141.277   200.000     7.879
 2493.0640     9.901    2.6151    0.1402   146.421   200.000     8.915
 2493.2164    12.324    2.6623    0.1037   115.466   200.000     7.809
 2493.3688    15.574    2.6832    0.0868   222.490   200.000     8.432
 2493.5212    14.378    2.7096    0.0874    72.122   200.000     8.554
 2493.6736    10.914    2.6642    0.1392    83.163   200.000     8.064
 2493.8260    13.640    2.6307    0.1217    59.447   200.000     8.847
 2493.9784    14.885    2.7487    0.1037   171.038   200.000     8.526
 2494.1308    15.392    2.5832    0.1064   175.278   200.000     8.587
 2494.2832    14.614    2.5965    0.0955   209.348   200.000     7.657
 2494.4356    13.211    2.7255    0.1113    51.346   200.000     8.812
 2494.5880    22.675    2.5879    0.1155   207.576   200.000     8.356
 2494.7404    12.196    2.6323    0.1375   143.389   200.000     8.045
 2494.8928    15.853    2.6329    0.1020    58.492   200.000     8.551
 2495.0452     5.875    2.6653    0.1097   158.102   200.000     8.659
 2495.1976    20.047    2.7486    0.1036   190.044   200.000     8.034
 2495.3500    18.932    2.6741    0.1054   181.742   200.000     9.038
