~VERSION INFORMATION
 VERS.                 2.0    : CWLS LOG ASCII STANDARD
 WRAP.                 NO     : ONE LINE PER DEPTH STEP
~WELL INFORMATION
 WELL.                 Ghawar-D1    : Well name
 FLD .                 Ghawar         : Field
 CTRY.                 Saudi Arabia       : Country
 STRT.M                1600.0000 : START DEPTH
 STOP.M                2800.0000   : STOP DEPTH
 STEP.M                0.1524        : STEP
 NULL.                 -999.25          : NULL VALUE
 SRVC.                 SubsurfAI        : Service company
~CURVE INFORMATION
 DEPT.M                              : Depth
 GR  .GAPI                           : Gamma Ray
 RHOB.G/C3                           : Bulk Density
 NPHI.V/V                            : Neutron Porosity
 RT  .OHMM                           : True Resistivity
 DT  .US/F                           : Sonic
 CALI.IN                             : Caliper
~PARAMETER INFORMATION
 LAT .                 25.1234   : Latitude
 LON .                 49.3421   : Longitude
 DESC.                 Ghawar — Arab-D carbonate reservoir, world largest oil field
~A  DEPT        GR        RHOB      NPHI      RT        DT        CALI
# ...
 1686.1060    14.795    2.6756    0.0864    81.465   200.000     8.049
 1686.2584    14.357    2.7920    0.0908    40.981   200.000     7.429
 1686.4108    17.555    2.6289    0.0835    71.423   200.000     8.840
 1686.5632    18.961    2.6325    0.0702    44.011   200.000     8.168
 1686.7156    18.630    2.6673    0.1004    79.849   200.000     7.930
 1686.8680    20.952    2.6015    0.0917    39.696   200.000     8.286
 1687.0204    26.928    2.7044    0.1020    84.429   200.000     8.225
 1687.1728    22.296    2.7040    0.0906   161.353   200.000     9.015
 1687.3252    18.185    2.6033    0.1219   120.611   200.000     9.135
 1687.4776    18.880    2.7059    0.0882    37.779   200.000     8.008
 1687.6300    19.949    2.6419    0.0674    85.359   200.000     8.755
 1687.7824    14.183    2.7188    0.0894   115.180   200.000     8.744
 1687.9348    19.585    2.6974    0.0826   196.112   200.000     7.602
 1688.0872    19.609    2.6590    0.0953    86.922   200.000     8.390
 1688.2396    16.598    2.6062    0.0695    66.083   200.000     9.045
 1688.3920    18.985    2.6881    0.0743    95.924   200.000     8.582
 1688.5444    16.103    2.6863    0.0915    53.831   200.000     8.419
 1688.6968    24.679    2.6702    0.0772    78.141   200.000     8.894
 1688.8492    18.170    2.6917    0.1074    90.777   200.000     8.366
 1689.0016    23.037    2.6966    0.0842   224.133   200.000     8.577
 1689.1540    17.200    2.6559    0.0952    33.510   200.000     8.880
 1689.3064    16.400    2.7777    0.0701    47.382   200.000     8.877
 1689.4588    15.951    2.6613    0.0943   144.373   200.000     8.987
 1689.6112    21.531    2.6621    0.0906   101.049   200.000     8.153
 1689.7636    17.549    2.6514    0.0899    67.754   200.000     8.802
 1689.9160    21.270    2.6931    0.0939    82.085   200.000     8.439
 1690.0684    16.149    2.7256    0.1152   114.978   200.000     8.775
 1690.2208    12.270    2.6887    0.0954    48.783   200.000     9.084
 1690.3732    15.231    2.7535    0.0721   204.191   200.000     8.297
 1690.5256    19.696    2.6558    0.0673    43.420   200.000     8.163
 1690.6780    15.125    2.7262    0.0966    88.366   200.000     8.269
 1690.8304    13.067    2.6692    0.0710    59.226   200.000     7.599
 1690.9828    10.652    2.7591    0.0968    69.711   200.000     9.149
 1691.1352     8.464    2.6698    0.0959   136.868   200.000     8.619
 1691.2876    12.725    2.7637    0.0831   141.064   200.000     7.819
 1691.4400    20.842    2.7708    0.1002    88.432   200.000     8.211
 1691.5924    17.391    2.6417    0.0794    66.351   200.000     8.547
 1691.7448    15.568    2.6224    0.0882    88.786   200.000     9.286
 1691.8972    17.423    2.6655    0.1061   148.139   200.000     8.530
 1692.0496    17.572    2.6874    0.0876    66.145   200.000     8.113
 1692.2020    21.474    2.6120    0.0847    42.830   200.000     7.786
 1692.3544    19.802    2.6945    0.0686   298.358   200.000     8.365
 1692.5068    23.654    2.6081    0.0710   149.272   200.000     8.561
 1692.6592     9.005    2.7266    0.1052   111.038   200.000     8.437
 1692.8116    16.932    2.6667    0.0838    60.394   200.000     8.546
 1692.9640    18.869    2.6521    0.0791   120.776   200.000     8.595
 1693.1164    11.402    2.6502    0.0883    49.396   200.000     8.512
 1693.2688    17.073    2.7375    0.0973   134.178   200.000     8.923
 1693.4212    25.360    2.5350    0.0927    60.680   200.000     8.724
 1693.5736    16.040    2.6949    0.0825    89.888   200.000     8.357
 1693.7260    14.190    2.6868    0.0921    57.958   200.000     7.674
 1693.8784    17.016    2.6490    0.0945    50.072   200.000     8.598
 1694.0308    18.554    2.7433    0.0793   112.164   200.000     8.640
 1694.1832    20.509    2.6988    0.1048    51.599   200.000     8.527
 1694.3356    16.349    2.7583    0.1010    68.033   200.000     9.158
 1694.4880    22.039    2.5461    0.0920    58.527   200.000     8.501
 1694.6404    14.146    2.6887    0.0963   105.462   200.000     8.371
 1694.7928    19.650    2.6431    0.1036    28.746   200.000     8.992
 1694.9452    18.283    2.6757    0.0893    43.837   200.000     7.632
 1695.0976    27.158    2.6309    0.0766    78.617   200.000     8.107
 1695.2500    14.891    2.6446    0.0976   100.371   200.000     8.223
 1695.4024    23.141    2.6046    0.1065    43.271   200.000     9.003
 1695.5548    15.570    2.6198    0.0824    39.032   200.000     9.528
 1695.7072    21.072    2.6752    0.0965   115.200   200.000     8.393
 1695.8596    22.762    2.6188    0.0956    22.299   200.000     9.015
 1696.0120    21.513    2.6099    0.0787    66.426   200.000     9.233
 1696.1644    22.113    2.6129    0.0656    72.389   200.000     8.712
 1696.3168    17.398    2.6579    0.1001    37.011   200.000     8.672
 1696.4692    12.764    2.6635    0.0716    82.574   200.000     8.236
 1696.6216     9.972    2.6146    0.0661    57.932   200.000     7.545
 1696.7740    22.924    2.6969    0.1090   201.357   200.000     8.221
 1696.9264    13.958    2.6491    0.1000    80.916   200.000     8.631
 1697.0788    12.416    2.6995    0.1087    89.658   200.000     8.225
 1697.2312    21.648    2.6112    0.0659    24.074   200.000     8.170
 1697.3836    12.288    2.6566    0.0837    79.970   200.000     8.713
 1697.5360    11.616    2.7261    0.0827    44.879   200.000     8.215
 1697.6884    19.953    2.6605    0.1073    62.880   200.000     8.290
 1697.8408    16.609    2.6211    0.1104   112.530   200.000     8.483
 1697.9932    11.544    2.6469    0.0952    90.022   200.000     8.901
 1698.1456    17.379    2.5823    0.0804    89.580   200.000     8.776
 1698.2980    18.678    2.6545    0.0560    25.608   200.000     8.753
 1698.4504    22.509    2.6003    0.0836    63.656   200.000     8.390
 1698.6028    21.307    2.6609    0.0888    60.070   200.000     8.543
 1698.7552    21.338    2.6352    0.0582    87.138   200.000     8.179
 1698.9076    16.787    2.5876    0.0855    92.153   200.000     8.678
 1699.0600    14.074    2.6782    0.0822   115.940   200.000     8.667
 1699.2124    20.286    2.6472    0.0888    86.206   200.000     8.431
 1699.3648    18.539    2.7266    0.0781    83.291   200.000     8.859
 1699.5172    21.899    2.6670    0.0727    93.392   200.000     7.774
 1699.6696    18.250    2.6669    0.1125    60.595   200.000     8.644
 1699.8220     7.643    2.6365    0.0668    56.493   200.000     8.323
 1699.9744    19.679    2.6902    0.0847    93.099   200.000     8.888
 1700.1268    17.140    2.7414    0.0775    56.971   200.000     8.150
 1700.2792    20.205    2.7909    0.0707    99.092   200.000     9.029
 1700.4316    14.751    2.6102    0.0783   176.725   200.000     8.026
 1700.5840    18.742    2.6714    0.1084   181.880   200.000     8.203
 1700.7364    18.145    2.7772    0.0949    82.829   200.000     8.516
 1700.8888    10.956    2.6245    0.0978    54.627   200.000     8.014
 1701.0412    21.360    2.6945    0.0776    68.124   200.000     8.134
 1701.1936    20.705    2.7423    0.0909   166.630   200.000     8.434
 1701.3460    22.430    2.5733    0.0897    82.223   200.000     7.958
 1701.4984    18.356    2.6548    0.0709    69.130   200.000     7.989
 1701.6508    17.541    2.6266    0.0929   104.727   200.000     8.820
 1701.8032    25.285    2.7127    0.0880    47.674   200.000     8.717
 1701.9556    23.990    2.5793    0.0914    91.353   200.000     8.852
 1702.1080    20.277    2.5830    0.1044   268.978   200.000     9.141
 1702.2604    16.889    2.6727    0.1050    74.247   200.000     8.926
 1702.4128    16.635    2.6648    0.1065    65.535   200.000     8.253
 1702.5652    17.609    2.7084    0.0922    78.690   200.000     8.031
 1702.7176    20.419    2.6962    0.0939   114.803   200.000     8.432
 1702.8700    20.360    2.6477    0.0702   117.287   200.000     8.761
 1703.0224    17.793    2.7055    0.1011    61.244   200.000     8.608
 1703.1748    12.780    2.6762    0.0939   181.553   200.000     8.773
