~VERSION INFORMATION
 VERS.                 2.0    : CWLS LOG ASCII STANDARD
 WRAP.                 NO     : ONE LINE PER DEPTH STEP
~WELL INFORMATION
 WELL.                 Ghawar-D1    : Well name
 FLD .                 Ghawar         : Field
 CTRY.                 Saudi Arabia       : Country
 STRT.M                1600.0000 : START DEPTH
 STOP.M                2800.0000   : STOP DEPTH
 STEP.M                0.1524        : STEP
 NULL.                 -999.25          : NULL VALUE
 SRVC.                 SubsurfAI        : Service company
~CURVE INFORMATION
 DEPT.M                              : Depth
 GR  .GAPI                           : Gamma Ray
 RHOB.G/C3                           : Bulk Density
 NPHI.V/V                            : Neutron Porosity
 RT  .OHMM                           : True Resistivity
 DT  .US/F                           : Sonic
 CALI.IN                             : Caliper
~PARAMETER INFORMATION
 LAT .                 25.1234   : Latitude
 LON .                 49.3421   : Longitude
 DESC.                 Ghawar — Arab-D carbonate reservoir, world largest oil field
~A  DEPT        GR        RHOB      NPHI      RT        DT        CALI
# ...
 2082.1936     5.373    2.9074    0.0000   891.054   200.000     7.700
 2082.3460     8.883    2.9439    0.0000   424.784   200.000     8.388
 2082.4984     4.315    2.9279    0.0000  1243.648   200.000     7.452
 2082.6508     4.204    2.9593    0.0000  1950.169   200.000     8.678
 2082.8032     8.871    2.9469    0.0000   729.346   200.000     9.181
 2082.9556     9.311    3.0558    0.0000   459.077   200.000     8.379
 2083.1080     2.851    2.9225    0.0000   601.190   200.000     9.017
 2083.2604     9.449    2.9702    0.0000   401.137   200.000     8.131
 2083.4128    10.301    2.8981    0.0000   566.875   200.000     8.540
 2083.5652     4.688    2.9439    0.0000  1046.980   200.000     8.108
 2083.7176     5.345    2.9502    0.0000   783.613   200.000     8.492
 2083.8700     7.116    2.9259    0.0000  1258.516   200.000     9.278
 2084.0224     4.447    2.9314    0.0000   861.312   200.000     8.336
 2084.1748     9.877    2.9032    0.0000   484.933   200.000     8.049
 2084.3272    10.071    3.0672    0.0000   581.874   200.000     8.732
 2084.4796     5.474    3.0276    0.0000   770.627   200.000     7.906
 2084.6320     8.209    2.9374    0.0000   619.704   200.000     8.636
 2084.7844     5.985    2.8432    0.0000   758.887   200.000     8.319
 2084.9368    11.212    3.0140    0.0000  1156.288   200.000     8.231
 2085.0892     3.336    2.9441    0.0000   928.281   200.000     8.202
 2085.2416     7.908    2.9214    0.0000   687.585   200.000     8.710
 2085.3940     2.145    3.0291    0.0000   663.496   200.000     8.336
 2085.5464     8.770    2.9205    0.0000   353.014   200.000     8.031
 2085.6988    10.814    3.1000    0.0000   565.272   200.000     8.857
 2085.8512    -1.384    2.7934    0.0000   952.194   200.000     8.514
 2086.0036     6.857    2.9151    0.0000   830.562   200.000     8.342
 2086.1560    11.159    2.9408    0.0000   847.932   200.000     8.077
 2086.3084     8.255    2.9526    0.0000   990.416   200.000     8.757
 2086.4608     6.302    2.9600    0.0000  2745.654   200.000     8.809
 2086.6132    -0.484    2.9159    0.0000  1418.682   200.000     8.679
 2086.7656     5.036    3.0138    0.0000  1172.406   200.000     8.893
 2086.9180     3.326    2.9110    0.0000   890.137   200.000     8.410
 2087.0704     5.103    2.8721    0.0000  1844.507   200.000     8.889
 2087.2228     1.916    3.0096    0.0000   533.868   200.000     8.135
 2087.3752     6.141    2.8008    0.0000  1155.648   200.000     8.379
 2087.5276     7.657    3.0932    0.0000   886.838   200.000     8.798
 2087.6800     3.775    2.9548    0.0000   416.397   200.000     8.594
 2087.8324     6.962    2.9705    0.0000   949.347   200.000     8.882
 2087.9848     5.472    3.0531    0.0000   718.078   200.000     8.336
 2088.1372     2.654    3.0751    0.0000   443.478   200.000     7.491
 2088.2896     6.494    2.9279    0.0000   912.620   200.000     7.711
 2088.4420     2.736    2.9713    0.0000   993.824   200.000     8.550
 2088.5944     4.211    2.9654    0.0000  1186.249   200.000     8.555
 2088.7468    10.347    2.9130    0.0000   441.622   200.000     8.604
 2088.8992     7.555    2.9705    0.0000  1433.004   200.000     8.801
 2089.0516     4.297    3.0058    0.0000  1548.593   200.000     8.527
 2089.2040     4.751    2.9702    0.0000   887.739   200.000     8.900
 2089.3564     6.977    2.9314    0.0000  1661.089   200.000     8.988
 2089.5088    10.916    3.0882    0.0000   669.507   200.000     8.141
 2089.6612     3.882    3.0164    0.0000   456.279   200.000     8.916
 2089.8136     5.700    2.9789    0.0000   479.360   200.000     9.415
 2089.9660     7.871    2.8273    0.0000   890.464   200.000     7.957
 2090.1184     8.996    2.9079    0.0000   414.908   200.000     8.410
 2090.2708     8.716    2.9630    0.0000  1621.091   200.000     8.796
 2090.4232     8.168    2.9744    0.0000  1206.074   200.000     7.974
 2090.5756     4.785    2.9530    0.0000  1190.695   200.000     9.171
 2090.7280     3.645    2.8567    0.0000  1033.678   200.000     7.881
 2090.8804     9.258    2.9950    0.0000  1785.917   200.000     9.185
 2091.0328     5.502    3.0404    0.0000  1111.778   200.000     8.848
 2091.1852     0.699    2.9834    0.0000  1416.834   200.000     8.220
 2091.3376     7.013    2.8889    0.0000   657.279   200.000     8.570
 2091.4900     4.032    2.9151    0.0000  1264.676   200.000     9.060
 2091.6424     6.789    2.9547    0.0000  1170.704   200.000     8.793
 2091.7948     5.449    2.8611    0.0000   503.269   200.000     8.607
 2091.9472    13.012    3.0490    0.0000  1430.770   200.000     9.136
 2092.0996     5.272    2.9472    0.0000   511.175   200.000     8.308
 2092.2520     4.289    2.8873    0.0000   771.973   200.000     7.818
 2092.4044     0.819    2.9847    0.0000  2001.204   200.000     8.294
 2092.5568     6.842    3.0108    0.0000  1422.218   200.000     8.257
 2092.7092     9.908    3.0581    0.0000   934.912   200.000     8.660
 2092.8616    10.776    2.8068    0.0000  1270.193   200.000     8.689
 2093.0140    13.167    2.9466    0.0000  1165.729   200.000     8.627
 2093.1664     5.573    3.0012    0.0000  1301.583   200.000     8.687
 2093.3188     2.299    3.0048    0.0000   374.637   200.000     8.396
 2093.4712     8.901    3.0086    0.0000  1728.274   200.000     8.737
 2093.6236     5.743    2.9538    0.0000  1106.762   200.000     8.057
 2093.7760     9.513    2.8731    0.0000   856.505   200.000     8.397
 2093.9284     3.427    3.0177    0.0000  2155.877   200.000     8.547
 2094.0808     5.817    2.9410    0.0000   251.699   200.000     8.520
 2094.2332    11.540    2.9585    0.0000   923.429   200.000     8.297
 2094.3856     5.594    2.8288    0.0000  2771.201   200.000     8.488
 2094.5380     5.983    3.0268    0.0000  1475.477   200.000     8.482
 2094.6904     5.877    3.0121    0.0000  1239.308   200.000     8.516
 2094.8428    10.198    2.9948    0.0000   244.198   200.000     8.663
 2094.9952     8.516    3.0883    0.0000   773.088   200.000     8.887
 2095.1476     2.243    2.8262    0.0000   599.334   200.000     8.175
 2095.3000     7.676    2.9595    0.0000  1226.747   200.000     7.910
 2095.4524     7.504    2.9802    0.0000   554.727   200.000     8.724
 2095.6048     3.967    2.9415    0.0000  1023.769   200.000     8.819
 2095.7572     6.356    2.9832    0.0000   477.985   200.000     8.660
 2095.9096     2.991    2.9363    0.0000  1310.844   200.000     8.154
 2096.0620     4.922    3.0127    0.0000  1737.502   200.000     8.429
 2096.2144     6.995    3.0441    0.0000   637.594   200.000     8.315
 2096.3668     4.848    2.9011    0.0000   417.376   200.000     8.385
 2096.5192     4.839    2.8729    0.0000  1001.312   200.000     7.760
 2096.6716     8.019    2.9184    0.0000   491.015   200.000     8.634
 2096.8240     8.078    2.8171    0.0000  1767.976   200.000     9.109
 2096.9764    10.632    2.9427    0.0000   898.896   200.000     8.427
 2097.1288     6.194    3.1000    0.0000   416.356   200.000     8.081
 2097.2812     3.856    2.9802    0.0000  1132.927   200.000     8.337
 2097.4336     6.886    2.8659    0.0000   732.815   200.000     8.160
 2097.5860     5.071    2.9269    0.0000   980.882   200.000     8.755
 2097.7384     3.436    2.9143    0.0000   488.874   200.000     8.856
 2097.8908     5.387    2.9862    0.0000   648.896   200.000     8.556
 2098.0432     5.017    2.9419    0.0000   405.364   200.000     9.227
 2098.1956     4.668    2.9011    0.0000   676.633   200.000     8.530
 2098.3480     6.675    2.9443    0.0000  1525.752   200.000     8.650
 2098.5004    11.460    3.0465    0.0000  1064.648   200.000     8.339
 2098.6528     6.246    2.8078    0.0000   927.904   200.000     8.790
 2098.8052     8.514    2.9734    0.0000  2473.542   200.000     8.826
 2098.9576    13.856    2.9942    0.0000   562.875   200.000     7.705
 2099.1100    -0.578    2.9636    0.0000   589.581   200.000     8.903
 2099.2624    -0.105    3.0215    0.0000   393.512   200.000     7.860
