~VERSION INFORMATION
 VERS.                 2.0    : CWLS LOG ASCII STANDARD
 WRAP.                 NO     : ONE LINE PER DEPTH STEP
~WELL INFORMATION
 WELL.                 Ghawar-D1    : Well name
 FLD .                 Ghawar         : Field
 CTRY.                 Saudi Arabia       : Country
 STRT.M                1600.0000 : START DEPTH
 STOP.M                2800.0000   : STOP DEPTH
 STEP.M                0.1524        : STEP
 NULL.                 -999.25          : NULL VALUE
 SRVC.                 SubsurfAI        : Service company
~CURVE INFORMATION
 DEPT.M                              : Depth
 GR  .GAPI                           : Gamma Ray
 RHOB.G/C3                           : Bulk Density
 NPHI.V/V                            : Neutron Porosity
 RT  .OHMM                           : True Resistivity
 DT  .US/F                           : Sonic
 CALI.IN                             : Caliper
~PARAMETER INFORMATION
 LAT .                 25.1234   : Latitude
 LON .                 49.3421   : Longitude
 DESC.                 Ghawar — Arab-D carbonate reservoir, world largest oil field
~A  DEPT        GR        RHOB      NPHI      RT        DT        CALI
# ...
 2306.0692    11.661    2.9564    0.0000   740.590   200.000     9.320
 2306.2216     2.321    3.0263    0.0000   652.106   200.000     8.165
 2306.3740     1.165    2.9288    0.0000   643.247   200.000     9.214
 2306.5264     5.318    2.9698    0.0000  1338.318   200.000     8.600
 2306.6788     6.352    2.9350    0.0000  1304.713   200.000     8.667
 2306.8312     2.400    3.0301    0.0000   465.071   200.000     8.366
 2306.9836     1.410    2.9149    0.0000  1424.132   200.000     8.896
 2307.1360     9.284    2.8624    0.0000   703.777   200.000     8.539
 2307.2884     5.322    2.8803    0.0000  1226.516   200.000     8.274
 2307.4408     2.720    3.0063    0.0000  1064.686   200.000     8.390
 2307.5932     7.668    2.9839    0.0000   428.643   200.000     8.560
 2307.7456     6.553    2.9021    0.0000   917.849   200.000     8.814
 2307.8980     5.957    2.9046    0.0000   902.596   200.000     8.922
 2308.0504     5.255    2.8718    0.0000   771.283   200.000     8.314
 2308.2028     5.916    2.9206    0.0000   963.241   200.000     8.970
 2308.3552     7.545    3.0224    0.0000  1094.139   200.000     8.585
 2308.5076     2.529    2.9637    0.0000  1300.902   200.000     8.695
 2308.6600     5.094    3.0426    0.0000   382.268   200.000     8.500
 2308.8124     7.400    3.0060    0.0000   587.489   200.000     8.005
 2308.9648     8.573    3.0489    0.0000   999.885   200.000     8.524
 2309.1172    10.498    2.8190    0.0000   480.031   200.000     8.535
 2309.2696     3.967    2.9793    0.0000   627.318   200.000     8.627
 2309.4220     1.138    3.0497    0.0000   357.390   200.000     8.400
 2309.5744     9.358    2.9523    0.0000  1267.028   200.000     8.611
 2309.7268     6.517    2.9090    0.0000   693.527   200.000     7.797
 2309.8792     4.979    2.8962    0.0000  1238.923   200.000     8.226
 2310.0316     4.975    2.8662    0.0000   984.469   200.000     7.932
 2310.1840     2.179    2.8367    0.0000  2267.014   200.000     8.876
 2310.3364     3.006    2.9455    0.0000   886.638   200.000     8.582
 2310.4888     7.661    2.9496    0.0000  1586.144   200.000     7.854
 2310.6412     8.821    2.9132    0.0000   726.294   200.000     8.899
 2310.7936     4.833    2.9377    0.0000  2099.177   200.000     8.791
 2310.9460     8.679    2.9705    0.0000   654.636   200.000     8.856
 2311.0984    11.403    3.0327    0.0000   786.355   200.000     8.480
 2311.2508     7.020    2.9268    0.0000   436.727   200.000     8.071
 2311.4032     0.919    2.9494    0.0000  2283.265   200.000     8.369
 2311.5556     6.629    2.8191    0.0000   341.908   200.000     8.124
 2311.7080     7.475    2.8952    0.0000  1478.347   200.000     7.965
 2311.8604    11.383    2.9652    0.0000  1847.446   200.000     8.383
 2312.0128     6.113    2.9409    0.0000  1555.255   200.000     8.722
 2312.1652     8.703    2.9770    0.0000   377.493   200.000     8.162
 2312.3176     8.804    3.0031    0.0000  1570.811   200.000     8.779
 2312.4700     3.244    2.9570    0.0000   453.768   200.000     8.402
 2312.6224     5.538    2.9983    0.0000   913.581   200.000     8.686
 2312.7748     7.668    3.0724    0.0000   448.625   200.000     8.774
 2312.9272     5.679    2.9300    0.0000   647.255   200.000     8.801
 2313.0796     5.927    2.8690    0.0000  1093.340   200.000     8.332
 2313.2320     9.839    2.9311    0.0000  1934.485   200.000     8.619
 2313.3844     4.477    2.9732    0.0000   520.286   200.000     9.001
 2313.5368     5.463    3.0008    0.0000  1239.887   200.000     8.265
 2313.6892     6.990    2.9257    0.0000  1336.846   200.000     8.465
 2313.8416     1.034    2.8657    0.0000   982.291   200.000     8.265
 2313.9940     6.900    2.9694    0.0000   866.334   200.000     8.581
 2314.1464     3.934    3.0027    0.0000  1016.291   200.000     7.994
 2314.2988     7.885    2.9509    0.0000  1300.439   200.000     8.652
 2314.4512     3.151    2.9482    0.0000   783.868   200.000     8.228
 2314.6036     6.680    2.9561    0.0000   588.198   200.000     8.442
 2314.7560     4.860    2.8762    0.0000  1212.515   200.000     8.383
 2314.9084     6.366    2.9451    0.0000  1103.797   200.000     8.662
 2315.0608     9.604    2.9749    0.0000   439.892   200.000     8.545
 2315.2132    11.377    2.9458    0.0000   924.449   200.000     8.952
 2315.3656     4.654    3.0222    0.0000   846.750   200.000     8.579
 2315.5180     4.556    3.0035    0.0000   874.391   200.000     8.315
 2315.6704     1.043    2.9337    0.0000   431.991   200.000     8.863
 2315.8228     5.659    2.8614    0.0000   422.664   200.000     8.478
 2315.9752    11.804    2.8820    0.0000   908.929   200.000     8.516
 2316.1276     0.596    2.9053    0.0000  1220.954   200.000     8.949
 2316.2800     2.905    2.9370    0.0000   555.212   200.000     8.892
 2316.4324     6.662    2.9098    0.0000   694.278   200.000     9.013
 2316.5848     4.603    2.9671    0.0000   903.537   200.000     7.844
 2316.7372     7.160    2.9224    0.0000  1148.827   200.000     8.611
 2316.8896     3.755    3.0013    0.0000   831.234   200.000     8.415
 2317.0420     8.571    2.9352    0.0000  1992.414   200.000     8.753
 2317.1944     4.127    2.8666    0.0000   960.740   200.000     7.687
 2317.3468     5.443    3.0074    0.0000  1804.056   200.000     8.577
 2317.4992     4.329    3.0298    0.0000   892.402   200.000     8.723
 2317.6516     2.459    2.8962    0.0000  1043.602   200.000     8.811
 2317.8040     7.655    2.8728    0.0000   708.393   200.000     8.517
 2317.9564     7.986    2.9212    0.0000   965.446   200.000     8.553
 2318.1088     4.820    2.9499    0.0000  1699.592   200.000     8.772
 2318.2612     6.352    2.9899    0.0000   890.513   200.000     8.696
 2318.4136     8.103    2.9335    0.0000   328.506   200.000     9.010
 2318.5660     2.924    2.9767    0.0000  3096.966   200.000     7.695
 2318.7184     9.311    2.9477    0.0000  2531.643   200.000     7.963
 2318.8708     5.231    3.0119    0.0000   992.769   200.000     8.764
 2319.0232     8.271    2.8992    0.0000   535.108   200.000     7.300
 2319.1756     5.545    2.8511    0.0000  1337.286   200.000     8.648
 2319.3280    11.330    2.8884    0.0000  1079.503   200.000     8.790
 2319.4804     6.053    2.9924    0.0000  1382.531   200.000     8.071
 2319.6328     5.863    2.9370    0.0000   633.829   200.000     9.119
 2319.7852     6.473    3.0204    0.0000   520.388   200.000     8.655
 2319.9376     5.314    2.8260    0.0000   946.288   200.000     8.732
 2320.0900    11.625    2.7627    0.0985    86.245   200.000     8.521
 2320.2424    14.893    2.6442    0.1142   296.340   200.000     8.501
 2320.3948     9.377    2.5912    0.1116    60.756   200.000     8.379
 2320.5472    14.563    2.6685    0.1100   209.932   200.000     8.792
 2320.6996    13.975    2.7221    0.1044   102.435   200.000     7.895
 2320.8520    13.515    2.6370    0.1017   224.410   200.000     7.698
 2321.0044    15.442    2.7096    0.1096    30.817   200.000     8.760
 2321.1568    21.971    2.5994    0.1337   116.698   200.000     8.480
 2321.3092    16.478    2.6752    0.1304   206.455   200.000     8.811
 2321.4616    10.719    2.5720    0.1016   114.063   200.000     9.065
 2321.6140    18.294    2.6093    0.0775   141.041   200.000     8.407
 2321.7664    14.061    2.5866    0.0857    69.227   200.000     7.776
 2321.9188    12.922    2.6629    0.1077   218.483   200.000     7.754
 2322.0712    14.253    2.6827    0.1037   163.855   200.000     8.083
 2322.2236    14.307    2.6379    0.0924   202.516   200.000     8.588
 2322.3760     9.693    2.6387    0.1141   182.493   200.000     7.742
 2322.5284    16.752    2.5920    0.1060    92.215   200.000     8.474
 2322.6808    15.888    2.6827    0.0986   111.238   200.000     8.214
 2322.8332    18.503    2.5856    0.1163    71.094   200.000     8.090
 2322.9856    15.722    2.6784    0.1020   199.786   200.000     8.356
 2323.1380    10.330    2.6247    0.1055   178.967   200.000     8.487
