~VERSION INFORMATION
 VERS.                 2.0    : CWLS LOG ASCII STANDARD
 WRAP.                 NO     : ONE LINE PER DEPTH STEP
~WELL INFORMATION
 WELL.                 Ghawar-D1    : Well name
 FLD .                 Ghawar         : Field
 CTRY.                 Saudi Arabia       : Country
 STRT.M                1600.0000 : START DEPTH
 STOP.M                2800.0000   : STOP DEPTH
 STEP.M                0.1524        : STEP
 NULL.                 -999.25          : NULL VALUE
 SRVC.                 SubsurfAI        : Service company
~CURVE INFORMATION
 DEPT.M                              : Depth
 GR  .GAPI                           : Gamma Ray
 RHOB.G/C3                           : Bulk Density
 NPHI.V/V                            : Neutron Porosity
 RT  .OHMM                           : True Resistivity
 DT  .US/F                           : Sonic
 CALI.IN                             : Caliper
~PARAMETER INFORMATION
 LAT .                 25.1234   : Latitude
 LON .                 49.3421   : Longitude
 DESC.                 Ghawar — Arab-D carbonate reservoir, world largest oil field
~A  DEPT        GR        RHOB      NPHI      RT        DT        CALI
# ...
 1754.9908    20.889    2.6263    0.0619    46.453   200.000     7.477
 1755.1432    20.360    2.5962    0.1027   128.356   200.000     8.277
 1755.2956    12.049    2.7259    0.0753   329.343   200.000     8.543
 1755.4480    16.160    2.6239    0.0847   170.028   200.000     8.422
 1755.6004    22.216    2.6568    0.1223    68.157   200.000     8.950
 1755.7528    20.189    2.6688    0.0938   124.086   200.000     7.875
 1755.9052     9.390    2.6957    0.0865    90.120   200.000     8.367
 1756.0576    15.608    2.6899    0.1035   106.508   200.000     8.289
 1756.2100    17.795    2.7673    0.0938    62.992   200.000     8.196
 1756.3624    19.170    2.6417    0.0682   119.733   200.000     8.189
 1756.5148    14.462    2.7007    0.0579    77.447   200.000     8.016
 1756.6672    21.115    2.5741    0.0859   114.339   200.000     8.551
 1756.8196    18.770    2.6431    0.0877    55.222   200.000     8.228
 1756.9720    26.518    2.5687    0.0824    69.948   200.000     8.384
 1757.1244    18.030    2.6237    0.1017    48.771   200.000     8.416
 1757.2768    17.828    2.6575    0.0926    31.454   200.000     8.911
 1757.4292    14.380    2.6526    0.0728    95.010   200.000     8.108
 1757.5816    21.063    2.6966    0.1033   142.316   200.000     8.714
 1757.7340    20.297    2.6603    0.1059    38.686   200.000     8.887
 1757.8864    15.939    2.6090    0.1023   119.975   200.000     9.043
 1758.0388    16.558    2.6020    0.0953    83.714   200.000     8.933
 1758.1912    14.756    2.6963    0.0847   100.959   200.000     7.826
 1758.3436    23.667    2.7264    0.0812    82.225   200.000     8.717
 1758.4960    17.240    2.6546    0.0877   128.598   200.000     8.527
 1758.6484    16.776    2.6314    0.1087    63.524   200.000     8.153
 1758.8008    18.528    2.5886    0.1064   195.884   200.000     8.337
 1758.9532    13.520    2.7212    0.0938   128.496   200.000     8.279
 1759.1056    21.968    2.5113    0.0845    64.450   200.000     8.353
 1759.2580    18.097    2.5842    0.0909   137.764   200.000     8.055
 1759.4104    16.136    2.6312    0.0799    44.117   200.000     8.623
 1759.5628    16.423    2.5790    0.0885    89.743   200.000     8.149
 1759.7152    10.721    2.6526    0.0887    84.412   200.000     8.282
 1759.8676    17.707    2.7080    0.0713    92.069   200.000     8.778
 1760.0200    21.838    2.6497    0.1012    80.773   200.000     8.953
 1760.1724    10.435    2.5831    0.1127   102.259   200.000     7.905
 1760.3248    21.135    2.5967    0.0724   163.325   200.000     8.453
 1760.4772    18.034    2.7234    0.1101    98.222   200.000     8.630
 1760.6296    21.434    2.7222    0.1004   123.538   200.000     7.992
 1760.7820    13.570    2.6698    0.0801    90.733   200.000     9.532
 1760.9344    20.007    2.5657    0.0884    25.403   200.000     8.577
 1761.0868    21.974    2.7194    0.0876    76.542   200.000     8.367
 1761.2392    16.065    2.6457    0.0762    35.881   200.000     9.028
 1761.3916    17.258    2.5799    0.0994   149.592   200.000     7.990
 1761.5440    20.155    2.7137    0.0969   124.364   200.000     8.420
 1761.6964    17.057    2.6756    0.0802    50.129   200.000     8.357
 1761.8488    21.985    2.6731    0.0884    61.547   200.000     9.174
 1762.0012    14.640    2.6770    0.0915    71.721   200.000     8.711
 1762.1536    20.181    2.7207    0.0868   198.642   200.000     7.975
 1762.3060    19.700    2.6940    0.1063    66.023   200.000     8.009
 1762.4584    20.084    2.6420    0.0979    56.216   200.000     7.965
 1762.6108    14.262    2.6616    0.0994    82.378   200.000     8.994
 1762.7632    17.382    2.6939    0.0915    20.681   200.000     8.086
 1762.9156    14.599    2.7219    0.0967   109.052   200.000     8.850
 1763.0680    15.978    2.7042    0.1085    89.004   200.000     8.543
 1763.2204    20.488    2.6797    0.1003    97.116   200.000     8.367
 1763.3728    22.589    2.6371    0.0791   100.959   200.000     8.999
 1763.5252    11.958    2.5903    0.0807    60.286   200.000     8.848
 1763.6776    17.870    2.6053    0.0704    28.979   200.000     8.690
 1763.8300    25.283    2.6781    0.0626    30.879   200.000     8.193
 1763.9824    22.064    2.5957    0.0695   114.902   200.000     7.382
 1764.1348    16.945    2.6397    0.0730    96.514   200.000     8.033
 1764.2872    13.846    2.6033    0.0992   100.901   200.000     8.388
 1764.4396    10.687    2.7149    0.0827    62.082   200.000     8.342
 1764.5920    11.485    2.7843    0.1102   123.983   200.000     8.675
 1764.7444    19.005    2.5907    0.0915    82.660   200.000     9.020
 1764.8968    14.885    2.7814    0.0940   120.415   200.000     8.013
 1765.0492    21.193    2.6322    0.1228    92.888   200.000     8.906
 1765.2016    19.135    2.6641    0.0950   109.509   200.000     8.339
 1765.3540    20.380    2.6580    0.0999    40.455   200.000     8.898
 1765.5064    17.284    2.7202    0.0753    32.169   200.000     8.398
 1765.6588    15.711    2.5471    0.1054    38.514   200.000     9.119
 1765.8112    14.688    2.5315    0.0995    80.935   200.000     8.860
 1765.9636    22.135    2.6343    0.0851    35.608   200.000     8.774
 1766.1160    21.422    2.6048    0.1034    41.932   200.000     8.604
 1766.2684    19.573    2.7180    0.0984    87.214   200.000     8.145
 1766.4208    17.712    2.7143    0.1075    84.641   200.000     8.496
 1766.5732    11.833    2.6824    0.0734   107.104   200.000     8.557
 1766.7256    18.460    2.7155    0.0846    66.302   200.000     8.493
 1766.8780    13.860    2.6512    0.0864    84.439   200.000     8.584
 1767.0304    23.539    2.7416    0.1086    66.633   200.000     8.337
 1767.1828    17.248    2.7647    0.0629   166.429   200.000     8.913
 1767.3352    19.757    2.7105    0.1140    39.706   200.000     9.180
 1767.4876    19.262    2.5645    0.1012   118.879   200.000     8.245
 1767.6400    15.582    2.6498    0.0642    26.079   200.000     8.720
 1767.7924    21.085    2.6325    0.1145   197.210   200.000     8.502
 1767.9448    14.725    2.5530    0.0976    42.361   200.000     8.983
 1768.0972    12.899    2.6745    0.1253    96.204   200.000     9.156
 1768.2496    13.515    2.7051    0.0962    35.111   200.000     8.747
 1768.4020    18.499    2.7038    0.1013    70.662   200.000     8.287
 1768.5544    14.124    2.7129    0.0937    56.692   200.000     8.998
 1768.7068    20.485    2.6659    0.0941    93.030   200.000     8.465
 1768.8592    13.223    2.6337    0.0961    69.638   200.000     8.511
 1769.0116    19.764    2.7485    0.0944    41.402   200.000     8.434
 1769.1640    20.567    2.6034    0.0891    76.148   200.000     7.717
 1769.3164    16.413    2.6810    0.0547    67.354   200.000     8.540
 1769.4688    20.273    2.6444    0.0792   132.969   200.000     9.474
 1769.6212    16.973    2.6307    0.0693    52.589   200.000     8.527
 1769.7736    21.717    2.6111    0.0885   112.895   200.000     8.086
 1769.9260    17.824    2.6961    0.0844    99.079   200.000     8.847
 1770.0784    23.913    2.5821    0.0773   131.676   200.000     9.304
 1770.2308    26.494    2.6008    0.1026    77.897   200.000     7.960
 1770.3832    12.843    2.7607    0.0944    85.841   200.000     8.200
 1770.5356    19.532    2.6081    0.0902    94.493   200.000     8.493
 1770.6880    15.949    2.6788    0.0716   183.096   200.000     7.965
 1770.8404    18.909    2.6925    0.0835    58.042   200.000     7.535
 1770.9928    20.681    2.6293    0.0768   110.487   200.000     8.560
 1771.1452    13.293    2.6419    0.0908    66.963   200.000     8.701
 1771.2976    16.345    2.7257    0.0742    68.941   200.000     8.747
 1771.4500    24.749    2.5830    0.0871    71.832   200.000     8.736
 1771.6024    20.419    2.8065    0.0604    36.937   200.000     8.797
 1771.7548    19.529    2.6417    0.1102   140.462   200.000     8.049
 1771.9072    13.478    2.6282    0.0918   185.204   200.000     8.317
 1772.0596    19.005    2.6293    0.0787    70.346   200.000     8.461
