~VERSION INFORMATION
 VERS.                 2.0    : CWLS LOG ASCII STANDARD
 WRAP.                 NO     : ONE LINE PER DEPTH STEP
~WELL INFORMATION
 WELL.                 Ghawar-D1    : Well name
 FLD .                 Ghawar         : Field
 CTRY.                 Saudi Arabia       : Country
 STRT.M                1600.0000 : START DEPTH
 STOP.M                2800.0000   : STOP DEPTH
 STEP.M                0.1524        : STEP
 NULL.                 -999.25          : NULL VALUE
 SRVC.                 SubsurfAI        : Service company
~CURVE INFORMATION
 DEPT.M                              : Depth
 GR  .GAPI                           : Gamma Ray
 RHOB.G/C3                           : Bulk Density
 NPHI.V/V                            : Neutron Porosity
 RT  .OHMM                           : True Resistivity
 DT  .US/F                           : Sonic
 CALI.IN                             : Caliper
~PARAMETER INFORMATION
 LAT .                 25.1234   : Latitude
 LON .                 49.3421   : Longitude
 DESC.                 Ghawar — Arab-D carbonate reservoir, world largest oil field
~A  DEPT        GR        RHOB      NPHI      RT        DT        CALI
 1600.0000    19.670    2.6738    0.0859   140.291   200.000     8.391
 1600.1524    21.958    2.6274    0.0616    25.728   200.000     8.009
 1600.3048    27.036    2.7184    0.0852   120.783   200.000     8.179
 1600.4572    18.532    2.6683    0.1040    47.015   200.000     8.466
 1600.6096    17.166    2.7710    0.0671    22.739   200.000     8.684
 1600.7620    16.055    2.7191    0.1074   135.020   200.000     8.246
 1600.9144    13.983    2.6932    0.0951    74.815   200.000     8.454
 1601.0668    14.957    2.5968    0.0830    81.380   200.000     8.213
 1601.2192    22.991    2.7446    0.1042    50.969   200.000     8.354
 1601.3716    16.873    2.6348    0.0919    73.175   200.000     9.002
 1601.5240    20.283    2.6675    0.1099    77.063   200.000     8.610
 1601.6764    16.092    2.6887    0.0990   167.412   200.000     8.704
 1601.8288    18.460    2.7070    0.1231   164.190   200.000     7.764
 1601.9812    16.484    2.6335    0.1028    36.312   200.000     8.820
 1602.1336    18.419    2.7051    0.0998   108.974   200.000     7.982
 1602.2860    14.673    2.6342    0.0849    84.382   200.000     8.391
 1602.4384    22.203    2.7563    0.0944    60.080   200.000     9.153
 1602.5908    15.437    2.6258    0.0647   108.103   200.000     8.847
 1602.7432    13.829    2.6945    0.0800    41.651   200.000     8.027
 1602.8956    23.175    2.6539    0.0830    96.102   200.000     8.380
 1603.0480    18.349    2.7260    0.0963    60.612   200.000     8.030
 1603.2004    14.742    2.6371    0.0724    41.415   200.000     8.577
 1603.3528    17.816    2.7233    0.0857   121.542   200.000     8.815
 1603.5052    11.801    2.6750    0.1037   102.881   200.000     8.236
 1603.6576    13.890    2.6477    0.0902    31.334   200.000     8.286
 1603.8100    13.099    2.6982    0.0802    31.021   200.000     8.655
 1603.9624    19.751    2.7013    0.1043    23.567   200.000     8.131
 1604.1148    16.978    2.6657    0.1154    58.955   200.000     7.344
 1604.2672    18.833    2.7478    0.0778    56.565   200.000     9.328
 1604.4196    15.358    2.7250    0.0778    89.614   200.000     8.672
 1604.5720    17.216    2.7426    0.0803    54.504   200.000     8.065
 1604.7244    15.646    2.6393    0.0931    73.426   200.000     8.603
 1604.8768    14.060    2.6638    0.0972    60.521   200.000     9.140
 1605.0292    15.100    2.6737    0.1055    45.108   200.000     8.721
 1605.1816    19.247    2.6935    0.1055    41.117   200.000     9.055
 1605.3340    30.199    2.6690    0.0787   223.098   200.000     7.887
 1605.4864    13.985    2.6214    0.0941   104.651   200.000     8.362
 1605.6388    24.003    2.6493    0.1159    89.240   200.000     8.161
 1605.7912    20.329    2.6741    0.1071    56.409   200.000     7.930
 1605.9436    20.067    2.6618    0.0759   180.896   200.000     8.942
 1606.0960    13.878    2.6629    0.0821    52.752   200.000     8.357
 1606.2484    15.214    2.7638    0.0682   130.304   200.000     8.832
 1606.4008    19.659    2.6523    0.0730    54.854   200.000     9.049
 1606.5532    17.811    2.7658    0.1014    48.589   200.000     7.840
 1606.7056    19.146    2.6800    0.0828   162.298   200.000     8.171
 1606.8580    13.810    2.7002    0.0973   190.854   200.000     8.514
 1607.0104    14.147    2.6587    0.0762    48.793   200.000     8.895
 1607.1628    17.919    2.6450    0.0612    40.448   200.000     8.354
 1607.3152    15.288    2.6869    0.0961    81.921   200.000     8.280
 1607.4676    18.551    2.6369    0.0987    57.122   200.000     7.921
 1607.6200    24.351    2.6359    0.0807   153.054   200.000     8.673
 1607.7724    18.057    2.6384    0.0726    76.884   200.000     8.909
 1607.9248    20.635    2.6191    0.0983    95.182   200.000     7.946
 1608.0772    17.701    2.7446    0.1115    80.341   200.000     9.049
 1608.2296    15.090    2.6158    0.0861    37.197   200.000     8.361
 1608.3820    20.596    2.6811    0.0792   126.217   200.000     8.946
 1608.5344    14.316    2.7041    0.0827    83.391   200.000     8.358
 1608.6868    16.313    2.6435    0.1084    39.783   200.000     8.954
 1608.8392    16.613    2.6510    0.1004    53.730   200.000     8.007
 1608.9916    15.963    2.6980    0.1053    41.021   200.000     8.284
 1609.1440    18.623    2.6883    0.0935    55.223   200.000     8.805
 1609.2964    21.346    2.6023    0.0754    36.132   200.000     8.334
 1609.4488    16.898    2.6468    0.0766    69.267   200.000     8.530
 1609.6012    18.371    2.6344    0.0876    50.796   200.000     9.173
 1609.7536    19.851    2.6512    0.0919    91.010   200.000     8.166
 1609.9060    17.605    2.6999    0.0945    31.005   200.000     8.186
 1610.0584    19.062    2.6423    0.1082   141.000   200.000     8.740
 1610.2108    21.229    2.6240    0.0807    33.240   200.000     8.316
 1610.3632    24.058    2.6257    0.0714   137.585   200.000     8.574
 1610.5156     8.293    2.6806    0.0811   123.208   200.000     9.215
 1610.6680    21.404    2.6548    0.0944    56.823   200.000     8.733
 1610.8204    19.019    2.6060    0.0589    44.890   200.000     9.205
 1610.9728    20.170    2.6460    0.0844   277.458   200.000     8.197
 1611.1252    22.211    2.6740    0.0881   233.798   200.000     8.185
 1611.2776    14.827    2.6222    0.0971    79.523   200.000     8.470
 1611.4300    19.843    2.5668    0.0947    62.747   200.000     9.114
 1611.5824    13.850    2.6916    0.1109    28.735   200.000     8.628
 1611.7348    22.676    2.6347    0.0986    73.356   200.000     8.900
 1611.8872    20.417    2.7613    0.0829   120.167   200.000     8.244
 1612.0396    18.993    2.7025    0.1088   100.598   200.000     8.628
 1612.1920    22.872    2.6395    0.1081   136.478   200.000     7.923
 1612.3444    23.346    2.6595    0.0995    84.180   200.000     8.815
 1612.4968    13.465    2.7184    0.1061    41.208   200.000     8.451
 1612.6492     5.832    2.6687    0.0917    50.121   200.000     7.720
 1612.8016    18.163    2.6161    0.0981    90.247   200.000     7.708
 1612.9540    24.303    2.6410    0.0869   122.837   200.000     8.632
 1613.1064    23.178    2.7641    0.1005    34.489   200.000     7.892
 1613.2588    13.137    2.6236    0.0986   110.385   200.000     8.490
 1613.4112    14.407    2.6852    0.0934    86.849   200.000     8.830
 1613.5636    18.366    2.6209    0.0847   111.639   200.000     8.388
 1613.7160    14.546    2.6568    0.0825   147.506   200.000     8.011
 1613.8684    15.571    2.5967    0.0926   119.650   200.000     8.644
 1614.0208    18.393    2.6611    0.0797   112.457   200.000     8.475
 1614.1732    13.381    2.7180    0.0957   153.374   200.000     8.545
 1614.3256    21.488    2.6407    0.0915    24.850   200.000     8.041
 1614.4780    18.628    2.6367    0.0887    99.230   200.000     8.504
 1614.6304    23.462    2.6728    0.0719    25.619   200.000     8.678
 1614.7828    16.523    2.6292    0.0919    65.204   200.000     8.343
 1614.9352    21.957    2.5758    0.0787    56.022   200.000     8.142
 1615.0876    19.863    2.6368    0.0698   171.022   200.000     8.416
 1615.2400    21.149    2.6564    0.0934   360.246   200.000     8.651
 1615.3924    23.893    2.6750    0.1087    93.808   200.000     8.519
 1615.5448    21.279    2.5287    0.0916    68.580   200.000     8.921
 1615.6972    13.982    2.6141    0.0717    55.710   200.000     8.488
 1615.8496    13.514    2.7093    0.1021    66.527   200.000     8.647
 1616.0020    15.258    2.6859    0.1050   140.217   200.000     8.427
 1616.1544    14.653    2.6453    0.0915    65.111   200.000     9.014
 1616.3068    15.293    2.6557    0.0901   132.927   200.000     8.300
 1616.4592    13.900    2.6910    0.0751   126.005   200.000     9.204
 1616.6116    20.640    2.5860    0.0776    81.551   200.000     8.459
 1616.7640    14.749    2.6685    0.0777    35.206   200.000     8.974
 1616.9164    14.949    2.7224    0.0992   116.964   200.000     8.816
 1617.0688    12.369    2.6278    0.0970   100.782   200.000     8.042
