~VERSION INFORMATION
 VERS.                 2.0    : CWLS LOG ASCII STANDARD
 WRAP.                 NO     : ONE LINE PER DEPTH STEP
~WELL INFORMATION
 WELL.                 Ghawar-D1    : Well name
 FLD .                 Ghawar         : Field
 CTRY.                 Saudi Arabia       : Country
 STRT.M                1600.0000 : START DEPTH
 STOP.M                2800.0000   : STOP DEPTH
 STEP.M                0.1524        : STEP
 NULL.                 -999.25          : NULL VALUE
 SRVC.                 SubsurfAI        : Service company
~CURVE INFORMATION
 DEPT.M                              : Depth
 GR  .GAPI                           : Gamma Ray
 RHOB.G/C3                           : Bulk Density
 NPHI.V/V                            : Neutron Porosity
 RT  .OHMM                           : True Resistivity
 DT  .US/F                           : Sonic
 CALI.IN                             : Caliper
~PARAMETER INFORMATION
 LAT .                 25.1234   : Latitude
 LON .                 49.3421   : Longitude
 DESC.                 Ghawar — Arab-D carbonate reservoir, world largest oil field
~A  DEPT        GR        RHOB      NPHI      RT        DT        CALI
# ...
 2151.0784     8.896    3.0685    0.0000   419.436   200.000     8.288
 2151.2308    10.853    2.8678    0.0000  1069.893   200.000     9.122
 2151.3832    10.146    3.0110    0.0000  1013.314   200.000     8.287
 2151.5356     8.769    2.8986    0.0000  1612.255   200.000     8.665
 2151.6880    10.215    2.9094    0.0000   371.675   200.000     8.353
 2151.8404     5.630    2.9388    0.0000   528.112   200.000     8.182
 2151.9928     7.032    2.9424    0.0000   261.996   200.000     8.409
 2152.1452     8.123    2.9625    0.0000  1254.713   200.000     8.921
 2152.2976     4.254    2.9288    0.0000  1060.935   200.000     7.786
 2152.4500     1.948    2.9463    0.0000  1759.830   200.000     7.514
 2152.6024     5.566    2.9588    0.0000   581.585   200.000     9.551
 2152.7548     9.697    2.9044    0.0000  1895.812   200.000     8.743
 2152.9072     6.114    2.9227    0.0000  1264.078   200.000     8.541
 2153.0596     6.619    3.0663    0.0000  1204.455   200.000     8.751
 2153.2120     6.373    2.9987    0.0000  1415.552   200.000     8.630
 2153.3644     7.196    2.8996    0.0000  1005.879   200.000     7.912
 2153.5168     4.570    2.8538    0.0000   465.209   200.000     8.895
 2153.6692    11.296    2.9176    0.0000   954.293   200.000     9.555
 2153.8216    11.050    2.8840    0.0000   404.917   200.000     8.816
 2153.9740    11.011    2.8470    0.0000  2555.836   200.000     8.474
 2154.1264     2.220    2.9912    0.0000  1602.282   200.000     8.248
 2154.2788     4.681    2.9177    0.0000  2881.949   200.000     7.962
 2154.4312     6.723    2.8799    0.0000  1525.183   200.000     8.481
 2154.5836     6.989    2.9312    0.0000  1571.841   200.000     8.273
 2154.7360     8.869    2.9511    0.0000   454.220   200.000     8.580
 2154.8884    -0.406    2.9483    0.0000  1710.022   200.000     8.897
 2155.0408     6.918    2.9402    0.0000   799.398   200.000     8.009
 2155.1932     1.816    3.0278    0.0000   531.476   200.000     8.573
 2155.3456     4.423    3.0027    0.0000   898.948   200.000     8.585
 2155.4980     3.520    2.9072    0.0000   833.085   200.000     8.498
 2155.6504     2.809    2.9451    0.0000  2145.217   200.000     8.422
 2155.8028     5.559    2.9400    0.0000  1495.452   200.000     7.899
 2155.9552     1.491    2.9784    0.0000   882.798   200.000     8.273
 2156.1076     6.390    2.8400    0.0000  1149.445   200.000     8.336
 2156.2600     7.414    2.8970    0.0000  1998.787   200.000     8.963
 2156.4124     6.196    2.8992    0.0000   769.734   200.000     8.175
 2156.5648     5.087    2.9480    0.0000  1833.304   200.000     8.974
 2156.7172    12.420    2.9440    0.0000   686.983   200.000     8.780
 2156.8696     8.735    2.9831    0.0000   840.880   200.000     8.265
 2157.0220     5.347    2.9662    0.0000   422.648   200.000     8.197
 2157.1744     5.548    2.9539    0.0000  1471.063   200.000     8.665
 2157.3268     6.526    2.9968    0.0000   632.967   200.000     9.172
 2157.4792     4.252    2.9266    0.0000  1421.937   200.000     8.722
 2157.6316     7.655    3.0036    0.0000  1819.096   200.000     8.576
 2157.7840     4.201    2.9695    0.0000  2016.235   200.000     8.540
 2157.9364     6.952    3.0123    0.0000   688.527   200.000     7.946
 2158.0888     4.796    2.9300    0.0000   901.777   200.000     7.509
 2158.2412    11.098    2.8934    0.0000   825.786   200.000     8.894
 2158.3936     8.397    2.9380    0.0000   305.167   200.000     8.594
 2158.5460     2.523    2.8877    0.0000   799.202   200.000     8.336
 2158.6984     3.753    2.9856    0.0000   826.643   200.000     8.585
 2158.8508     3.817    2.8817    0.0000   373.136   200.000     8.558
 2159.0032     5.615    2.9067    0.0000   858.294   200.000     8.788
 2159.1556     4.434    2.9177    0.0000   472.265   200.000     7.743
 2159.3080     9.282    2.9156    0.0000   676.990   200.000     7.861
 2159.4604     6.510    3.0178    0.0000  1008.738   200.000     8.130
 2159.6128     4.226    3.0292    0.0000  1252.299   200.000     8.193
 2159.7652     5.818    2.9785    0.0000   499.518   200.000     8.559
 2159.9176     4.894    2.8873    0.0000   593.753   200.000     8.594
 2160.0700     8.239    2.9941    0.0000  1012.092   200.000     8.605
 2160.2224     6.574    3.0136    0.0000   624.243   200.000     8.593
 2160.3748     7.307    2.8744    0.0000  1017.389   200.000     8.887
 2160.5272     4.724    2.9503    0.0000  1837.304   200.000     8.482
 2160.6796     2.609    2.9231    0.0000  1011.845   200.000     8.953
 2160.8320     7.741    2.9137    0.0000  2157.486   200.000     8.032
 2160.9844     5.048    2.9033    0.0000   483.900   200.000     8.303
 2161.1368     2.407    2.9413    0.0000   761.839   200.000     9.017
 2161.2892     3.230    2.9059    0.0000  1639.461   200.000     8.741
 2161.4416    12.993    3.0420    0.0000  1539.874   200.000     8.387
 2161.5940     4.007    3.0106    0.0000   679.372   200.000     7.965
 2161.7464     4.248    2.9726    0.0000   588.540   200.000     8.378
 2161.8988     2.271    2.8083    0.0000   826.771   200.000     8.285
 2162.0512     1.041    2.9163    0.0000  1112.086   200.000     8.284
 2162.2036     5.669    2.9930    0.0000   412.021   200.000     9.207
 2162.3560     6.588    2.9006    0.0000   558.060   200.000     8.597
 2162.5084     3.853    2.9398    0.0000   404.792   200.000     7.720
 2162.6608     5.084    2.9558    0.0000  1034.550   200.000     8.206
 2162.8132     0.874    2.8986    0.0000   868.408   200.000     9.230
 2162.9656     0.868    2.9602    0.0000   392.225   200.000     8.383
 2163.1180     6.503    2.8620    0.0000  1355.332   200.000     8.852
 2163.2704     6.685    2.9072    0.0000   984.043   200.000     7.327
 2163.4228     4.252    2.9640    0.0000  3365.957   200.000     8.329
 2163.5752     5.703    2.9023    0.0000  1148.880   200.000     8.048
 2163.7276     2.008    2.9676    0.0000  2108.703   200.000     8.608
 2163.8800     8.819    2.9372    0.0000   948.258   200.000     9.348
 2164.0324     8.759    2.9158    0.0000  2381.234   200.000     8.706
 2164.1848     5.198    3.0729    0.0000   876.053   200.000     8.699
 2164.3372     5.293    2.8777    0.0000  2807.529   200.000     8.440
 2164.4896     6.533    2.9888    0.0000   780.605   200.000     8.334
 2164.6420     8.213    2.9191    0.0000   624.421   200.000     8.875
 2164.7944     4.749    3.0306    0.0000  1656.628   200.000     8.783
 2164.9468     5.461    2.9737    0.0000   677.061   200.000     8.281
 2165.0992     3.864    2.9631    0.0000  1226.228   200.000     9.703
 2165.2516    10.039    2.9316    0.0000   677.346   200.000     9.085
 2165.4040     6.504    2.9072    0.0000  1230.223   200.000     9.047
 2165.5564     8.227    2.9012    0.0000   707.773   200.000     8.788
 2165.7088     2.619    2.9853    0.0000  1317.733   200.000     8.314
 2165.8612     4.904    3.0063    0.0000  1044.678   200.000     8.364
 2166.0136     4.472    2.8064    0.0000   854.459   200.000     7.677
 2166.1660     1.963    2.9656    0.0000   833.602   200.000     8.058
 2166.3184     1.267    2.9936    0.0000   293.667   200.000     8.302
 2166.4708    10.399    2.8358    0.0000   536.430   200.000     8.825
 2166.6232     6.783    2.9560    0.0000   786.712   200.000     9.011
 2166.7756     8.278    2.9871    0.0000  1728.591   200.000     9.018
 2166.9280     5.436    2.9911    0.0000   524.407   200.000     9.019
 2167.0804     2.505    3.0489    0.0000   839.420   200.000     8.672
 2167.2328    -4.084    3.0671    0.0000  1262.524   200.000     9.048
 2167.3852     6.033    2.9795    0.0000  1349.673   200.000     8.296
 2167.5376     5.195    3.0414    0.0000  1004.851   200.000     8.236
 2167.6900     3.824    2.9552    0.0000   644.306   200.000     7.531
 2167.8424     5.709    2.9017    0.0000   811.124   200.000     8.548
 2167.9948    10.472    2.9405    0.0000  1203.834   200.000     8.246
 2168.1472     6.568    2.9281    0.0000   891.098   200.000     9.018
