~VERSION INFORMATION
 VERS.                 2.0    : CWLS LOG ASCII STANDARD
 WRAP.                 NO     : ONE LINE PER DEPTH STEP
~WELL INFORMATION
 WELL.                 Ghawar-D1    : Well name
 FLD .                 Ghawar         : Field
 CTRY.                 Saudi Arabia       : Country
 STRT.M                1600.0000 : START DEPTH
 STOP.M                2800.0000   : STOP DEPTH
 STEP.M                0.1524        : STEP
 NULL.                 -999.25          : NULL VALUE
 SRVC.                 SubsurfAI        : Service company
~CURVE INFORMATION
 DEPT.M                              : Depth
 GR  .GAPI                           : Gamma Ray
 RHOB.G/C3                           : Bulk Density
 NPHI.V/V                            : Neutron Porosity
 RT  .OHMM                           : True Resistivity
 DT  .US/F                           : Sonic
 CALI.IN                             : Caliper
~PARAMETER INFORMATION
 LAT .                 25.1234   : Latitude
 LON .                 49.3421   : Longitude
 DESC.                 Ghawar — Arab-D carbonate reservoir, world largest oil field
~A  DEPT        GR        RHOB      NPHI      RT        DT        CALI
# ...
 1841.0968    11.364    2.7301    0.0488   215.527   200.000     8.795
 1841.2492     4.253    2.7121    0.0472   170.214   200.000     7.866
 1841.4016     7.670    2.6443    0.0485   120.816   200.000     8.873
 1841.5540    10.013    2.6108    0.0579   133.238   200.000     7.583
 1841.7064    12.518    2.8036    0.0431   265.285   200.000     8.406
 1841.8588    12.364    2.7408    0.0562   278.365   200.000     8.074
 1842.0112    10.288    2.7118    0.0570   316.873   200.000     8.263
 1842.1636    11.399    2.6899    0.0454   145.984   200.000     7.772
 1842.3160    12.496    2.7936    0.0465   258.025   200.000     8.354
 1842.4684     8.245    2.6623    0.0477   164.528   200.000     8.815
 1842.6208     7.020    2.7155    0.0532   177.441   200.000     8.520
 1842.7732     8.335    2.8928    0.0393   179.139   200.000     8.683
 1842.9256     7.390    2.6631    0.0455   162.845   200.000     8.452
 1843.0780    11.414    2.8070    0.0492   367.479   200.000     8.730
 1843.2304     7.559    2.6773    0.0446    99.513   200.000     8.275
 1843.3828    10.372    2.7711    0.0568   204.606   200.000     8.220
 1843.5352     6.632    2.7521    0.0580   253.636   200.000     8.986
 1843.6876    12.247    2.6780    0.0443   295.772   200.000     8.597
 1843.8400    12.020    2.8035    0.0531   802.667   200.000     8.504
 1843.9924     8.408    2.7816    0.0538   424.897   200.000     8.839
 1844.1448     9.532    2.7178    0.0379   192.234   200.000     8.403
 1844.2972    11.347    2.7575    0.0546   221.322   200.000     8.582
 1844.4496     9.421    2.6016    0.0557   408.350   200.000     7.730
 1844.6020     5.223    2.6540    0.0534   452.634   200.000     9.388
 1844.7544     7.829    2.7564    0.0513   515.990   200.000     7.977
 1844.9068     5.812    2.7513    0.0498   110.040   200.000     7.918
 1845.0592    11.199    2.6258    0.0546    63.841   200.000     8.155
 1845.2116     9.495    2.7490    0.0596   153.158   200.000     8.598
 1845.3640    14.639    2.7158    0.0481   332.599   200.000     8.785
 1845.5164    10.014    2.7407    0.0510   575.544   200.000     8.393
 1845.6688     6.454    2.8968    0.0504   470.216   200.000     8.898
 1845.8212    13.140    2.7405    0.0418   253.621   200.000     8.726
 1845.9736    12.938    2.6418    0.0527   215.640   200.000     8.872
 1846.1260     7.606    2.8122    0.0335   248.620   200.000     8.787
 1846.2784    14.092    2.7190    0.0528   236.333   200.000     8.594
 1846.4308     8.788    2.7180    0.0603   236.168   200.000     8.517
 1846.5832    11.382    2.6942    0.0379   263.643   200.000     7.996
 1846.7356    10.417    2.5766    0.0515   454.852   200.000     9.131
 1846.8880     5.059    2.6811    0.0427   207.172   200.000     9.337
 1847.0404    13.453    2.7998    0.0602   140.969   200.000     8.611
 1847.1928     4.970    2.6484    0.0374   125.153   200.000     8.489
 1847.3452    10.361    2.6358    0.0442   428.856   200.000     8.815
 1847.4976     7.596    2.7339    0.0556   606.046   200.000     8.763
 1847.6500     7.553    2.7634    0.0614   238.930   200.000     8.860
 1847.8024     9.596    2.8133    0.0416   265.772   200.000     8.498
 1847.9548    -0.056    2.7997    0.0520   191.961   200.000     8.578
 1848.1072     9.197    2.7259    0.0580   435.036   200.000     8.359
 1848.2596    14.167    2.6920    0.0382   313.217   200.000     8.128
 1848.4120     9.990    2.6829    0.0551   107.296   200.000     8.848
 1848.5644    10.539    2.7035    0.0570   187.458   200.000     8.248
 1848.7168    12.032    2.7333    0.0436   113.237   200.000     9.016
 1848.8692    13.842    2.7051    0.0414   221.504   200.000     8.069
 1849.0216     9.421    2.7640    0.0490   291.814   200.000     8.690
 1849.1740    12.073    2.5762    0.0528   204.964   200.000     8.464
 1849.3264     5.510    2.8004    0.0459   385.445   200.000     9.038
 1849.4788    11.104    2.7161    0.0495   200.382   200.000     8.022
 1849.6312    15.179    2.7279    0.0480   108.647   200.000     8.117
 1849.7836    10.716    2.7511    0.0585   110.982   200.000     8.924
 1849.9360    11.170    2.7250    0.0615   137.070   200.000     7.788
 1850.0884    14.137    2.6850    0.0623    97.020   200.000     8.294
 1850.2408    13.100    2.6593    0.0541   182.365   200.000     8.650
 1850.3932    15.009    2.8344    0.0657   264.176   200.000     8.823
 1850.5456    13.056    2.7335    0.0451   142.677   200.000     8.155
 1850.6980    10.179    2.6927    0.0497   395.993   200.000     8.790
 1850.8504     8.013    2.6946    0.0583   235.188   200.000     8.845
 1851.0028     9.539    2.6901    0.0410   325.927   200.000     8.709
 1851.1552    10.082    2.6358    0.0479   496.868   200.000     8.363
 1851.3076     8.299    2.7429    0.0381   290.404   200.000     8.938
 1851.4600    10.097    2.6611    0.0531   233.473   200.000     8.864
 1851.6124    11.745    2.6960    0.0481   420.549   200.000     7.754
 1851.7648    12.396    2.7275    0.0482   251.553   200.000     8.433
 1851.9172     8.781    2.7913    0.0488   197.871   200.000     8.524
 1852.0696     3.628    2.7526    0.0471   358.452   200.000     7.818
 1852.2220    14.219    2.6734    0.0602   301.315   200.000     8.030
 1852.3744     5.756    2.7754    0.0388   203.913   200.000     8.430
 1852.5268     6.978    2.6172    0.0603   216.241   200.000     9.225
 1852.6792     6.965    2.8165    0.0424   109.217   200.000     8.568
 1852.8316     4.284    2.6736    0.0473   287.829   200.000     8.425
 1852.9840    15.354    2.6453    0.0439   590.967   200.000     8.399
 1853.1364     4.856    2.7345    0.0440   159.712   200.000     8.330
 1853.2888     6.203    2.7328    0.0597   271.240   200.000     8.238
 1853.4412     9.770    2.6597    0.0511   306.575   200.000     9.294
 1853.5936     8.204    2.7193    0.0653   418.082   200.000     8.165
 1853.7460     9.920    2.6914    0.0482   332.254   200.000     8.330
 1853.8984     5.764    2.6688    0.0492   432.421   200.000     8.105
 1854.0508    10.377    2.6795    0.0386   107.680   200.000     8.455
 1854.2032     6.757    2.7422    0.0529   423.418   200.000     8.817
 1854.3556     9.745    2.5675    0.0574   184.275   200.000     8.476
 1854.5080    13.439    2.7642    0.0567    81.837   200.000     8.250
 1854.6604    10.575    2.7272    0.0431   337.830   200.000     8.719
 1854.8128    11.702    2.6825    0.0636   422.811   200.000     8.425
 1854.9652    16.574    2.6659    0.0544   307.769   200.000     8.326
 1855.1176     9.309    2.7315    0.0407    79.694   200.000     8.838
 1855.2700     5.369    2.6987    0.0548   211.006   200.000     8.601
 1855.4224    10.994    2.6613    0.0443   282.589   200.000     8.330
 1855.5748    10.463    2.6582    0.0466   467.928   200.000     8.620
 1855.7272     9.258    2.7099    0.0564   470.660   200.000     8.782
 1855.8796     7.777    2.6103    0.0582   264.386   200.000     8.778
 1856.0320     8.272    2.7830    0.0566   184.489   200.000     8.363
 1856.1844     6.440    2.6821    0.0583   114.345   200.000     9.529
 1856.3368    13.629    2.6573    0.0515   273.896   200.000     8.428
 1856.4892    11.166    2.7602    0.0657   288.247   200.000     8.396
 1856.6416     8.038    2.6464    0.0610   127.376   200.000     8.017
 1856.7940    13.191    2.7011    0.0536   305.471   200.000     8.085
 1856.9464     8.533    2.7311    0.0479   370.135   200.000     8.691
 1857.0988     4.358    2.8018    0.0453   370.668   200.000     8.484
 1857.2512    14.555    2.7249    0.0500   278.989   200.000     8.729
 1857.4036     8.881    2.7219    0.0532   280.503   200.000     8.487
 1857.5560    11.722    2.7327    0.0499   269.297   200.000     9.265
 1857.7084    11.965    2.6944    0.0476   551.602   200.000     7.692
 1857.8608    10.248    2.7291    0.0495   241.656   200.000     8.806
 1858.0132     9.578    2.6880    0.0544   234.058   200.000     8.815
 1858.1656    15.526    2.7658    0.0341   208.539   200.000     7.854
