~VERSION INFORMATION
 VERS.                 2.0    : CWLS LOG ASCII STANDARD
 WRAP.                 NO     : ONE LINE PER DEPTH STEP
~WELL INFORMATION
 WELL.                 Ghawar-D1    : Well name
 FLD .                 Ghawar         : Field
 CTRY.                 Saudi Arabia       : Country
 STRT.M                1600.0000 : START DEPTH
 STOP.M                2800.0000   : STOP DEPTH
 STEP.M                0.1524        : STEP
 NULL.                 -999.25          : NULL VALUE
 SRVC.                 SubsurfAI        : Service company
~CURVE INFORMATION
 DEPT.M                              : Depth
 GR  .GAPI                           : Gamma Ray
 RHOB.G/C3                           : Bulk Density
 NPHI.V/V                            : Neutron Porosity
 RT  .OHMM                           : True Resistivity
 DT  .US/F                           : Sonic
 CALI.IN                             : Caliper
~PARAMETER INFORMATION
 LAT .                 25.1234   : Latitude
 LON .                 49.3421   : Longitude
 DESC.                 Ghawar — Arab-D carbonate reservoir, world largest oil field
~A  DEPT        GR        RHOB      NPHI      RT        DT        CALI
# ...
 1909.9816     8.501    2.7344    0.0436   264.230   200.000     8.673
 1910.1340    15.138    2.6358    0.0564   214.163   200.000     8.069
 1910.2864    10.383    2.7454    0.0349   262.338   200.000     8.411
 1910.4388    10.870    2.6532    0.0517   145.706   200.000     8.588
 1910.5912     9.602    2.8027    0.0528    75.252   200.000     7.870
 1910.7436    13.255    2.7667    0.0534   201.734   200.000     8.869
 1910.8960     8.211    2.6887    0.0449   112.703   200.000     9.301
 1911.0484     9.013    2.6956    0.0593   167.323   200.000     8.749
 1911.2008    13.652    2.7609    0.0434   356.807   200.000     8.316
 1911.3532    14.554    2.6514    0.0426   228.693   200.000     8.474
 1911.5056    11.016    2.6409    0.0549   173.397   200.000     8.381
 1911.6580     7.749    2.7100    0.0650   674.036   200.000     9.072
 1911.8104     8.291    2.7669    0.0642   282.360   200.000     8.353
 1911.9628     9.418    2.8000    0.0544   285.345   200.000     8.884
 1912.1152     8.584    2.6871    0.0490   309.024   200.000     8.760
 1912.2676    13.960    2.7612    0.0544   375.167   200.000     8.287
 1912.4200     6.865    2.7097    0.0470   253.159   200.000     8.519
 1912.5724    13.207    2.6509    0.0458   310.251   200.000     9.104
 1912.7248     9.938    2.7455    0.0513   204.919   200.000     8.359
 1912.8772     9.002    2.7229    0.0680   226.459   200.000     8.707
 1913.0296     6.976    2.7775    0.0488   248.982   200.000     8.636
 1913.1820     6.001    2.7559    0.0514   147.729   200.000     8.526
 1913.3344    12.340    2.7246    0.0399   486.642   200.000     8.516
 1913.4868     5.710    2.7355    0.0591   614.301   200.000     8.640
 1913.6392     9.711    2.7281    0.0480   179.910   200.000     8.181
 1913.7916     8.052    2.6430    0.0303   401.775   200.000     8.736
 1913.9440     8.860    2.7421    0.0523   169.375   200.000     9.020
 1914.0964    13.770    2.6573    0.0537   350.320   200.000     8.995
 1914.2488     1.595    2.6920    0.0404   232.952   200.000     8.976
 1914.4012    12.033    2.7186    0.0429   136.538   200.000     8.579
 1914.5536    12.332    2.7294    0.0557   342.747   200.000     8.264
 1914.7060    12.271    2.7093    0.0436   187.848   200.000     8.266
 1914.8584     6.097    2.6817    0.0371   406.062   200.000     8.070
 1915.0108    11.378    2.7418    0.0588   189.726   200.000     9.122
 1915.1632    12.753    2.7204    0.0471   310.951   200.000     8.925
 1915.3156     8.939    2.7472    0.0516   199.699   200.000     8.659
 1915.4680    12.179    2.7133    0.0675   120.113   200.000     7.763
 1915.6204     9.124    2.7878    0.0434   213.577   200.000     7.863
 1915.7728    10.980    2.7184    0.0499   199.178   200.000     8.029
 1915.9252     9.262    2.7295    0.0551   285.834   200.000     8.916
 1916.0776    10.291    2.6957    0.0596   256.700   200.000     8.959
 1916.2300    10.904    2.8104    0.0510   250.474   200.000     8.270
 1916.3824     8.683    2.7266    0.0608   289.493   200.000     9.245
 1916.5348     7.022    2.7237    0.0480   646.019   200.000     9.006
 1916.6872     8.734    2.6853    0.0621   135.473   200.000     8.223
 1916.8396     7.650    2.6913    0.0458   180.410   200.000     8.406
 1916.9920     3.879    2.6730    0.0495   421.490   200.000     9.222
 1917.1444    11.645    2.8000    0.0504   327.682   200.000     8.473
 1917.2968    14.741    2.7219    0.0475   309.029   200.000     8.474
 1917.4492     1.893    2.7395    0.0507   154.433   200.000     8.675
 1917.6016    10.414    2.7489    0.0489   279.788   200.000     8.451
 1917.7540     2.940    2.7195    0.0543   252.921   200.000     8.552
 1917.9064    19.106    2.7056    0.0413    91.173   200.000     8.218
 1918.0588    12.270    2.7283    0.0428   397.459   200.000     8.845
 1918.2112     9.415    2.6747    0.0453    96.725   200.000     7.959
 1918.3636    12.092    2.7435    0.0457   273.986   200.000     7.860
 1918.5160    14.946    2.6674    0.0456   334.323   200.000     7.991
 1918.6684     9.420    2.8125    0.0519   122.399   200.000     8.459
 1918.8208     4.961    2.7949    0.0510   257.857   200.000     8.214
 1918.9732    12.355    2.6701    0.0392   653.255   200.000     7.707
 1919.1256    11.449    2.7730    0.0385   465.005   200.000     8.668
 1919.2780    14.444    2.7147    0.0466   199.725   200.000     8.841
 1919.4304     6.562    2.6441    0.0525   296.536   200.000     8.811
 1919.5828     4.236    2.7133    0.0572   251.434   200.000     8.941
 1919.7352     7.809    2.6514    0.0609   365.863   200.000     8.932
 1919.8876     7.880    2.7890    0.0531   304.159   200.000     8.660
 1920.0400    13.008    2.6962    0.0446   249.844   200.000     8.246
 1920.1924     9.272    2.7281    0.0539   130.842   200.000     8.873
 1920.3448     5.499    2.7415    0.0503   359.204   200.000     8.436
 1920.4972     5.330    2.6146    0.0514   560.816   200.000     8.352
 1920.6496    14.103    2.5937    0.0416   118.429   200.000     8.761
 1920.8020    11.276    2.6482    0.0493   228.245   200.000     8.288
 1920.9544     5.784    2.7722    0.0561   121.310   200.000     8.201
 1921.1068     8.878    2.7281    0.0538   206.145   200.000     8.695
 1921.2592     6.491    2.7181    0.0444   354.662   200.000     8.053
 1921.4116     7.093    2.7943    0.0436   142.536   200.000     8.524
 1921.5640     9.918    2.7336    0.0432   521.954   200.000     8.588
 1921.7164     8.716    2.8148    0.0480   156.471   200.000     8.258
 1921.8688     9.667    2.7308    0.0456   293.705   200.000     9.607
 1922.0212    11.075    2.6633    0.0509   158.136   200.000     8.868
 1922.1736     8.723    2.7419    0.0377   185.928   200.000     7.836
 1922.3260    14.978    2.6544    0.0452   342.056   200.000     8.269
 1922.4784     9.891    2.7123    0.0555   266.719   200.000     8.747
 1922.6308     5.795    2.7460    0.0471   271.188   200.000     8.883
 1922.7832    10.062    2.7226    0.0354   286.093   200.000     8.539
 1922.9356     8.354    2.7519    0.0469   159.179   200.000     8.431
 1923.0880    11.065    2.8178    0.0607   427.016   200.000     8.711
 1923.2404     6.468    2.6983    0.0568   289.640   200.000     9.369
 1923.3928     7.974    2.7098    0.0486   295.442   200.000     8.574
 1923.5452     6.959    2.7586    0.0501   875.709   200.000     8.384
 1923.6976    12.116    2.7286    0.0530   239.334   200.000     8.855
 1923.8500    11.318    2.8276    0.0536   263.567   200.000     7.949
 1924.0024     6.007    2.6371    0.0539   584.456   200.000     8.991
 1924.1548    10.933    2.6291    0.0518    82.435   200.000     8.061
 1924.3072     6.542    2.8134    0.0363   127.769   200.000     8.064
 1924.4596    12.591    2.7825    0.0557   327.520   200.000     8.149
 1924.6120     6.880    2.7595    0.0545   251.691   200.000     8.449
 1924.7644    14.243    2.7794    0.0603   116.507   200.000     8.147
 1924.9168    11.633    2.7786    0.0413   610.464   200.000     8.276
 1925.0692     4.863    2.7031    0.0545   268.170   200.000     8.554
 1925.2216     8.628    2.7569    0.0482   293.936   200.000     9.139
 1925.3740    10.002    2.6990    0.0482   147.898   200.000     8.483
 1925.5264    12.104    2.7283    0.0480   265.976   200.000     8.733
 1925.6788     7.721    2.6481    0.0405   378.703   200.000     9.474
 1925.8312     7.975    2.7406    0.0503   164.634   200.000     8.300
 1925.9836    11.228    2.7221    0.0568   197.498   200.000     8.538
 1926.1360     7.365    2.7550    0.0604   120.718   200.000     7.851
 1926.2884    11.139    2.6868    0.0435   433.887   200.000     7.554
 1926.4408     8.048    2.6732    0.0555   187.450   200.000     9.517
 1926.5932     4.718    2.8101    0.0657   128.807   200.000     8.710
 1926.7456    11.932    2.7249    0.0493   365.830   200.000     8.482
 1926.8980    14.086    2.8214    0.0443   180.569   200.000     9.001
 1927.0504     3.227    2.6945    0.0428   303.510   200.000     9.263
