~VERSION INFORMATION
 VERS.                 2.0    : CWLS LOG ASCII STANDARD
 WRAP.                 NO     : ONE LINE PER DEPTH STEP
~WELL INFORMATION
 WELL.                 15/25-1    : Well name
 FLD .                 Magnus         : Field
 CTRY.                 UK       : Country
 STRT.M                3200.0000 : START DEPTH
 STOP.M                4500.0000   : STOP DEPTH
 STEP.M                0.1524        : STEP
 NULL.                 -999.25          : NULL VALUE
 SRVC.                 SubsurfAI        : Service company
~CURVE INFORMATION
 DEPT.M                              : Depth
 GR  .GAPI                           : Gamma Ray
 RHOB.G/C3                           : Bulk Density
 NPHI.V/V                            : Neutron Porosity
 RT  .OHMM                           : True Resistivity
 DT  .US/F                           : Sonic
 CALI.IN                             : Caliper
~PARAMETER INFORMATION
 LAT .                 61.6451   : Latitude
 LON .                 1.0123   : Longitude
 DESC.                 Magnus Fm — Upper Jurassic turbidite sandstone
~A  DEPT        GR        RHOB      NPHI      RT        DT        CALI
# ...
 3372.2120   120.498    2.5346    0.3043     1.490   183.155     8.152
 3372.3644    96.006    2.5005    0.3883     1.400   144.022     8.202
 3372.5168   112.945    2.5710    0.2747     1.267   200.000     8.287
 3372.6692   108.429    2.5036    0.3470     0.974   158.217     8.607
 3372.8216    98.216    2.5248    0.3380     2.096   155.916     7.990
 3372.9740   106.882    2.5270    0.2659     2.709   200.000     8.306
 3373.1264   111.150    2.4796    0.4184     0.752   136.982     9.367
 3373.2788   137.816    2.5191    0.3896     0.824   146.614     8.361
 3373.4312   134.099    2.5415    0.3089     1.426   173.777     8.744
 3373.5836   134.432    2.6031    0.4081     1.378   131.444     8.792
 3373.7360   143.014    2.5229    0.3352     2.166   164.438     8.507
 3373.8884   136.529    2.4547    0.2907     1.127   195.408     8.896
 3374.0408   125.333    2.5137    0.3285     1.407   166.346     8.285
 3374.1932   135.755    2.4235    0.3108     1.387   177.591     8.075
 3374.3456   108.891    2.5242    0.3975     1.145   138.739     8.107
 3374.4980   118.719    2.4329    0.3571     1.476   163.222     8.417
 3374.6504    78.750    2.4893    0.2276     3.020   200.000     8.757
 3374.8028   100.634    2.4437    0.3784     1.451   149.446     8.337
 3374.9552   111.438    2.5285    0.2868     2.430   196.328     9.028
 3375.1076   115.201    2.4789    0.3406     0.701   159.289     8.239
 3375.2600   106.343    2.5516    0.3642     0.580   152.499     8.928
 3375.4124   133.964    2.5299    0.3505     2.263   160.295     8.474
 3375.5648   113.544    2.4665    0.3191     1.278   174.239     8.353
 3375.7172   118.160    2.5024    0.4224     2.581   145.196     8.220
 3375.8696    81.564    2.5418    0.2896     1.418   189.555     8.382
 3376.0220   114.841    2.5135    0.3635     0.568   145.516     8.602
 3376.1744   123.593    2.4331    0.3475     2.730   156.037     8.127
 3376.3268   131.294    2.4911    0.3565     1.151   154.790     8.786
 3376.4792   102.973    2.5930    0.3191     1.432   171.109     8.234
 3376.6316   102.299    2.4277    0.2993     2.487   176.788     8.469
 3376.7840   126.622    2.4919    0.3594     0.841   151.779     9.270
 3376.9364   117.415    2.5148    0.3011     3.468   181.729     7.940
 3377.0888   132.455    2.5239    0.3708     1.038   148.988     8.870
 3377.2412    99.588    2.5181    0.3639     1.467   146.536     8.230
 3377.3936   113.424    2.4084    0.3495     3.010   156.065     9.012
 3377.5460   115.261    2.5305    0.2792     2.287   200.000     8.327
 3377.6984   101.799    2.4184    0.3805     1.074   155.971     8.586
 3377.8508   105.857    2.5589    0.3514     2.643   151.790     8.867
 3378.0032   121.452    2.4934    0.2775     1.107   200.000     8.407
 3378.1556   119.934    2.4678    0.3337     0.987   160.818     8.659
 3378.3080    88.041    2.5349    0.3708     1.162   139.395     8.784
 3378.4604    90.274    2.4407    0.3292     1.510   163.411     8.279
 3378.6128   131.514    2.4421    0.2572     0.796   200.000     8.484
 3378.7652   120.822    2.5037    0.3597     1.074   147.706     8.886
 3378.9176   121.959    2.5099    0.3699     2.513   149.895     8.577
 3379.0700    97.172    2.4368    0.3501     1.231   159.788     8.307
 3379.2224   129.899    2.5762    0.3274     3.221   163.694     8.444
 3379.3748   106.117    2.3966    0.3860     1.967   141.819     8.055
 3379.5272   100.069    2.4414    0.4634     0.788   135.949     8.467
 3379.6796   109.403    2.5218    0.3224     1.110   175.035     7.806
 3379.8320   136.430    2.4410    0.3445     1.654   156.079     8.829
 3379.9844   127.648    2.4507    0.4218     2.151   132.807     8.106
 3380.1368   117.061    2.5659    0.3943     1.793   136.937     9.347
 3380.2892   116.600    2.5176    0.3884     0.812   146.298     8.286
 3380.4416   102.540    2.4687    0.3064     0.660   176.759     8.505
 3380.5940   138.484    2.4738    0.3713     1.820   151.224     8.434
 3380.7464   115.678    2.4952    0.3125     1.013   175.721     8.197
 3380.8988   127.384    2.5767    0.3807     1.115   149.648     9.136
 3381.0512   114.439    2.5657    0.2901     2.326   196.900     8.274
 3381.2036   111.539    2.6564    0.3289     2.577   180.001     8.634
 3381.3560   103.017    2.4897    0.2825     1.419   200.000     8.321
 3381.5084   101.765    2.5623    0.3187     2.257   169.757     7.854
 3381.6608   107.629    2.4640    0.3819     1.541   135.195     8.578
 3381.8132   114.129    2.5186    0.2583     1.305   200.000     8.728
 3381.9656   103.638    2.5432    0.3039     1.842   178.217     8.608
 3382.1180   114.883    2.5545    0.4084     1.296   131.441     8.427
 3382.2704   104.508    2.5117    0.2398     0.824   200.000     8.589
 3382.4228   134.782    2.5343    0.2466     1.769   200.000     8.138
 3382.5752   109.628    2.4108    0.3505     2.467   152.950     8.520
 3382.7276    86.760    2.5488    0.3799     2.173   139.334     8.621
 3382.8800    99.713    2.6075    0.3869     1.099   131.326     8.553
 3383.0324   116.120    2.6131    0.2939     1.139   189.310     8.528
 3383.1848    90.994    2.5128    0.2872     0.810   192.020     8.426
 3383.3372   116.775    2.5417    0.3312     0.853   172.188     8.898
 3383.4896   118.234    2.5429    0.4236     1.750   136.577     8.145
 3383.6420   101.419    2.5546    0.3265     1.114   168.903     8.012
 3383.7944   102.223    2.4476    0.3272     1.439   167.230     8.452
 3383.9468    94.622    2.4731    0.3506     1.772   153.696     8.880
 3384.0992   116.475    2.4870    0.3579     2.407   154.094     8.970
 3384.2516   113.271    2.5316    0.3069     1.915   172.843     8.201
 3384.4040   112.319    2.4893    0.3722     1.365   143.347     8.766
 3384.5564   132.382    2.4264    0.3014     0.746   183.725     8.642
 3384.7088   126.422    2.4698    0.3620     2.207   143.687     8.592
 3384.8612   138.095    2.5392    0.3456     1.381   155.333     8.219
 3385.0136    89.595    2.4946    0.3479     3.057   158.330     8.275
 3385.1660   141.540    2.4431    0.3412     0.660   165.890     7.776
 3385.3184   117.465    2.5116    0.2546     1.712   200.000     8.565
 3385.4708   117.465    2.5603    0.2959     1.443   184.787     8.477
 3385.6232   109.652    2.5186    0.3832     5.690   143.446     8.813
 3385.7756   106.124    2.5203    0.3454     4.127   161.692     9.336
 3385.9280   104.850    2.4252    0.3869     1.063   139.966     9.167
 3386.0804   100.749    2.6374    0.4139     1.717   141.846     8.398
 3386.2328   118.120    2.4439    0.2250     2.851   200.000     8.321
 3386.3852   115.913    2.4304    0.3150     3.475   174.074     8.184
 3386.5376   110.004    2.5499    0.3147     0.886   188.251     7.920
 3386.6900   116.657    2.4397    0.3422     1.705   167.105     8.688
 3386.8424   117.532    2.4156    0.3725     1.819   142.301     8.104
 3386.9948   129.274    2.4075    0.2659     0.625   200.000     7.948
 3387.1472   102.126    2.5185    0.2667     1.621   200.000     8.799
 3387.2996   126.512    2.4911    0.3100     3.449   179.555     8.671
 3387.4520   115.401    2.4926    0.4357     1.301   131.483     8.621
 3387.6044   109.142    2.5397    0.3252     0.991   167.911     8.745
 3387.7568   116.287    2.5650    0.3242     1.544   177.798     8.717
 3387.9092    96.498    2.5638    0.3080     1.193   176.551     8.686
 3388.0616    84.302    2.5147    0.3718     1.142   139.956     8.056
 3388.2140   108.517    2.4350    0.3617     0.638   152.778     8.672
 3388.3664   104.061    2.5183    0.3961     0.858   134.777     7.284
 3388.5188   100.202    2.4225    0.2746     1.766   200.000     8.688
 3388.6712   136.262    2.5524    0.4445     0.687   140.018     9.116
 3388.8236   114.680    2.4800    0.3172     1.395   164.325     8.735
 3388.9760   112.386    2.5550    0.4136     1.092   139.608     8.096
 3389.1284   120.080    2.4057    0.4034     0.477   140.339     8.418
 3389.2808   121.178    2.4983    0.3693     2.088   144.084     8.882
