~VERSION INFORMATION
 VERS.                 2.0    : CWLS LOG ASCII STANDARD
 WRAP.                 NO     : ONE LINE PER DEPTH STEP
~WELL INFORMATION
 WELL.                 15/25-1    : Well name
 FLD .                 Magnus         : Field
 CTRY.                 UK       : Country
 STRT.M                3200.0000 : START DEPTH
 STOP.M                4500.0000   : STOP DEPTH
 STEP.M                0.1524        : STEP
 NULL.                 -999.25          : NULL VALUE
 SRVC.                 SubsurfAI        : Service company
~CURVE INFORMATION
 DEPT.M                              : Depth
 GR  .GAPI                           : Gamma Ray
 RHOB.G/C3                           : Bulk Density
 NPHI.V/V                            : Neutron Porosity
 RT  .OHMM                           : True Resistivity
 DT  .US/F                           : Sonic
 CALI.IN                             : Caliper
~PARAMETER INFORMATION
 LAT .                 61.6451   : Latitude
 LON .                 1.0123   : Longitude
 DESC.                 Magnus Fm — Upper Jurassic turbidite sandstone
~A  DEPT        GR        RHOB      NPHI      RT        DT        CALI
# ...
 3458.3180    80.280    2.5390    0.3453     0.776   160.143     7.824
 3458.4704   118.033    2.4842    0.4095     0.524   139.859     8.677
 3458.6228   111.925    2.4767    0.3628     1.269   149.740     8.423
 3458.7752    88.907    2.5227    0.3228     1.704   165.014     8.449
 3458.9276   112.514    2.5187    0.2947     1.499   199.191     8.560
 3459.0800   114.350    2.5290    0.4311     1.528   139.167     7.844
 3459.2324   116.168    2.5050    0.2838     0.689   200.000     8.283
 3459.3848   131.717    2.5192    0.3969     1.077   137.332     8.383
 3459.5372   116.074    2.4617    0.3940     2.067   137.912     8.683
 3459.6896   116.884    2.3953    0.3232     1.311   173.336     8.129
 3459.8420   131.644    2.4638    0.3076     2.959   177.143     8.726
 3459.9944    31.156    2.3489    0.1661    90.189   200.000     8.372
 3460.1468    36.020    2.2515    0.1359   109.931   200.000     7.933
 3460.2992    28.386    2.3279    0.1676    98.821   200.000     8.033
 3460.4516    24.994    2.2891    0.2014    46.282   200.000     8.511
 3460.6040    26.227    2.2743    0.1692   165.941   200.000     8.828
 3460.7564    36.171    2.2409    0.1845    49.149   200.000     8.207
 3460.9088    36.232    2.2729    0.1420   101.325   200.000     7.913
 3461.0612    23.826    2.3006    0.1736   163.806   200.000     8.206
 3461.2136    33.950    2.2479    0.1470    63.548   200.000     9.504
 3461.3660    36.401    2.2381    0.1610   187.419   200.000     9.016
 3461.5184    32.446    2.3226    0.1128    62.062   200.000     8.485
 3461.6708    33.629    2.2467    0.2283    71.637   200.000     8.521
 3461.8232    32.328    2.3280    0.2182   113.090   200.000     8.947
 3461.9756    22.860    2.2266    0.1838    28.378   200.000     8.550
 3462.1280    28.609    2.2732    0.1227   106.174   200.000     8.640
 3462.2804    36.250    2.2954    0.1428    96.441   200.000     8.196
 3462.4328    28.234    2.2566    0.1786    51.486   200.000     8.192
 3462.5852    41.425    2.3099    0.1917    52.344   200.000     9.432
 3462.7376    32.691    2.2588    0.1782    56.450   200.000     8.571
 3462.8900    31.355    2.1385    0.1562   230.782   200.000     8.162
 3463.0424    32.518    2.3303    0.1975    86.680   200.000     8.930
 3463.1948    35.906    2.2123    0.1803    49.363   200.000     8.722
 3463.3472    38.531    2.3279    0.1932   100.468   200.000     8.326
 3463.4996    33.818    2.2529    0.1588    80.467   200.000     9.136
 3463.6520    25.551    2.2680    0.1894    54.458   200.000     8.069
 3463.8044    39.579    2.2959    0.1684   130.058   200.000     8.830
 3463.9568    33.561    2.2332    0.1980    97.018   200.000     8.347
 3464.1092    27.193    2.2516    0.2427    73.846   200.000     9.205
 3464.2616    33.359    2.2764    0.1115   144.486   200.000     8.466
 3464.4140    25.536    2.2144    0.1778    96.671   200.000     8.571
 3464.5664    38.496    2.2686    0.1817   143.698   200.000     8.721
 3464.7188    30.832    2.2708    0.1727    62.933   200.000     8.578
 3464.8712    30.116    2.2520    0.1326    75.707   200.000     8.360
 3465.0236    26.266    2.1921    0.1583    42.249   200.000     8.726
 3465.1760    39.778    2.2524    0.1678    68.703   200.000     8.889
 3465.3284    36.526    2.4340    0.1577    92.107   200.000     8.558
 3465.4808    37.262    2.2376    0.1823    32.700   200.000     8.711
 3465.6332    21.408    2.2849    0.1749    46.437   200.000     8.852
 3465.7856    39.188    2.2247    0.1698    76.473   200.000     8.103
 3465.9380    35.492    2.1664    0.1459    71.926   200.000     8.751
 3466.0904    37.110    2.2388    0.1473   109.918   200.000     8.096
 3466.2428    29.886    2.2681    0.1645    46.276   200.000     8.545
 3466.3952    36.691    2.3047    0.1985    90.027   200.000     7.931
 3466.5476    32.580    2.2720    0.1718    98.141   200.000     8.295
 3466.7000    33.122    2.2353    0.1364    58.411   200.000     9.143
 3466.8524    39.384    2.3308    0.1682    41.145   200.000     8.032
 3467.0048    36.382    2.3052    0.1620    68.567   200.000     8.339
 3467.1572    23.830    2.2416    0.1350    41.507   200.000     8.173
 3467.3096    39.322    2.2446    0.1745    43.133   200.000     8.066
 3467.4620    36.528    2.3153    0.1814   125.396   200.000     8.173
 3467.6144    35.638    2.2947    0.1560    95.370   200.000     8.979
 3467.7668    28.878    2.2807    0.1673    31.419   200.000     8.288
 3467.9192    28.809    2.2532    0.2414    55.527   200.000     8.590
 3468.0716    35.744    2.3019    0.1820    73.416   200.000     9.050
 3468.2240    29.908    2.3417    0.1556    44.149   200.000     8.660
 3468.3764    24.233    2.3025    0.1744   122.454   200.000     9.031
 3468.5288    38.264    2.2710    0.1730    61.351   200.000     9.026
 3468.6812    28.811    2.2640    0.1495    78.080   200.000     8.657
 3468.8336    32.253    2.2901    0.1603   103.329   200.000     9.470
 3468.9860    35.306    2.2347    0.1476   108.499   200.000     7.760
 3469.1384    28.862    2.2373    0.1910    86.937   200.000     8.275
 3469.2908    30.088    2.3006    0.1405    72.705   200.000     8.033
 3469.4432    40.086    2.2345    0.1542    87.599   200.000     8.139
 3469.5956    36.032    2.3177    0.1727    95.078   200.000     8.725
 3469.7480    41.050    2.2792    0.1974    65.998   200.000     8.900
 3469.9004    34.171    2.2230    0.1699    71.686   200.000     8.987
 3470.0528    32.996    2.3665    0.2098    58.809   200.000     7.889
 3470.2052    29.976    2.2516    0.1307    80.118   200.000     8.063
 3470.3576    39.900    2.3532    0.1884    58.461   200.000     8.306
 3470.5100    31.194    2.2500    0.1597   159.198   200.000     8.803
 3470.6624    34.279    2.2405    0.2187   140.688   200.000     9.036
 3470.8148    28.844    2.3169    0.1476   112.110   200.000     8.250
 3470.9672    36.647    2.2456    0.1586    69.492   200.000     8.472
 3471.1196    21.794    2.2143    0.2300    59.912   200.000     7.872
 3471.2720    29.984    2.2519    0.1467    67.143   200.000     8.106
 3471.4244    20.873    2.2747    0.1943   111.053   200.000     7.678
 3471.5768    37.054    2.2622    0.1835   173.752   200.000     9.024
 3471.7292    28.629    2.3118    0.1489    67.765   200.000     9.197
 3471.8816    37.226    2.2023    0.1467    27.245   200.000     8.404
 3472.0340    39.956    2.2548    0.1676    52.943   200.000     8.888
 3472.1864    33.065    2.2796    0.1822    62.954   200.000     8.605
 3472.3388    31.074    2.2462    0.2116    35.379   200.000     8.755
 3472.4912    33.265    2.2217    0.0970    23.115   200.000     8.875
 3472.6436    29.657    2.2510    0.1667    41.062   200.000     8.213
 3472.7960    31.480    2.2258    0.1709    28.071   200.000     8.883
 3472.9484    38.557    2.2462    0.1398    80.790   200.000     8.126
 3473.1008    28.996    2.2820    0.2113    51.971   200.000     7.831
 3473.2532    26.110    2.3092    0.1874    35.438   200.000     8.327
 3473.4056    30.077    2.2328    0.1304   176.813   200.000     8.677
 3473.5580    29.028    2.2602    0.1949    92.613   200.000     8.518
 3473.7104    35.861    2.2366    0.1248    71.331   200.000     8.184
 3473.8628    36.028    2.3200    0.1793   102.819   200.000     8.811
 3474.0152    35.570    2.3469    0.1834    86.038   200.000     8.805
 3474.1676    37.744    2.2938    0.1819    94.090   200.000     8.185
 3474.3200    33.286    2.2469    0.1622    78.987   200.000     8.924
 3474.4724    36.701    2.3004    0.1878   142.348   200.000     8.212
 3474.6248    25.565    2.3341    0.1983   181.388   200.000     8.321
 3474.7772    31.206    2.1846    0.1803   105.380   200.000     7.285
 3474.9296    39.626    2.2681    0.1270    57.760   200.000     7.837
 3475.0820    26.544    2.2906    0.1783   126.697   200.000     8.318
 3475.2344    29.463    2.3067    0.1602    56.602   200.000     8.821
 3475.3868    38.187    2.2713    0.1962    76.221   200.000     8.646
