~VERSION INFORMATION
 VERS.                 2.0    : CWLS LOG ASCII STANDARD
 WRAP.                 NO     : ONE LINE PER DEPTH STEP
~WELL INFORMATION
 WELL.                 15/25-1    : Well name
 FLD .                 Magnus         : Field
 CTRY.                 UK       : Country
 STRT.M                3200.0000 : START DEPTH
 STOP.M                4500.0000   : STOP DEPTH
 STEP.M                0.1524        : STEP
 NULL.                 -999.25          : NULL VALUE
 SRVC.                 SubsurfAI        : Service company
~CURVE INFORMATION
 DEPT.M                              : Depth
 GR  .GAPI                           : Gamma Ray
 RHOB.G/C3                           : Bulk Density
 NPHI.V/V                            : Neutron Porosity
 RT  .OHMM                           : True Resistivity
 DT  .US/F                           : Sonic
 CALI.IN                             : Caliper
~PARAMETER INFORMATION
 LAT .                 61.6451   : Latitude
 LON .                 1.0123   : Longitude
 DESC.                 Magnus Fm — Upper Jurassic turbidite sandstone
~A  DEPT        GR        RHOB      NPHI      RT        DT        CALI
# ...
 3630.5300    30.227    2.3169    0.1959    69.278   200.000     8.816
 3630.6824    29.496    2.3184    0.1375    57.287   200.000     8.153
 3630.8348    31.324    2.2772    0.2255    39.983   200.000     7.974
 3630.9872    36.808    2.2636    0.1476   120.146   200.000     8.844
 3631.1396    41.588    2.2830    0.1692    92.913   200.000     8.351
 3631.2920    31.011    2.3077    0.1513    39.909   200.000     8.828
 3631.4444    25.015    2.2441    0.1944   256.547   200.000     7.568
 3631.5968    25.915    2.3450    0.1825    54.263   200.000     8.829
 3631.7492    23.562    2.3290    0.1637   133.056   200.000     8.525
 3631.9016    36.556    2.3050    0.1549   104.576   200.000     8.610
 3632.0540    31.178    2.2176    0.1589   101.301   200.000     8.271
 3632.2064    29.171    2.3198    0.1695    57.042   200.000     8.352
 3632.3588    24.078    2.2822    0.2000    56.863   200.000     7.993
 3632.5112    32.970    2.2817    0.1942   114.146   200.000     8.571
 3632.6636    28.383    2.2526    0.1904    71.986   200.000     7.885
 3632.8160    38.603    2.3432    0.1876    59.911   200.000     7.813
 3632.9684    32.688    2.2319    0.2022    25.622   200.000     8.727
 3633.1208    34.862    2.2380    0.1548    46.978   200.000     8.962
 3633.2732    28.409    2.2192    0.2082    55.249   200.000     8.627
 3633.4256    40.330    2.2461    0.1546    95.866   200.000     8.857
 3633.5780    29.268    2.2518    0.1582    59.382   200.000     8.500
 3633.7304    32.298    2.2609    0.1368   101.298   200.000     9.027
 3633.8828    37.742    2.3221    0.2063   101.897   200.000     8.233
 3634.0352    29.173    2.3746    0.2050    44.201   200.000     9.238
 3634.1876    37.647    2.2879    0.1891    72.624   200.000     9.407
 3634.3400    42.083    2.2689    0.1478   163.479   200.000     8.815
 3634.4924    34.244    2.2526    0.2030    51.017   200.000     9.013
 3634.6448    38.517    2.2363    0.1512    38.514   200.000     8.404
 3634.7972    33.816    2.3070    0.1507    37.568   200.000     8.285
 3634.9496    39.737    2.2637    0.1545   111.575   200.000     7.963
 3635.1020    35.076    2.1943    0.1479    62.844   200.000     8.503
 3635.2544    30.505    2.2073    0.1574    73.318   200.000     9.474
 3635.4068    29.453    2.3020    0.1682    66.812   200.000     8.208
 3635.5592    26.666    2.3697    0.1752   100.556   200.000     7.600
 3635.7116    32.644    2.2518    0.1981    91.098   200.000     7.842
 3635.8640    36.700    2.2798    0.1946    65.369   200.000     8.729
 3636.0164    36.754    2.2440    0.1863    25.989   200.000     8.277
 3636.1688    36.898    2.2524    0.1435   120.166   200.000     8.215
 3636.3212    33.717    2.2239    0.1423   114.357   200.000     9.038
 3636.4736    40.035    2.2483    0.1585    89.840   200.000     8.786
 3636.6260    32.370    2.2613    0.1401    73.050   200.000     8.379
 3636.7784    36.401    2.2481    0.2069   117.265   200.000     8.647
 3636.9308    32.811    2.2993    0.1789    75.296   200.000     8.900
 3637.0832    22.939    2.3066    0.1776    63.539   200.000     8.155
 3637.2356    31.755    2.3097    0.1605    75.143   200.000     8.396
 3637.3880    30.582    2.3498    0.1288    57.338   200.000     8.167
 3637.5404    30.826    2.3127    0.1442    40.097   200.000     7.834
 3637.6928    27.516    2.2319    0.1840    95.274   200.000     8.664
 3637.8452    30.058    2.2387    0.1998   184.169   200.000     8.704
 3637.9976    23.987    2.3010    0.2116    83.149   200.000     8.217
 3638.1500    27.117    2.2179    0.1740   190.354   200.000     8.384
 3638.3024    24.818    2.3198    0.1556    75.581   200.000     8.569
 3638.4548    25.679    2.2640    0.1711    40.033   200.000     8.459
 3638.6072    27.875    2.1981    0.1651    69.286   200.000     8.322
 3638.7596    34.874    2.3008    0.1175    85.909   200.000     9.515
 3638.9120    34.139    2.2706    0.1584   125.565   200.000     8.556
 3639.0644    37.172    2.3494    0.1816   146.408   200.000     8.970
 3639.2168    25.685    2.3097    0.1718    71.455   200.000     8.654
 3639.3692    38.037    2.3170    0.1523    39.164   200.000     8.666
 3639.5216    33.949    2.2285    0.1770    28.255   200.000     8.892
 3639.6740    38.331    2.2991    0.1477    76.336   200.000     8.415
 3639.8264    38.780    2.3573    0.2057    89.134   200.000     7.922
 3639.9788    33.580    2.1790    0.1832    89.490   200.000     8.950
 3640.1312    33.544    2.2405    0.1738    90.632   200.000     7.993
 3640.2836    38.162    2.2983    0.1806    97.128   200.000     8.970
 3640.4360    29.664    2.2286    0.1613    32.729   200.000     8.412
 3640.5884    40.263    2.3165    0.1643    36.780   200.000     8.531
 3640.7408    31.972    2.2868    0.1979    62.783   200.000     8.992
 3640.8932    35.903    2.3355    0.1576    44.672   200.000     8.614
 3641.0456    37.315    2.2857    0.1675   122.246   200.000     7.771
 3641.1980    35.520    2.2512    0.1566   170.307   200.000     7.589
 3641.3504    38.526    2.3187    0.2229   119.371   200.000     8.595
 3641.5028    34.951    2.2713    0.1798    63.501   200.000     8.175
 3641.6552    33.687    2.2518    0.1909    63.084   200.000     8.245
 3641.8076    37.515    2.3759    0.1788    76.541   200.000     8.733
 3641.9600    37.222    2.2318    0.1814    38.870   200.000     8.500
 3642.1124    37.672    2.1770    0.1746   149.436   200.000     9.107
 3642.2648    35.141    2.2535    0.1648    58.075   200.000     8.517
 3642.4172    34.884    2.2397    0.1921    71.004   200.000     8.148
 3642.5696    29.943    2.2616    0.1925    81.588   200.000     8.026
 3642.7220    38.335    2.3101    0.1492   112.766   200.000     8.074
 3642.8744    37.354    2.3002    0.1474    65.690   200.000     8.328
 3643.0268    36.539    2.2347    0.1941    67.093   200.000     8.655
 3643.1792    21.343    2.2473    0.1613    62.153   200.000     9.072
 3643.3316    33.422    2.2734    0.2199    73.590   200.000     7.820
 3643.4840    40.283    2.2470    0.1887    79.257   200.000     8.534
 3643.6364    28.257    2.3106    0.1844    70.590   200.000     8.201
 3643.7888    36.545    2.3184    0.2105    43.456   200.000     8.670
 3643.9412    24.567    2.3245    0.1634    48.076   200.000     8.665
 3644.0936    34.162    2.3268    0.1723    54.916   200.000     8.384
 3644.2460    25.726    2.2334    0.1595    31.050   200.000     7.968
 3644.3984    32.911    2.2658    0.2182    39.250   200.000     9.152
 3644.5508    25.341    2.2937    0.1173   104.211   200.000     8.280
 3644.7032    37.320    2.3114    0.1550    71.858   200.000     8.088
 3644.8556    36.744    2.2564    0.2067    51.925   200.000     8.246
 3645.0080    33.982    2.2566    0.1582   110.178   200.000     8.402
 3645.1604    44.826    2.1841    0.1846    66.533   200.000     7.626
 3645.3128    22.957    2.2045    0.1468    74.436   200.000     8.110
 3645.4652    42.006    2.2471    0.1833    89.301   200.000     8.698
 3645.6176    34.355    2.2178    0.1770    38.427   200.000     8.562
 3645.7700    49.279    2.2777    0.2024    41.773   200.000     8.999
 3645.9224    30.364    2.3662    0.1561    43.086   200.000     8.620
 3646.0748    28.140    2.2630    0.2205   141.322   200.000     8.195
 3646.2272    33.248    2.2854    0.1783   184.229   200.000     9.024
 3646.3796    27.914    2.3394    0.1695    88.599   200.000     8.770
 3646.5320    30.517    2.3134    0.1909   124.370   200.000     8.452
 3646.6844    27.774    2.3215    0.1690    73.401   200.000     8.669
 3646.8368    42.223    2.3001    0.1579    45.774   200.000     8.954
 3646.9892    30.724    2.2966    0.1782    60.771   200.000     8.461
 3647.1416    25.482    2.3462    0.1969    43.961   200.000     7.948
 3647.2940    28.778    2.2610    0.1859    38.642   200.000     9.326
 3647.4464    33.417    2.2875    0.2019    67.655   200.000     8.735
 3647.5988    31.107    2.2016    0.1221   139.398   200.000     8.357
