~VERSION INFORMATION
 VERS.                 2.0    : CWLS LOG ASCII STANDARD
 WRAP.                 NO     : ONE LINE PER DEPTH STEP
~WELL INFORMATION
 WELL.                 15/25-1    : Well name
 FLD .                 Magnus         : Field
 CTRY.                 UK       : Country
 STRT.M                3200.0000 : START DEPTH
 STOP.M                4500.0000   : STOP DEPTH
 STEP.M                0.1524        : STEP
 NULL.                 -999.25          : NULL VALUE
 SRVC.                 SubsurfAI        : Service company
~CURVE INFORMATION
 DEPT.M                              : Depth
 GR  .GAPI                           : Gamma Ray
 RHOB.G/C3                           : Bulk Density
 NPHI.V/V                            : Neutron Porosity
 RT  .OHMM                           : True Resistivity
 DT  .US/F                           : Sonic
 CALI.IN                             : Caliper
~PARAMETER INFORMATION
 LAT .                 61.6451   : Latitude
 LON .                 1.0123   : Longitude
 DESC.                 Magnus Fm — Upper Jurassic turbidite sandstone
~A  DEPT        GR        RHOB      NPHI      RT        DT        CALI
# ...
 4216.0508    20.429    2.2760    0.1835   101.084   200.000     8.733
 4216.2032    34.097    2.2215    0.1427    84.880   200.000     7.976
 4216.3556    24.058    2.2446    0.1522    84.912   200.000     8.587
 4216.5080    16.485    2.3039    0.1273   193.206   200.000     7.740
 4216.6604    26.822    2.1720    0.1337   154.175   200.000     8.422
 4216.8128    24.805    2.2438    0.1564    68.133   200.000     8.193
 4216.9652    33.646    2.2930    0.1518    68.151   200.000     8.920
 4217.1176    24.731    2.2520    0.1557    62.292   200.000     8.620
 4217.2700    24.104    2.1739    0.1915   147.412   200.000     8.253
 4217.4224    38.321    2.2144    0.1692   133.636   200.000     8.084
 4217.5748    25.222    2.2432    0.1359    66.211   200.000     8.452
 4217.7272    25.228    2.2448    0.2093    67.031   200.000     8.430
 4217.8796    25.460    2.2356    0.1597    99.063   200.000     8.172
 4218.0320    25.537    2.2248    0.1439    78.075   200.000     8.106
 4218.1844    36.301    2.1829    0.1520    42.871   200.000     7.863
 4218.3368    28.135    2.2652    0.1348    86.465   200.000     8.872
 4218.4892    32.386    2.2659    0.1540   125.328   200.000     8.679
 4218.6416    34.676    2.2260    0.1649    85.477   200.000     8.251
 4218.7940    27.131    2.2842    0.1536    95.409   200.000     8.928
 4218.9464    23.891    2.2392    0.1822    55.960   200.000     8.954
 4219.0988    28.696    2.1896    0.2126   132.520   200.000     7.851
 4219.2512    27.365    2.2271    0.1500   168.267   200.000     7.782
 4219.4036    24.410    2.2324    0.1462    95.005   200.000     8.488
 4219.5560    25.603    2.1606    0.1096   138.596   200.000     8.459
 4219.7084    26.505    2.2326    0.1776    50.323   200.000     8.124
 4219.8608    25.264    2.2982    0.1367    68.082   200.000     7.866
 4220.0132    33.643    2.3273    0.1574    81.326   200.000     8.031
 4220.1656    26.906    2.1506    0.1628   127.263   200.000     8.592
 4220.3180    27.255    2.2614    0.1501   185.132   200.000     9.023
 4220.4704    37.088    2.2505    0.1201   126.177   200.000     8.548
 4220.6228    18.460    2.3155    0.2060    80.575   200.000     8.680
 4220.7752    29.226    2.2220    0.1702   160.269   200.000     9.141
 4220.9276    26.248    2.2703    0.1657    63.516   200.000     8.183
 4221.0800    28.020    2.2659    0.1453    72.074   200.000     8.507
 4221.2324    25.026    2.2455    0.1857    59.671   200.000     8.820
 4221.3848    33.202    2.2294    0.1710    68.215   200.000     7.981
 4221.5372    21.309    2.2405    0.0972    55.268   200.000     8.541
 4221.6896    31.587    2.2936    0.1743   125.240   200.000     8.873
 4221.8420    23.807    2.2648    0.1554    44.787   200.000     8.415
 4221.9944    24.503    2.2520    0.1835    62.895   200.000     8.522
 4222.1468    25.039    2.2494    0.1763    65.937   200.000     7.975
 4222.2992    26.550    2.2649    0.1624    71.591   200.000     8.895
 4222.4516    26.846    2.2690    0.1670   116.142   200.000     8.486
 4222.6040    30.092    2.1284    0.1515    48.448   200.000     8.407
 4222.7564    30.983    2.3548    0.1424    64.548   200.000     9.022
 4222.9088    32.350    2.2181    0.1602    40.434   200.000     8.833
 4223.0612    30.696    2.2671    0.1819    75.560   200.000     8.831
 4223.2136    29.583    2.1344    0.1507    68.242   200.000     9.081
 4223.3660    31.754    2.2711    0.1407    62.439   200.000     9.159
 4223.5184    26.720    2.2362    0.1165   102.543   200.000     8.334
 4223.6708    22.143    2.2424    0.1719    62.526   200.000     9.206
 4223.8232    33.361    2.2606    0.1927   120.740   200.000     9.070
 4223.9756    31.153    2.2780    0.1802    46.364   200.000     8.292
 4224.1280    31.138    2.2315    0.1535    87.268   200.000     8.465
 4224.2804    25.627    2.2549    0.1650    58.081   200.000     8.309
 4224.4328    36.713    2.1889    0.1600    80.722   200.000     8.928
 4224.5852    26.109    2.2402    0.1776   142.803   200.000     8.373
 4224.7376    30.745    2.2331    0.1326    60.423   200.000     8.419
 4224.8900    33.165    2.2136    0.1391   120.670   200.000     8.243
 4225.0424    38.421    2.2664    0.1739    60.041   200.000     9.021
 4225.1948    25.575    2.3247    0.1492    53.087   200.000     8.495
 4225.3472    28.130    2.3307    0.1306   182.635   200.000     8.176
 4225.4996    26.978    2.2775    0.1680    99.573   200.000     7.908
 4225.6520    28.795    2.2771    0.1499   120.845   200.000     9.279
 4225.8044    32.053    2.1862    0.1487   222.969   200.000     8.745
 4225.9568    33.773    2.2121    0.1709   100.356   200.000     8.840
 4226.1092    32.917    2.2455    0.1502    78.257   200.000     8.203
 4226.2616    30.627    2.1982    0.1584    69.834   200.000     8.701
 4226.4140    29.055    2.2492    0.1599    43.881   200.000     8.676
 4226.5664    17.560    2.2784    0.1861    69.409   200.000     8.292
 4226.7188    33.376    2.2752    0.1862   141.996   200.000     8.012
 4226.8712    30.942    2.2414    0.1790   122.889   200.000     9.040
 4227.0236    32.829    2.2275    0.1245   137.298   200.000     8.404
 4227.1760    24.545    2.1792    0.1700   140.211   200.000     9.226
 4227.3284    27.664    2.2081    0.1790   170.095   200.000     8.717
 4227.4808    22.184    2.2623    0.1620    38.046   200.000     8.626
 4227.6332    27.221    2.2792    0.1769    69.219   200.000     8.011
 4227.7856    30.299    2.2807    0.1616   154.929   200.000     8.895
 4227.9380    27.675    2.2566    0.1313    53.672   200.000     8.607
 4228.0904    33.150    2.2495    0.1524    73.274   200.000     9.072
 4228.2428    25.941    2.2404    0.1733    71.243   200.000     8.492
 4228.3952    36.605    2.3220    0.2132    72.105   200.000     8.797
 4228.5476    35.654    2.1981    0.1658   125.030   200.000     8.027
 4228.7000    24.963    2.1783    0.1612    83.067   200.000     9.051
 4228.8524    29.349    2.3337    0.1732   124.138   200.000     8.271
 4229.0048    32.154    2.2381    0.1417   162.856   200.000     8.571
 4229.1572    23.311    2.3325    0.1514    42.176   200.000     8.591
 4229.3096    17.497    2.2521    0.1583   132.639   200.000     7.912
 4229.4620    26.611    2.2187    0.1509    55.442   200.000     8.112
 4229.6144    31.423    2.2334    0.1713    82.214   200.000     8.961
 4229.7668    28.718    2.1503    0.1570    84.511   200.000     8.190
 4229.9192    27.757    2.2450    0.1668    94.289   200.000     8.294
 4230.0716    30.059    2.2858    0.1419   161.101   200.000     8.223
 4230.2240    28.196    2.2153    0.1709    98.422   200.000     8.633
 4230.3764    24.290    2.2192    0.1450   104.261   200.000     9.142
 4230.5288    24.622    2.3028    0.1776    32.021   200.000     8.266
 4230.6812    32.304    2.2587    0.1789    53.978   200.000     8.376
 4230.8336    28.547    2.2572    0.1552    66.063   200.000     8.357
 4230.9860    29.859    2.2772    0.1770   119.485   200.000     8.229
 4231.1384    36.320    2.3248    0.1439    84.569   200.000     8.312
 4231.2908    20.516    2.3203    0.1507   133.563   200.000     8.741
 4231.4432    20.952    2.2153    0.1636   166.979   200.000     8.438
 4231.5956    29.995    2.2428    0.1525    86.152   200.000     8.033
 4231.7480    36.057    2.2252    0.1889    92.861   200.000     8.444
 4231.9004    29.288    2.2389    0.1776    82.918   200.000     7.857
 4232.0528    28.882    2.1709    0.1828    61.724   200.000     8.515
 4232.2052    27.622    2.2190    0.2026   184.099   200.000     8.602
 4232.3576    30.717    2.1385    0.1818    48.800   200.000     9.114
 4232.5100    27.240    2.2034    0.1292    61.412   200.000     8.484
 4232.6624    28.848    2.2103    0.1842   174.978   200.000     8.046
 4232.8148    30.669    2.1972    0.1731   107.941   200.000     8.296
 4232.9672    31.598    2.3552    0.2029   111.944   200.000     8.266
 4233.1196    29.054    2.3314    0.1563   177.851   200.000     8.132
