~VERSION INFORMATION
 VERS.                 2.0    : CWLS LOG ASCII STANDARD
 WRAP.                 NO     : ONE LINE PER DEPTH STEP
~WELL INFORMATION
 WELL.                 15/25-1    : Well name
 FLD .                 Magnus         : Field
 CTRY.                 UK       : Country
 STRT.M                3200.0000 : START DEPTH
 STOP.M                4500.0000   : STOP DEPTH
 STEP.M                0.1524        : STEP
 NULL.                 -999.25          : NULL VALUE
 SRVC.                 SubsurfAI        : Service company
~CURVE INFORMATION
 DEPT.M                              : Depth
 GR  .GAPI                           : Gamma Ray
 RHOB.G/C3                           : Bulk Density
 NPHI.V/V                            : Neutron Porosity
 RT  .OHMM                           : True Resistivity
 DT  .US/F                           : Sonic
 CALI.IN                             : Caliper
~PARAMETER INFORMATION
 LAT .                 61.6451   : Latitude
 LON .                 1.0123   : Longitude
 DESC.                 Magnus Fm — Upper Jurassic turbidite sandstone
~A  DEPT        GR        RHOB      NPHI      RT        DT        CALI
# ...
 3871.6268    87.883    2.5664    0.3190     2.372   170.408     8.140
 3871.7792    96.553    2.4547    0.2703     3.424   200.000     8.895
 3871.9316   109.169    2.4523    0.2661     1.859   199.832     8.496
 3872.0840   114.484    2.4698    0.3048     1.811   180.686     9.183
 3872.2364   108.500    2.4807    0.2822     1.089   189.607     7.985
 3872.3888    96.646    2.3980    0.2257     1.106   200.000     8.786
 3872.5412   103.881    2.4943    0.3763     1.352   143.702     9.088
 3872.6936    99.318    2.4029    0.3412     2.676   164.335     8.030
 3872.8460   122.385    2.4859    0.2498     4.627   200.000     7.460
 3872.9984   104.997    2.4735    0.2600     3.428   200.000     8.176
 3873.1508   113.281    2.4941    0.3052     2.169   184.337     8.629
 3873.3032    99.966    2.4334    0.3138     1.557   172.895     8.363
 3873.4556    79.784    2.4639    0.3331     1.930   165.667     8.596
 3873.6080   108.796    2.4450    0.3443     2.066   159.541     7.868
 3873.7604   113.857    2.4364    0.3271     0.842   165.732     8.677
 3873.9128   117.464    2.4834    0.3615     0.474   148.182     8.625
 3874.0652   110.753    2.5027    0.3419     1.565   168.373     7.675
 3874.2176   129.489    2.4604    0.3196     1.569   172.733     7.969
 3874.3700   111.515    2.4306    0.3001     2.857   182.104     8.668
 3874.5224   104.512    2.5156    0.3155     1.192   176.453     8.196
 3874.6748    93.588    2.4762    0.3174     2.239   175.148     7.961
 3874.8272    94.428    2.4474    0.2489     0.882   200.000     8.080
 3874.9796   117.299    2.4382    0.2882     3.993   182.464     7.874
 3875.1320    90.434    2.4548    0.3312     1.625   167.767     8.408
 3875.2844    86.310    2.4403    0.2991     1.353   189.887     8.872
 3875.4368   116.160    2.5591    0.4004     1.657   134.783     8.248
 3875.5892   106.419    2.5219    0.2158     1.657   200.000     8.300
 3875.7416    95.379    2.4715    0.2249     3.687   200.000     8.600
 3875.8940   113.632    2.3790    0.2992     3.179   182.490     8.348
 3876.0464   105.557    2.5240    0.3063     4.632   176.522     8.975
 3876.1988   109.836    2.4796    0.3117     1.761   180.965     8.727
 3876.3512    98.763    2.5007    0.2878     1.587   194.373     8.972
 3876.5036   112.824    2.4983    0.3883     0.762   140.069     7.825
 3876.6560    78.389    2.4903    0.2914     2.515   187.490     8.142
 3876.8084   125.265    2.4645    0.2960     2.877   186.206     8.715
 3876.9608   100.257    2.4414    0.3201     1.683   170.982     8.380
 3877.1132    92.466    2.4400    0.2076     1.517   200.000     8.158
 3877.2656   120.824    2.5045    0.3909     1.037   144.425     8.322
 3877.4180   105.729    2.5294    0.2992     1.796   184.213     8.217
 3877.5704   133.597    2.5133    0.2950     1.479   180.188     8.323
 3877.7228   113.530    2.4876    0.3140     4.285   183.537     8.710
 3877.8752   117.338    2.5069    0.3308     1.365   158.465     7.566
 3878.0276   100.225    2.4404    0.3162     1.964   172.179     8.701
 3878.1800    90.960    2.5020    0.3598     2.714   153.293     8.403
 3878.3324   109.926    2.4675    0.3367     2.633   164.338     8.465
 3878.4848   104.266    2.4261    0.3127     2.012   182.605     8.302
 3878.6372   104.681    2.5646    0.3407     2.034   160.112     8.117
 3878.7896   109.574    2.4343    0.2326     1.132   200.000     8.376
 3878.9420   129.880    2.4847    0.3033     1.904   182.602     8.615
 3879.0944    99.679    2.4849    0.2504     2.445   200.000     7.795
 3879.2468    99.509    2.5537    0.3549     1.683   148.572     8.709
 3879.3992    72.449    2.5126    0.3198     1.947   176.112     8.604
 3879.5516   101.496    2.5562    0.2464     1.021   200.000     8.582
 3879.7040    79.620    2.4151    0.3350     0.710   157.182     8.950
 3879.8564   103.983    2.4635    0.2995     4.416   189.593     8.524
 3880.0088    97.392    2.4393    0.2547     1.197   200.000     8.078
 3880.1612   113.893    2.4893    0.2969     2.087   182.138     9.331
 3880.3136   101.350    2.3973    0.3200     2.179   170.660     8.137
 3880.4660    98.210    2.3579    0.3296     2.264   164.461     8.438
 3880.6184   120.468    2.4561    0.3139     0.955   179.827     9.230
 3880.7708   120.375    2.5316    0.3230     1.092   171.577     8.377
 3880.9232   102.734    2.5487    0.2999     2.067   180.688     8.490
 3881.0756   104.626    2.4756    0.2909     2.503   191.103     8.852
 3881.2280    90.654    2.4026    0.3261     4.025   167.369     8.276
 3881.3804   108.061    2.4088    0.3027     2.418   182.412     8.956
 3881.5328   112.783    2.4179    0.3314     1.557   167.603     8.670
 3881.6852    98.633    2.5396    0.2722     2.838   198.795     8.593
 3881.8376    89.769    2.5549    0.3287     1.176   172.790     8.111
 3881.9900    75.894    2.5231    0.2892     1.898   187.185     7.966
 3882.1424   123.259    2.4352    0.2074     1.635   200.000     8.264
 3882.2948   102.902    2.5353    0.2171     2.608   200.000     7.976
 3882.4472    92.818    2.4480    0.1770     1.432   200.000     8.219
 3882.5996   111.423    2.4103    0.3750     2.623   152.470     8.575
 3882.7520   116.751    2.4147    0.3070     2.605   180.308     8.466
 3882.9044   106.184    2.4993    0.3465     1.371   162.366     9.055
 3883.0568    89.347    2.4379    0.2838     3.080   190.368     8.810
 3883.2092    96.458    2.4155    0.3142     2.683   183.282     9.592
 3883.3616    98.031    2.4403    0.2348     2.064   200.000     8.728
 3883.5140   121.636    2.4387    0.2704     3.940   200.000     7.780
 3883.6664   103.484    2.4686    0.2938     4.390   181.874     8.549
 3883.8188    91.811    2.4104    0.4079     2.202   132.867     8.357
 3883.9712    97.928    2.4720    0.3614     0.752   146.527     8.815
 3884.1236    98.717    2.4717    0.3618     1.412   161.076     7.634
 3884.2760    82.494    2.5416    0.4017     1.707   132.575     8.503
 3884.4284    94.312    2.4039    0.2584     2.731   200.000     8.283
 3884.5808   102.874    2.4379    0.3070     2.352   177.309     8.483
 3884.7332    86.227    2.5475    0.3647     1.078   146.828     9.041
 3884.8856   101.647    2.4820    0.4026     2.099   137.900     8.570
 3885.0380    79.070    2.4480    0.3207     0.911   167.698     8.449
 3885.1904   105.001    2.4144    0.3257     2.199   170.272     7.934
 3885.3428   119.321    2.4174    0.2496     0.715   200.000     7.610
 3885.4952   108.421    2.4593    0.2135     1.353   200.000     8.349
 3885.6476    81.426    2.4554    0.3749     2.951   142.672     7.975
 3885.8000    94.567    2.5336    0.3080     1.206   188.655     8.764
 3885.9524   102.307    2.4091    0.3029     2.586   174.059     8.489
 3886.1048    94.790    2.4507    0.3997     0.834   137.114     8.437
 3886.2572   102.573    2.4130    0.3602     1.221   154.459     8.566
 3886.4096   101.517    2.4534    0.2458     1.627   200.000     8.096
 3886.5620    97.622    2.4100    0.3071     1.730   181.203     9.025
 3886.7144   113.527    2.4589    0.2290     1.944   200.000     8.851
 3886.8668   136.398    2.4484    0.2193     1.139   200.000     8.772
 3887.0192   104.882    2.4800    0.2822     1.056   190.606     8.520
 3887.1716   106.912    2.4125    0.2044     1.836   200.000     8.435
 3887.3240   118.987    2.4578    0.2436     1.944   200.000     8.334
 3887.4764    77.638    2.5595    0.3631     2.194   149.276     8.864
 3887.6288   120.632    2.4706    0.3610     2.722   159.167     8.173
 3887.7812    99.412    2.4694    0.2547     1.021   200.000     8.963
 3887.9336    99.534    2.4371    0.2377     0.498   200.000     8.753
 3888.0860    90.484    2.4586    0.3038     2.827   181.562     7.848
 3888.2384   108.556    2.4929    0.2620     3.103   200.000     8.210
 3888.3908   112.212    2.4952    0.3282     1.645   165.649     8.081
 3888.5432   112.696    2.5124    0.2718     2.318   200.000     7.556
 3888.6956    89.862    2.5016    0.3833     1.800   140.439     8.710
