~VERSION INFORMATION
 VERS.                 2.0    : CWLS LOG ASCII STANDARD
 WRAP.                 NO     : ONE LINE PER DEPTH STEP
~WELL INFORMATION
 WELL.                 15/25-1    : Well name
 FLD .                 Magnus         : Field
 CTRY.                 UK       : Country
 STRT.M                3200.0000 : START DEPTH
 STOP.M                4500.0000   : STOP DEPTH
 STEP.M                0.1524        : STEP
 NULL.                 -999.25          : NULL VALUE
 SRVC.                 SubsurfAI        : Service company
~CURVE INFORMATION
 DEPT.M                              : Depth
 GR  .GAPI                           : Gamma Ray
 RHOB.G/C3                           : Bulk Density
 NPHI.V/V                            : Neutron Porosity
 RT  .OHMM                           : True Resistivity
 DT  .US/F                           : Sonic
 CALI.IN                             : Caliper
~PARAMETER INFORMATION
 LAT .                 61.6451   : Latitude
 LON .                 1.0123   : Longitude
 DESC.                 Magnus Fm — Upper Jurassic turbidite sandstone
~A  DEPT        GR        RHOB      NPHI      RT        DT        CALI
# ...
 4043.8388    27.645    2.2160    0.1810    31.995   200.000     8.133
 4043.9912    39.169    2.1270    0.1321   142.371   200.000     8.225
 4044.1436    26.884    2.3079    0.1485    75.005   200.000     8.191
 4044.2960    23.611    2.2662    0.1394   106.422   200.000     8.636
 4044.4484    32.675    2.2063    0.2109    83.123   200.000     8.645
 4044.6008    25.778    2.1239    0.1227    61.549   200.000     9.423
 4044.7532    32.414    2.2170    0.1595    88.110   200.000     8.683
 4044.9056    29.160    2.2976    0.1354    71.238   200.000     8.385
 4045.0580    25.289    2.2816    0.1714    86.386   200.000     8.302
 4045.2104    28.489    2.1852    0.1401    69.831   200.000     8.891
 4045.3628    32.196    2.2085    0.1361   238.895   200.000     8.276
 4045.5152    28.255    2.2088    0.1509   107.039   200.000     9.381
 4045.6676    27.421    2.2025    0.1607   136.693   200.000     7.637
 4045.8200    25.696    2.1750    0.1658    48.838   200.000     8.489
 4045.9724    25.331    2.2573    0.1307    54.336   200.000     8.878
 4046.1248    31.326    2.1481    0.1747   118.598   200.000     8.108
 4046.2772    28.834    2.2226    0.1879    27.096   200.000     9.013
 4046.4296    30.780    2.2100    0.1793   118.359   200.000     8.593
 4046.5820    39.946    2.2445    0.1622   107.097   200.000     8.542
 4046.7344    23.225    2.2463    0.1710    85.459   200.000     8.589
 4046.8868    36.373    2.2331    0.1472    86.953   200.000     8.385
 4047.0392    29.209    2.2980    0.1539    86.704   200.000     9.064
 4047.1916    36.269    2.2731    0.1522    71.233   200.000     9.287
 4047.3440    23.077    2.1909    0.1666    46.709   200.000     9.068
 4047.4964    31.299    2.2317    0.1652   147.176   200.000     8.611
 4047.6488    31.509    2.2915    0.2013   144.259   200.000     8.040
 4047.8012    34.113    2.2593    0.1135    48.749   200.000     8.644
 4047.9536    29.503    2.1824    0.1725    83.436   200.000     8.702
 4048.1060    23.102    2.2889    0.1271    70.988   200.000     8.169
 4048.2584    31.788    2.2795    0.1570   164.820   200.000     8.877
 4048.4108    37.876    2.2332    0.1201   144.466   200.000     8.360
 4048.5632    31.693    2.2513    0.1309   148.457   200.000     8.786
 4048.7156    24.025    2.2610    0.1462    91.764   200.000     7.621
 4048.8680    30.922    2.2503    0.1568    51.063   200.000     8.969
 4049.0204    29.983    2.2509    0.1645    67.880   200.000     8.280
 4049.1728    28.198    2.2762    0.1755    47.018   200.000     8.381
 4049.3252    28.105    2.2501    0.1353   104.670   200.000     8.455
 4049.4776    24.284    2.2622    0.1638    82.695   200.000     8.447
 4049.6300    24.916    2.1952    0.1659   172.046   200.000     8.445
 4049.7824    34.207    2.1881    0.1640    64.829   200.000     8.388
 4049.9348    31.715    2.1414    0.1836    87.501   200.000     8.218
 4050.0872    32.567    2.2384    0.1868    71.277   200.000     8.519
 4050.2396    30.633    2.2343    0.1400    71.681   200.000     8.472
 4050.3920    27.731    2.2632    0.1557    98.472   200.000     8.432
 4050.5444    26.024    2.1678    0.1069   219.929   200.000     9.711
 4050.6968    28.833    2.2827    0.1552    98.771   200.000     8.543
 4050.8492    25.403    2.2515    0.1266   110.853   200.000     8.748
 4051.0016    16.799    2.2028    0.1966    87.269   200.000     8.532
 4051.1540    38.129    2.2816    0.1729   138.014   200.000     8.938
 4051.3064    34.870    2.2059    0.1939    98.631   200.000     7.954
 4051.4588    27.665    2.2007    0.1821    70.108   200.000     8.151
 4051.6112    31.506    2.3163    0.1446   116.705   200.000     9.407
 4051.7636    38.222    2.2999    0.1311    87.219   200.000     8.715
 4051.9160    26.837    2.2317    0.1456   108.242   200.000     8.657
 4052.0684    26.093    2.2183    0.1435    92.345   200.000     8.220
 4052.2208    31.225    2.2586    0.1815   114.894   200.000     8.490
 4052.3732    30.525    2.1927    0.1642    42.900   200.000     9.363
 4052.5256    32.061    2.2704    0.1239   125.077   200.000     7.763
 4052.6780    28.450    2.2298    0.1845   216.934   200.000     8.270
 4052.8304    26.275    2.2958    0.1700   121.826   200.000     8.396
 4052.9828    30.483    2.2782    0.1396    59.691   200.000     8.655
 4053.1352    27.740    2.2796    0.1771    64.600   200.000     8.614
 4053.2876    32.497    2.2180    0.1612   144.760   200.000     8.527
 4053.4400    27.674    2.2474    0.1302    44.935   200.000     8.738
 4053.5924    26.042    2.3034    0.1861    92.823   200.000     8.869
 4053.7448    19.996    2.1905    0.1467    53.931   200.000     8.746
 4053.8972    26.540    2.2544    0.1614    27.408   200.000     8.814
 4054.0496    25.791    2.2082    0.1245    81.682   200.000     8.535
 4054.2020    26.685    2.2366    0.1905    96.810   200.000     7.866
 4054.3544    31.502    2.2088    0.1422   190.306   200.000     8.726
 4054.5068    29.206    2.3074    0.1602    53.125   200.000     8.468
 4054.6592    32.728    2.2571    0.1343    99.792   200.000     8.990
 4054.8116    28.498    2.2189    0.1641    77.682   200.000     9.216
 4054.9640    23.957    2.3086    0.1670   234.945   200.000     8.795
 4055.1164    18.634    2.2097    0.1419   156.404   200.000     8.061
 4055.2688    35.349    2.1796    0.1471   112.015   200.000     8.640
 4055.4212    19.283    2.2611    0.1759    52.375   200.000     8.143
 4055.5736    26.749    2.2778    0.1557   148.139   200.000     7.720
 4055.7260    26.485    2.2604    0.1278   146.809   200.000     9.012
 4055.8784    29.686    2.2337    0.1388   111.896   200.000     9.450
 4056.0308    27.793    2.2146    0.1398    57.928   200.000     8.277
 4056.1832    28.639    2.2425    0.2107    75.667   200.000     7.733
 4056.3356    24.998    2.2205    0.1857    49.601   200.000     8.071
 4056.4880    26.721    2.2916    0.1935   110.238   200.000     8.511
 4056.6404    27.097    2.2804    0.1696   138.904   200.000     8.811
 4056.7928    24.963    2.2577    0.1935   135.273   200.000     8.418
 4056.9452    24.611    2.2349    0.1044   222.403   200.000     9.081
 4057.0976    27.343    2.1968    0.1807   437.865   200.000     8.373
 4057.2500    28.149    2.2035    0.1475   179.231   200.000     8.979
 4057.4024    22.045    2.3249    0.2046    62.936   200.000     7.866
 4057.5548    35.320    2.2766    0.1639   184.272   200.000     7.691
 4057.7072    29.158    2.1942    0.1420    62.289   200.000     7.845
 4057.8596    29.767    2.2051    0.1839   105.640   200.000     8.704
 4058.0120    29.303    2.2812    0.1509    67.234   200.000     8.207
 4058.1644    35.949    2.3199    0.1781   137.626   200.000     8.543
 4058.3168    27.115    2.2825    0.1803   192.199   200.000     7.697
 4058.4692    23.701    2.2042    0.1386    65.332   200.000     8.583
 4058.6216    25.300    2.2085    0.1704   129.748   200.000     8.186
 4058.7740    28.411    2.2329    0.1752    55.416   200.000     8.275
 4058.9264    31.590    2.2290    0.2038   114.310   200.000     8.842
 4059.0788    29.413    2.2065    0.1340   170.500   200.000     8.892
 4059.2312    31.740    2.2443    0.1861   131.442   200.000     8.160
 4059.3836    29.076    2.3034    0.1795    78.122   200.000     8.866
 4059.5360    33.113    2.2091    0.1408    71.285   200.000     8.486
 4059.6884    30.118    2.2371    0.2091    68.491   200.000     9.234
 4059.8408    30.203    2.2041    0.1646    85.787   200.000     8.365
 4059.9932    27.380    2.1537    0.1772    64.657   200.000     8.136
 4060.1456    33.176    2.2138    0.1503    79.069   200.000     8.494
 4060.2980    30.005    2.1662    0.1852    75.463   200.000     8.324
 4060.4504    23.573    2.2356    0.1517   216.732   200.000     8.308
 4060.6028    24.651    2.2454    0.1472   140.845   200.000     8.317
 4060.7552    23.691    2.2929    0.2008    61.633   200.000     9.228
 4060.9076    29.618    2.2549    0.1502    61.007   200.000     8.497
