~VERSION INFORMATION
 VERS.                 2.0    : CWLS LOG ASCII STANDARD
 WRAP.                 NO     : ONE LINE PER DEPTH STEP
~WELL INFORMATION
 WELL.                 15/25-1    : Well name
 FLD .                 Magnus         : Field
 CTRY.                 UK       : Country
 STRT.M                3200.0000 : START DEPTH
 STOP.M                4500.0000   : STOP DEPTH
 STEP.M                0.1524        : STEP
 NULL.                 -999.25          : NULL VALUE
 SRVC.                 SubsurfAI        : Service company
~CURVE INFORMATION
 DEPT.M                              : Depth
 GR  .GAPI                           : Gamma Ray
 RHOB.G/C3                           : Bulk Density
 NPHI.V/V                            : Neutron Porosity
 RT  .OHMM                           : True Resistivity
 DT  .US/F                           : Sonic
 CALI.IN                             : Caliper
~PARAMETER INFORMATION
 LAT .                 61.6451   : Latitude
 LON .                 1.0123   : Longitude
 DESC.                 Magnus Fm — Upper Jurassic turbidite sandstone
~A  DEPT        GR        RHOB      NPHI      RT        DT        CALI
# ...
 4302.1568   100.221    2.5175    0.3340     1.692   162.888     8.904
 4302.3092   120.282    2.5878    0.3272     0.539   161.061     8.404
 4302.4616   101.043    2.4864    0.4120     0.962   138.103     8.666
 4302.6140   105.546    2.4884    0.3400     1.214   170.915     8.374
 4302.7664   104.277    2.4664    0.2478     0.622   200.000     8.653
 4302.9188   106.733    2.4492    0.3333     1.896   163.036     8.894
 4303.0712    98.850    2.4320    0.3489     1.834   161.182     8.755
 4303.2236   142.374    2.5288    0.3179     1.405   174.038     8.907
 4303.3760   111.536    2.4496    0.3039     2.180   182.673     8.851
 4303.5284    81.818    2.5130    0.3192     1.044   170.462     7.818
 4303.6808   102.874    2.5807    0.2904     0.772   192.381     8.138
 4303.8332    85.713    2.5402    0.3537     1.277   154.278     8.234
 4303.9856   114.630    2.5234    0.2914     0.709   185.290     8.825
 4304.1380    99.695    2.4314    0.3237     1.838   173.963     8.877
 4304.2904    92.125    2.5135    0.3800     2.428   142.451     8.665
 4304.4428   138.541    2.4316    0.2351     1.901   200.000     8.083
 4304.5952   139.022    2.4610    0.3471     0.970   154.515     8.790
 4304.7476   120.553    2.5081    0.3346     2.032   156.105     8.907
 4304.9000   107.965    2.5149    0.3131     0.767   170.657     8.102
 4305.0524   114.747    2.4606    0.2598     0.613   200.000     8.084
 4305.2048   125.724    2.4866    0.2934     2.228   189.320     8.296
 4305.3572    95.425    2.4860    0.2745     1.308   200.000     8.989
 4305.5096   127.242    2.4747    0.2644     3.448   200.000     8.309
 4305.6620   124.871    2.4369    0.3279     1.606   169.102     7.945
 4305.8144   107.149    2.5488    0.2668     1.334   200.000     9.135
 4305.9668   111.381    2.4916    0.3392     0.809   163.024     8.552
 4306.1192   128.289    2.5364    0.3036     1.127   174.681     8.348
 4306.2716   117.404    2.4700    0.2938     1.453   189.786     8.629
 4306.4240   127.805    2.5585    0.3042     2.450   195.260     8.495
 4306.5764   113.873    2.4654    0.3536     1.092   163.074     8.507
 4306.7288   118.068    2.4371    0.3480     1.174   160.768     8.155
 4306.8812   129.176    2.4364    0.3634     1.786   149.604     8.799
 4307.0336    87.571    2.5342    0.3309     1.359   164.895     9.102
 4307.1860   114.142    2.5284    0.2867     2.849   190.127     7.689
 4307.3384    92.322    2.5552    0.3146     1.983   180.733     8.835
 4307.4908    99.088    2.5568    0.2850     1.195   195.648     8.270
 4307.6432   117.068    2.4769    0.3421     2.105   155.313     7.753
 4307.7956   123.254    2.5007    0.2353     2.121   200.000     8.044
 4307.9480   102.238    2.4656    0.2764     2.021   192.773     8.808
 4308.1004   110.155    2.4933    0.3086     2.048   173.549     8.385
 4308.2528   108.443    2.6104    0.2632     3.964   200.000     7.963
 4308.4052   121.504    2.4439    0.2832     0.754   194.995     9.007
 4308.5576   121.892    2.4259    0.3562     1.920   149.188     9.098
 4308.7100   116.409    2.4662    0.2970     1.965   186.741     8.899
 4308.8624   114.483    2.5047    0.3708     1.034   143.005     8.118
 4309.0148    88.665    2.4584    0.3853     1.097   134.558     8.791
 4309.1672   121.425    2.5191    0.3150     1.773   175.687     8.967
 4309.3196    90.862    2.4999    0.2989     2.420   179.136     8.710
 4309.4720   112.615    2.4924    0.2469     1.792   200.000     8.772
 4309.6244    96.471    2.5410    0.3138     1.443   175.529     8.009
 4309.7768   118.330    2.5048    0.3379     3.927   166.864     9.078
 4309.9292   116.760    2.5661    0.3812     1.976   149.304     8.703
 4310.0816   118.872    2.5111    0.2863     1.531   197.049     8.283
 4310.2340   118.520    2.5511    0.3198     1.232   167.885     8.514
 4310.3864   103.591    2.5012    0.3876     3.227   143.280     8.235
 4310.5388   114.680    2.4557    0.3579     1.055   150.423     8.695
 4310.6912   121.840    2.5359    0.2649     3.536   200.000     8.288
 4310.8436   103.144    2.4353    0.3528     0.938   163.702     8.367
 4310.9960   104.676    2.4875    0.3164     1.114   178.280     8.324
 4311.1484   119.878    2.4543    0.2401     1.550   200.000     8.541
 4311.3008   123.519    2.5011    0.3432     1.435   167.040     8.518
 4311.4532   105.160    2.5077    0.3442     0.905   153.964     8.282
 4311.6056   115.536    2.4195    0.2624     2.332   200.000     8.375
 4311.7580   134.292    2.3846    0.3439     1.509   155.034     8.946
 4311.9104    80.770    2.4248    0.2972     2.523   181.525     8.121
 4312.0628    89.416    2.4911    0.3836     0.458   145.855     9.023
 4312.2152   128.377    2.4817    0.3732     1.848   144.330     8.289
 4312.3676   106.566    2.5127    0.3135     2.438   175.060     8.816
 4312.5200    88.730    2.4109    0.2849     1.110   191.722     8.828
 4312.6724   133.580    2.4408    0.2888     0.821   184.288     9.357
 4312.8248    94.267    2.5115    0.3096     4.122   174.590     8.887
 4312.9772    90.674    2.4630    0.3354     1.582   162.478     9.213
 4313.1296    99.702    2.4519    0.3090     2.095   175.848     8.023
 4313.2820   119.450    2.5368    0.3457     1.477   163.162     8.995
 4313.4344   102.247    2.4533    0.3649     1.656   147.381     8.083
 4313.5868   124.793    2.4591    0.4101     1.953   138.710     7.904
 4313.7392    87.246    2.5743    0.3435     2.945   152.356     9.298
 4313.8916   135.122    2.4816    0.2299     1.271   200.000     9.163
 4314.0440   106.741    2.4481    0.3901     1.569   139.761     8.762
 4314.1964   109.543    2.5511    0.3437     1.206   152.634     8.126
 4314.3488   106.705    2.4896    0.3592     2.004   147.839     8.470
 4314.5012    75.846    2.5639    0.3328     1.544   164.139     8.139
 4314.6536   114.604    2.5291    0.3728     1.122   153.014     8.243
 4314.8060    89.475    2.5045    0.3020     2.057   174.336     7.957
 4314.9584    91.287    2.4748    0.3419     1.216   164.086     9.155
 4315.1108   109.234    2.5053    0.2204     1.022   200.000     8.780
 4315.2632   109.252    2.4642    0.3094     3.018   182.477     8.961
 4315.4156   116.628    2.4434    0.3626     2.346   157.666     8.185
 4315.5680   110.269    2.4101    0.2321     4.433   200.000     7.774
 4315.7204   104.409    2.4548    0.2833     1.049   185.320     8.877
 4315.8728   110.076    2.5091    0.3500     1.160   154.447     8.009
 4316.0252   100.731    2.5194    0.3035     1.415   183.921     8.804
 4316.1776   101.358    2.5548    0.3114     1.172   168.409     7.858
 4316.3300   101.023    2.4780    0.3674     1.926   147.403     9.077
 4316.4824   114.617    2.4739    0.3433     2.215   162.567     8.395
 4316.6348    98.674    2.5089    0.3429     1.102   171.839     8.151
 4316.7872    78.922    2.4142    0.2754     1.984   200.000     7.989
 4316.9396   103.751    2.4346    0.3398     1.216   171.361     8.495
 4317.0920   103.513    2.5069    0.3376     3.312   165.131     8.058
 4317.2444   114.330    2.4026    0.3209     0.753   168.323     7.114
 4317.3968    98.616    2.4088    0.2362     0.691   200.000     8.557
 4317.5492   122.526    2.4196    0.3322     1.614   164.575     8.699
 4317.7016   108.373    2.5147    0.3325     1.832   169.154     7.941
 4317.8540   120.594    2.5527    0.4012     1.153   133.908     9.120
 4318.0064   120.996    2.4714    0.3417     1.692   156.071     8.714
 4318.1588   117.283    2.5144    0.2313     1.682   200.000     8.054
 4318.3112   111.477    2.5133    0.3307     2.847   163.791     9.195
 4318.4636   110.442    2.5601    0.2748     0.870   199.512     8.997
 4318.6160    85.097    2.6115    0.3148     1.060   168.957     8.824
 4318.7684   124.881    2.4533    0.3746     1.576   149.143     7.515
 4318.9208   107.395    2.4469    0.3250     1.666   173.759     8.348
 4319.0732    83.586    2.5696    0.3306     1.273   163.126     8.653
 4319.2256   130.206    2.4903    0.2535     2.509   200.000     8.700
