~VERSION INFORMATION
 VERS.                 2.0    : CWLS LOG ASCII STANDARD
 WRAP.                 NO     : ONE LINE PER DEPTH STEP
~WELL INFORMATION
 WELL.                 15/25-1    : Well name
 FLD .                 Magnus         : Field
 CTRY.                 UK       : Country
 STRT.M                3200.0000 : START DEPTH
 STOP.M                4500.0000   : STOP DEPTH
 STEP.M                0.1524        : STEP
 NULL.                 -999.25          : NULL VALUE
 SRVC.                 SubsurfAI        : Service company
~CURVE INFORMATION
 DEPT.M                              : Depth
 GR  .GAPI                           : Gamma Ray
 RHOB.G/C3                           : Bulk Density
 NPHI.V/V                            : Neutron Porosity
 RT  .OHMM                           : True Resistivity
 DT  .US/F                           : Sonic
 CALI.IN                             : Caliper
~PARAMETER INFORMATION
 LAT .                 61.6451   : Latitude
 LON .                 1.0123   : Longitude
 DESC.                 Magnus Fm — Upper Jurassic turbidite sandstone
~A  DEPT        GR        RHOB      NPHI      RT        DT        CALI
# ...
 3957.7328    91.186    2.5241    0.3334     6.132   156.287     8.144
 3957.8852    97.033    2.4321    0.1978     1.994   200.000     7.777
 3958.0376   103.506    2.4795    0.3254     0.637   165.980     7.911
 3958.1900   118.203    2.4868    0.2758     9.072   200.000     8.111
 3958.3424   115.136    2.4579    0.3187     2.398   168.286     8.053
 3958.4948   122.462    2.4456    0.3267     1.960   168.992     8.434
 3958.6472    98.133    2.4350    0.2069     3.565   200.000     9.221
 3958.7996   103.500    2.4364    0.3488     2.534   168.494     8.033
 3958.9520   116.706    2.5182    0.2690     2.740   194.683     8.265
 3959.1044    98.192    2.5363    0.3488     1.332   153.614     8.144
 3959.2568    82.198    2.4629    0.2911     0.458   196.085     8.936
 3959.4092   100.593    2.4915    0.3591     1.971   150.012     8.471
 3959.5616    97.644    2.4248    0.3006     3.111   185.151     9.480
 3959.7140    91.002    2.5647    0.2916     2.849   189.833     8.643
 3959.8664   111.010    2.4470    0.3245     1.846   175.156     9.079
 3960.0188   123.609    2.4995    0.2857     1.089   195.368     8.264
 3960.1712    78.968    2.4883    0.2543     1.730   200.000     8.137
 3960.3236   101.550    2.3750    0.2917     1.358   185.306     9.078
 3960.4760   112.802    2.4875    0.2945     1.521   187.076     8.003
 3960.6284   100.828    2.4041    0.3124     1.891   167.485     8.602
 3960.7808   104.845    2.5243    0.2656     1.699   199.769     8.057
 3960.9332    84.370    2.5147    0.3228     2.547   175.469     8.060
 3961.0856   107.130    2.4350    0.2543     0.742   200.000     7.691
 3961.2380    89.953    2.4567    0.2936     0.702   182.088     8.427
 3961.3904   102.915    2.4561    0.3202     1.844   175.481     8.892
 3961.5428   130.725    2.4453    0.2189     3.488   200.000     8.403
 3961.6952   104.555    2.5068    0.2848     5.007   198.715     8.366
 3961.8476   108.454    2.5387    0.3002     2.057   176.043     9.179
 3962.0000   105.495    2.4640    0.2374     0.613   200.000     8.409
 3962.1524   107.048    2.4445    0.2797     1.967   200.000     8.207
 3962.3048   104.044    2.4386    0.2685     1.705   200.000     8.739
 3962.4572   104.362    2.4652    0.3613     2.044   159.907     9.083
 3962.6096   126.359    2.4095    0.2729     2.730   200.000     8.218
 3962.7620   127.012    2.4120    0.2697     2.395   199.212     8.458
 3962.9144   110.139    2.4789    0.3377     0.610   163.635     8.680
 3963.0668   111.190    2.4467    0.3410     1.685   159.593     8.824
 3963.2192   121.606    2.4392    0.3554     2.747   156.167     8.203
 3963.3716    74.097    2.4790    0.2066     2.025   200.000     8.566
 3963.5240    93.992    2.4900    0.2980     4.305   180.424     9.359
 3963.6764   104.083    2.4533    0.2921     1.176   186.202     8.184
 3963.8288   109.795    2.5215    0.2282     1.405   200.000     8.340
 3963.9812    98.474    2.4748    0.3076     2.791   179.578     7.934
 3964.1336   103.307    2.5564    0.3343     3.791   163.606     8.604
 3964.2860   112.236    2.4559    0.3117     0.978   171.019     8.488
 3964.4384   124.676    2.4882    0.3210     5.005   174.269     8.759
 3964.5908   103.787    2.4533    0.2761     4.338   200.000     8.875
 3964.7432   108.206    2.4823    0.3106     1.308   182.588     8.945
 3964.8956   106.803    2.4442    0.3329     2.376   164.431     7.715
 3965.0480    96.538    2.4460    0.3558     3.095   151.118     8.363
 3965.2004   100.285    2.4918    0.3867     0.800   147.680     9.140
 3965.3528   105.430    2.4532    0.2564     2.757   200.000     8.022
 3965.5052   105.553    2.5750    0.2893     1.804   183.447     8.797
 3965.6576   138.295    2.5527    0.3086     1.125   187.706     7.826
 3965.8100    79.226    2.5357    0.3317     1.694   163.908     8.166
 3965.9624   105.268    2.4267    0.3499     1.839   150.647     8.619
 3966.1148    98.976    2.4709    0.3367     2.194   161.995     8.275
 3966.2672   117.411    2.5197    0.3789     0.796   149.431     7.796
 3966.4196   109.871    2.4713    0.3198     1.421   171.977     8.151
 3966.5720    88.426    2.4814    0.2589     0.796   200.000     8.602
 3966.7244   114.911    2.4105    0.2704     3.043   200.000     8.490
 3966.8768   111.246    2.4840    0.2168     1.695   200.000     8.730
 3967.0292    61.527    2.5022    0.3357     2.966   158.451     8.029
 3967.1816   103.486    2.4971    0.3316     1.622   159.370     9.262
 3967.3340   106.090    2.4840    0.3222     5.726   170.590     8.510
 3967.4864    71.601    2.4285    0.3849     0.743   143.444     7.884
 3967.6388   120.492    2.4185    0.2660     1.730   200.000     7.608
 3967.7912   114.190    2.3900    0.3163     1.182   177.708     8.037
 3967.9436    88.528    2.4949    0.2716     2.294   196.682     8.749
 3968.0960   102.718    2.4208    0.4131     1.197   134.113     8.950
 3968.2484   103.866    2.3859    0.2952     1.774   195.960     8.304
 3968.4008   110.900    2.4848    0.2113     1.503   200.000     8.182
 3968.5532   102.769    2.4520    0.2295     2.814   200.000     8.313
 3968.7056    78.591    2.4297    0.3156     2.018   162.925     8.633
 3968.8580    91.337    2.4186    0.3086     1.537   185.951     8.058
 3969.0104   111.542    2.4797    0.2186     3.103   200.000     8.515
 3969.1628    73.820    2.4645    0.2921     2.590   190.254     8.265
 3969.3152   112.142    2.4774    0.2214     1.952   200.000     8.544
 3969.4676   102.810    2.4647    0.3217     2.247   163.208     7.952
 3969.6200   114.773    2.3827    0.3066     1.151   177.014     8.444
 3969.7724    97.063    2.4373    0.3098     2.591   184.047     8.242
 3969.9248   104.958    2.4146    0.3881     2.627   137.805     8.009
 3970.0772   113.014    2.4016    0.3397     1.608   162.309     7.885
 3970.2296   113.401    2.5135    0.2774     0.916   198.815     8.085
 3970.3820   110.157    2.4338    0.2664     1.201   200.000     8.054
 3970.5344   115.850    2.4489    0.3531     1.988   158.444     9.026
 3970.6868   101.303    2.4048    0.3389     1.245   167.593     8.203
 3970.8392    95.462    2.4419    0.2846     1.955   199.711     8.830
 3970.9916    99.954    2.4316    0.2665     1.869   197.241     8.906
 3971.1440   114.642    2.4675    0.3018     2.990   179.333     8.435
 3971.2964   123.619    2.5288    0.2776     2.230   195.772     8.682
 3971.4488    95.195    2.3818    0.2856     4.328   200.000     8.214
 3971.6012   117.919    2.5038    0.3486     4.612   162.766     8.473
 3971.7536   112.618    2.3752    0.2426     2.299   200.000     7.836
 3971.9060   104.547    2.5105    0.2975     2.925   190.225     7.992
 3972.0584   104.649    2.4404    0.3136     1.185   180.166     8.249
 3972.2108    92.896    2.4526    0.2768     1.750   197.503     8.831
 3972.3632   118.054    2.4600    0.3277     2.817   164.518     9.074
 3972.5156   104.884    2.5156    0.3760     1.479   140.120     8.599
 3972.6680   110.881    2.5524    0.4048     4.882   141.703     8.188
 3972.8204   118.545    2.4447    0.3385     1.898   163.707     8.203
 3972.9728    96.229    2.3772    0.2726     1.805   200.000     8.943
 3973.1252   120.940    2.5191    0.3123     0.709   180.684     8.631
 3973.2776   127.103    2.4960    0.3912     3.347   149.922     8.590
 3973.4300   122.142    2.4496    0.3525     0.766   159.729     8.131
 3973.5824    92.781    2.4843    0.2846     2.278   197.450     8.799
 3973.7348   112.150    2.4892    0.2980     6.447   183.650     8.582
 3973.8872   101.220    2.4960    0.3212     3.304   174.842     8.489
 3974.0396   110.524    2.4376    0.3163     1.371   176.254     8.004
 3974.1920   117.975    2.4835    0.3049     1.665   171.068     8.180
 3974.3444   106.413    2.4081    0.3048     1.197   180.033     8.837
 3974.4968    93.046    2.5272    0.3093     2.886   177.909     8.531
 3974.6492   129.562    2.4282    0.3509     2.711   165.159     8.864
 3974.8016    82.796    2.4141    0.2751     1.418   200.000     8.786
