~VERSION INFORMATION
 VERS.                 2.0    : CWLS LOG ASCII STANDARD
 WRAP.                 NO     : ONE LINE PER DEPTH STEP
~WELL INFORMATION
 WELL.                 15/25-1    : Well name
 FLD .                 Magnus         : Field
 CTRY.                 UK       : Country
 STRT.M                3200.0000 : START DEPTH
 STOP.M                4500.0000   : STOP DEPTH
 STEP.M                0.1524        : STEP
 NULL.                 -999.25          : NULL VALUE
 SRVC.                 SubsurfAI        : Service company
~CURVE INFORMATION
 DEPT.M                              : Depth
 GR  .GAPI                           : Gamma Ray
 RHOB.G/C3                           : Bulk Density
 NPHI.V/V                            : Neutron Porosity
 RT  .OHMM                           : True Resistivity
 DT  .US/F                           : Sonic
 CALI.IN                             : Caliper
~PARAMETER INFORMATION
 LAT .                 61.6451   : Latitude
 LON .                 1.0123   : Longitude
 DESC.                 Magnus Fm — Upper Jurassic turbidite sandstone
~A  DEPT        GR        RHOB      NPHI      RT        DT        CALI
# ...
 3802.7420    95.822    2.5643    0.3360     1.635   170.283     8.896
 3802.8944    90.604    2.4793    0.3211     1.487   172.679     8.396
 3803.0468   114.143    2.4519    0.3087     4.291   186.382     8.606
 3803.1992   108.213    2.4379    0.2955     1.091   184.494     8.609
 3803.3516   101.619    2.4083    0.3220     3.869   168.646     7.863
 3803.5040   110.078    2.3491    0.3273     3.125   172.248     8.215
 3803.6564   110.428    2.4681    0.2644     1.357   200.000     8.747
 3803.8088   106.760    2.3771    0.2955     1.541   187.470     8.783
 3803.9612   120.251    2.4989    0.3552     2.230   159.929     8.709
 3804.1136    85.619    2.4586    0.2652     0.665   196.336     8.479
 3804.2660    91.026    2.4935    0.3904     1.006   135.244     8.881
 3804.4184   113.521    2.5198    0.3656     1.703   154.353     7.886
 3804.5708   106.629    2.4448    0.2265     0.958   200.000     7.945
 3804.7232    68.572    2.4669    0.3042     2.521   172.947     8.613
 3804.8756   101.739    2.4576    0.3604     2.828   150.734     8.756
 3805.0280   112.199    2.4482    0.2728     5.431   198.207     8.413
 3805.1804   121.364    2.4699    0.3556     1.457   151.780     9.335
 3805.3328    98.181    2.4554    0.2603     2.144   200.000     8.493
 3805.4852   109.698    2.4690    0.2667     1.274   200.000     8.668
 3805.6376   123.537    2.4016    0.3042     0.866   176.637     8.112
 3805.7900    91.153    2.4722    0.3413     1.915   155.647     8.365
 3805.9424   116.482    2.4624    0.3088     1.105   177.948     7.874
 3806.0948   108.499    2.4795    0.2098     1.142   200.000     8.934
 3806.2472    78.610    2.3980    0.3504     1.956   160.167     8.183
 3806.3996   103.789    2.4722    0.2684     1.457   197.664     8.312
 3806.5520   116.333    2.4841    0.2806     1.242   194.721     8.268
 3806.7044    96.718    2.4302    0.2675     0.902   200.000     7.936
 3806.8568   108.279    2.4769    0.2615     0.855   200.000     8.564
 3807.0092   109.164    2.5032    0.3040     2.361   183.529     9.274
 3807.1616    95.119    2.5675    0.2842     1.700   200.000     8.010
 3807.3140   112.655    2.4044    0.3281     0.837   170.526     8.988
 3807.4664   124.515    2.5357    0.2717     1.198   200.000     7.663
 3807.6188   142.077    2.4594    0.3477     3.190   170.104     8.714
 3807.7712    94.423    2.5296    0.2857     1.562   196.890     8.529
 3807.9236   123.761    2.4948    0.2585     0.740   200.000     8.945
 3808.0760   125.943    2.4185    0.2930     0.941   188.498     8.502
 3808.2284    81.454    2.4374    0.3539     2.392   162.796     9.086
 3808.3808    87.607    2.3823    0.3129     1.613   181.980     8.963
 3808.5332   107.542    2.4775    0.3092     1.643   172.199     8.940
 3808.6856    99.540    2.5425    0.3293     1.260   166.017     8.719
 3808.8380   117.753    2.5051    0.2929     1.554   180.573     9.418
 3808.9904   132.216    2.5639    0.3312     0.958   157.416     8.476
 3809.1428   107.014    2.4895    0.3731     3.022   152.691     8.532
 3809.2952    81.575    2.4072    0.2899     4.897   182.493     8.195
 3809.4476   105.644    2.5231    0.2224     0.878   200.000     8.162
 3809.6000   116.503    2.5450    0.3497     2.699   154.932     8.904
 3809.7524   102.207    2.4618    0.2405     1.861   200.000     8.694
 3809.9048   100.804    2.4519    0.3101     1.459   179.059     8.674
 3810.0572   126.964    2.5374    0.2234     1.828   200.000     8.919
 3810.2096   104.310    2.4853    0.2593     4.032   200.000     8.109
 3810.3620   103.447    2.4307    0.3068     3.027   174.233     8.349
 3810.5144    97.434    2.4890    0.3500     2.869   163.071     8.629
 3810.6668   107.713    2.4525    0.2506     1.417   200.000     8.375
 3810.8192   121.991    2.4345    0.3386     1.015   164.479     7.812
 3810.9716   123.894    2.4501    0.3142     2.474   169.628     8.643
 3811.1240   127.885    2.5045    0.2685     0.825   200.000     8.944
 3811.2764   121.717    2.4451    0.2823     1.788   193.523     8.537
 3811.4288   100.438    2.3458    0.3064     2.012   169.567     8.640
 3811.5812   112.077    2.5062    0.3546     0.679   157.659     8.862
 3811.7336    95.983    2.5159    0.2462     2.694   200.000     8.214
 3811.8860    95.906    2.4170    0.2898     1.982   190.104     8.763
 3812.0384    90.304    2.4362    0.2575     0.952   200.000     7.430
 3812.1908   117.609    2.5035    0.2801     1.469   197.786     8.578
 3812.3432   111.989    2.4777    0.3394     1.167   157.335     8.041
 3812.4956   115.477    2.5002    0.2588     2.011   200.000     8.236
 3812.6480    86.624    2.4436    0.3843     1.923   142.800     8.462
 3812.8004   109.718    2.5245    0.2585     1.135   200.000     9.100
 3812.9528   111.148    2.5294    0.2200     1.660   200.000     8.017
 3813.1052    84.634    2.4745    0.2746     0.918   199.722     8.109
 3813.2576   117.846    2.5376    0.3363     1.143   162.505     8.465
 3813.4100   106.765    2.5162    0.2700     1.606   197.183     8.261
 3813.5624   116.281    2.4358    0.2685     1.590   200.000     8.084
 3813.7148    96.407    2.5202    0.3099     1.755   175.142     8.703
 3813.8672   100.577    2.4556    0.3270     1.248   170.057     8.137
 3814.0196   112.347    2.4373    0.2883     3.935   191.639     8.095
 3814.1720    85.705    2.4764    0.3185     1.837   183.462     8.151
 3814.3244    76.323    2.5022    0.3332     1.455   156.589     9.203
 3814.4768    79.505    2.3797    0.3193     1.811   180.496     8.939
 3814.6292   107.133    2.4946    0.3376     2.628   151.091     7.780
 3814.7816    83.893    2.4639    0.3891     1.176   145.576     8.722
 3814.9340   114.801    2.5318    0.2732     2.201   200.000     8.173
 3815.0864   104.398    2.4725    0.3209     2.593   181.624     8.748
 3815.2388   104.717    2.4592    0.2604     1.372   200.000     8.120
 3815.3912    91.534    2.4499    0.3606     0.766   150.348     8.524
 3815.5436   103.929    2.4816    0.3023     2.151   180.116     9.054
 3815.6960   105.464    2.3745    0.2507     1.450   200.000     8.731
 3815.8484   127.146    2.4089    0.3160     1.490   174.388     8.923
 3816.0008   134.270    2.5139    0.3064     1.620   176.439     8.583
 3816.1532    84.848    2.4181    0.2654     2.265   200.000     8.869
 3816.3056    97.257    2.4436    0.3095     1.950   179.625     8.800
 3816.4580   104.831    2.4906    0.3655     1.676   145.980     8.348
 3816.6104    83.327    2.4643    0.3034     1.229   177.710     8.694
 3816.7628    95.239    2.5047    0.3026     2.507   182.315     8.073
 3816.9152   123.394    2.3955    0.2486     6.209   200.000     8.477
 3817.0676   106.042    2.4276    0.3460     1.549   155.346     8.201
 3817.2200    99.704    2.5610    0.2454     1.143   200.000     8.857
 3817.3724   108.043    2.4731    0.2755     0.518   197.073     8.887
 3817.5248   128.435    2.5578    0.3174     0.815   169.205     8.743
 3817.6772   106.211    2.4348    0.2956     0.523   180.498     8.830
 3817.8296   101.724    2.5929    0.3331     1.695   172.117     8.220
 3817.9820   109.065    2.4472    0.2788     0.963   200.000     8.267
 3818.1344    89.352    2.3333    0.4015     1.214   138.623     8.158
 3818.2868    98.614    2.5117    0.3263     3.993   165.320     8.522
 3818.4392   103.323    2.4847    0.2998     1.990   189.553     8.522
 3818.5916   118.728    2.3649    0.2699     1.454   200.000     8.212
 3818.7440   103.257    2.4086    0.2533     1.041   200.000     8.272
 3818.8964   115.885    2.5259    0.2561     2.881   200.000     8.469
 3819.0488    90.336    2.4505    0.2838     1.704   200.000     8.570
 3819.2012   107.632    2.4272    0.2695     2.076   200.000     8.770
 3819.3536   109.959    2.4479    0.3183     2.745   168.480     8.897
 3819.5060   125.413    2.3990    0.3328     2.947   165.229     8.136
 3819.6584   119.474    2.4196    0.2836     2.153   188.614     8.354
 3819.8108   105.812    2.4384    0.2405     1.666   200.000     9.083
