~VERSION INFORMATION
 VERS.                 2.0    : CWLS LOG ASCII STANDARD
 WRAP.                 NO     : ONE LINE PER DEPTH STEP
~WELL INFORMATION
 WELL.                 15/25-1    : Well name
 FLD .                 Magnus         : Field
 CTRY.                 UK       : Country
 STRT.M                3200.0000 : START DEPTH
 STOP.M                4500.0000   : STOP DEPTH
 STEP.M                0.1524        : STEP
 NULL.                 -999.25          : NULL VALUE
 SRVC.                 SubsurfAI        : Service company
~CURVE INFORMATION
 DEPT.M                              : Depth
 GR  .GAPI                           : Gamma Ray
 RHOB.G/C3                           : Bulk Density
 NPHI.V/V                            : Neutron Porosity
 RT  .OHMM                           : True Resistivity
 DT  .US/F                           : Sonic
 CALI.IN                             : Caliper
~PARAMETER INFORMATION
 LAT .                 61.6451   : Latitude
 LON .                 1.0123   : Longitude
 DESC.                 Magnus Fm — Upper Jurassic turbidite sandstone
~A  DEPT        GR        RHOB      NPHI      RT        DT        CALI
# ...
 3716.6360    37.567    2.2354    0.1382   137.854   200.000     8.395
 3716.7884    24.841    2.2961    0.2046    25.406   200.000     8.377
 3716.9408    38.103    2.3095    0.1927    55.775   200.000     9.367
 3717.0932    26.984    2.2865    0.1322    70.747   200.000     8.095
 3717.2456    35.038    2.2127    0.1952    55.299   200.000     8.641
 3717.3980    31.948    2.2507    0.1661    48.089   200.000     8.424
 3717.5504    30.551    2.2275    0.1791    66.748   200.000     8.893
 3717.7028    28.347    2.3274    0.1344    94.478   200.000     8.302
 3717.8552    33.229    2.2586    0.1130    94.005   200.000     8.192
 3718.0076    26.271    2.2510    0.1798   235.776   200.000     8.381
 3718.1600    27.956    2.2852    0.1644    36.612   200.000     8.339
 3718.3124    42.663    2.2561    0.1446    36.307   200.000     8.292
 3718.4648    36.437    2.3395    0.1643    78.307   200.000     8.300
 3718.6172    24.507    2.3150    0.2024    35.293   200.000     8.029
 3718.7696    33.673    2.2922    0.1492   112.628   200.000     8.291
 3718.9220    27.816    2.2791    0.1410    66.007   200.000     8.018
 3719.0744    36.526    2.2286    0.1577   198.359   200.000     8.852
 3719.2268    27.818    2.2951    0.1498    57.771   200.000     8.049
 3719.3792    37.574    2.2717    0.2108    59.443   200.000     8.345
 3719.5316    34.252    2.2522    0.1674    37.491   200.000     8.564
 3719.6840    36.809    2.2677    0.1143   281.361   200.000     8.720
 3719.8364    24.502    2.3106    0.1695    58.641   200.000     7.947
 3719.9888    87.210    2.4534    0.2379     1.089   200.000     8.360
 3720.1412   111.914    2.4669    0.3577     0.611   157.416     8.547
 3720.2936   126.602    2.4262    0.2692     0.836   197.918     9.128
 3720.4460    94.186    2.3864    0.2637     1.465   200.000     8.568
 3720.5984    82.851    2.4189    0.3014     0.843   178.817     8.823
 3720.7508    99.357    2.4562    0.2411     2.752   200.000     8.160
 3720.9032   128.221    2.6125    0.2731     1.956   200.000     9.011
 3721.0556   121.003    2.4107    0.3464     2.351   149.802     8.260
 3721.2080    97.291    2.4335    0.3010     1.369   186.269     8.394
 3721.3604   123.099    2.4113    0.2900     1.800   191.994     8.576
 3721.5128    93.432    2.3678    0.2992     0.851   186.594     8.860
 3721.6652    93.928    2.4507    0.3197     1.259   171.326     8.526
 3721.8176   130.599    2.4785    0.2561     1.668   200.000     8.661
 3721.9700   100.667    2.5096    0.3901     2.982   141.889     8.117
 3722.1224   122.044    2.5272    0.2483     3.105   200.000     8.460
 3722.2748   102.330    2.5169    0.2398     2.410   200.000     8.619
 3722.4272   122.839    2.4779    0.3288     1.207   177.545     7.623
 3722.5796   105.651    2.4951    0.3108     0.872   177.983     8.715
 3722.7320    89.649    2.4932    0.2346     0.772   200.000     8.073
 3722.8844   102.451    2.4176    0.2847     4.933   198.410     8.473
 3723.0368    91.193    2.3738    0.2813     1.397   191.845     8.720
 3723.1892   108.620    2.3716    0.3315     1.286   162.619     8.067
 3723.3416   103.211    2.4238    0.3925     1.015   143.170     8.541
 3723.4940   111.861    2.4379    0.2544     2.539   200.000     8.606
 3723.6464    94.561    2.4658    0.2499     2.563   200.000     8.531
 3723.7988    95.605    2.4312    0.4028     1.332   135.277     8.231
 3723.9512   114.559    2.5256    0.2666     3.788   200.000     8.321
 3724.1036    91.001    2.4773    0.3044     2.502   178.906     7.816
 3724.2560    82.769    2.5546    0.2768     1.252   200.000     8.766
 3724.4084   106.047    2.3995    0.2898     2.492   192.261     8.503
 3724.5608   106.815    2.4278    0.3337     0.660   156.056     8.398
 3724.7132   119.681    2.4149    0.2686     1.598   200.000     7.646
 3724.8656   118.181    2.4567    0.3735     2.234   150.658     8.230
 3725.0180   118.595    2.4160    0.3010     1.125   186.934     8.388
 3725.1704   111.918    2.4613    0.3562     0.997   152.940     8.672
 3725.3228    93.742    2.5984    0.1862     1.937   200.000     8.747
 3725.4752   114.427    2.4634    0.2956     1.644   185.020     8.502
 3725.6276    80.716    2.5282    0.3042     0.727   184.961     8.284
 3725.7800   112.886    2.4188    0.3200     2.562   180.141     8.923
 3725.9324    93.319    2.4044    0.3024     1.628   175.959     8.450
 3726.0848    97.086    2.3518    0.3136     1.136   170.887     7.720
 3726.2372    91.161    2.4795    0.2209     1.684   200.000     8.069
 3726.3896    88.188    2.3668    0.3664     1.987   152.024     8.146
 3726.5420   112.253    2.5092    0.2278     0.768   200.000     8.544
 3726.6944   108.645    2.4947    0.2491     1.640   200.000     8.820
 3726.8468   111.092    2.4997    0.2946     3.141   189.935     8.516
 3726.9992   109.707    2.5457    0.3103     2.221   167.320     8.543
 3727.1516   111.090    2.4303    0.3161     2.098   172.394     8.583
 3727.3040   107.814    2.4807    0.2684     5.120   200.000     8.516
 3727.4564   109.633    2.5169    0.2918     1.108   193.474     8.858
 3727.6088   107.541    2.4727    0.3177     1.862   170.030     8.409
 3727.7612   108.306    2.4694    0.2326     5.677   200.000     7.981
 3727.9136   100.454    2.4930    0.2434     1.782   200.000     8.231
 3728.0660   104.916    2.5120    0.3161     4.215   168.464     8.084
 3728.2184   102.741    2.4443    0.2997     2.374   176.865     8.953
 3728.3708    99.285    2.5459    0.2776     1.552   200.000     8.910
 3728.5232   122.641    2.4999    0.2622     2.356   200.000     8.313
 3728.6756   102.847    2.5379    0.2374     1.178   200.000     8.627
 3728.8280    87.716    2.4313    0.3457     1.141   153.143     8.036
 3728.9804    91.008    2.4414    0.3026     2.401   174.021     8.634
 3729.1328    99.827    2.5054    0.3520     2.234   155.348     8.164
 3729.2852    94.453    2.4443    0.2816     1.025   189.536     8.664
 3729.4376    99.805    2.4887    0.3025     1.834   187.678     8.491
 3729.5900   108.522    2.4060    0.2774     1.733   200.000     8.682
 3729.7424   114.469    2.4722    0.2738     4.291   199.209     9.173
 3729.8948   104.125    2.4381    0.3206     2.275   166.919     7.960
 3730.0472   106.218    2.5156    0.3260     2.861   162.700     8.905
 3730.1996    88.706    2.4516    0.2252     1.174   200.000     8.625
 3730.3520   109.740    2.3677    0.2885     1.457   196.919     7.847
 3730.5044   118.476    2.4324    0.3305     2.165   167.612     8.574
 3730.6568    98.396    2.4138    0.3479     1.478   162.249     9.009
 3730.8092   117.175    2.4811    0.2662     3.721   200.000     8.490
 3730.9616    88.861    2.5139    0.2872     1.562   196.356     8.691
 3731.1140   112.231    2.5120    0.2536     1.796   200.000     9.030
 3731.2664    93.879    2.4591    0.3236     1.015   174.594     7.794
 3731.4188   100.355    2.4157    0.3202     1.145   167.758     7.843
 3731.5712   105.592    2.4384    0.2707     1.578   200.000     8.787
 3731.7236   112.674    2.5471    0.3628     3.075   136.135     7.958
 3731.8760   129.815    2.4872    0.3351     1.009   159.975     8.981
 3732.0284    93.518    2.5075    0.3230     1.856   163.459     8.271
 3732.1808   107.029    2.4936    0.2603     1.851   200.000     7.831
 3732.3332    95.081    2.4430    0.2624     2.780   200.000     7.638
 3732.4856   115.579    2.4742    0.3355     0.908   161.727     8.507
 3732.6380   102.886    2.5050    0.2676     1.406   200.000     8.070
 3732.7904    88.519    2.4487    0.2803     1.375   200.000     8.524
 3732.9428   108.153    2.4058    0.3144     1.120   171.084     8.426
 3733.0952    88.629    2.6316    0.2494     3.985   200.000     8.507
 3733.2476   111.979    2.4377    0.3466     1.389   155.996     8.767
 3733.4000    94.987    2.3936    0.3114     1.374   180.479     8.472
 3733.5524   103.884    2.5067    0.3349     2.501   160.850     8.112
 3733.7048   104.708    2.4483    0.3030     1.788   185.403     9.305
