~VERSION INFORMATION
 VERS.                 2.0    : CWLS LOG ASCII STANDARD
 WRAP.                 NO     : ONE LINE PER DEPTH STEP
~WELL INFORMATION
 WELL.                 15/25-1    : Well name
 FLD .                 Magnus         : Field
 CTRY.                 UK       : Country
 STRT.M                3200.0000 : START DEPTH
 STOP.M                4500.0000   : STOP DEPTH
 STEP.M                0.1524        : STEP
 NULL.                 -999.25          : NULL VALUE
 SRVC.                 SubsurfAI        : Service company
~CURVE INFORMATION
 DEPT.M                              : Depth
 GR  .GAPI                           : Gamma Ray
 RHOB.G/C3                           : Bulk Density
 NPHI.V/V                            : Neutron Porosity
 RT  .OHMM                           : True Resistivity
 DT  .US/F                           : Sonic
 CALI.IN                             : Caliper
~PARAMETER INFORMATION
 LAT .                 61.6451   : Latitude
 LON .                 1.0123   : Longitude
 DESC.                 Magnus Fm — Upper Jurassic turbidite sandstone
~A  DEPT        GR        RHOB      NPHI      RT        DT        CALI
# ...
 3286.1060   107.070    2.5677    0.3355     1.009   163.345     8.441
 3286.2584   104.873    2.5033    0.2153     1.231   200.000     8.192
 3286.4108   116.534    2.5196    0.3450     2.080   155.081     8.610
 3286.5632   106.975    2.5260    0.3602     5.117   151.164     8.381
 3286.7156    90.988    2.4405    0.3329     1.124   168.322     9.210
 3286.8680   141.071    2.5540    0.3244     1.824   168.994     8.111
 3287.0204   131.859    2.4881    0.3637     6.324   152.796     7.971
 3287.1728   124.983    2.4107    0.3943     2.367   139.004     8.968
 3287.3252   118.650    2.4824    0.3185     1.385   166.515     8.917
 3287.4776   101.038    2.4423    0.2467     4.697   200.000     8.626
 3287.6300   110.619    2.5533    0.2615     0.459   200.000     8.752
 3287.7824   117.849    2.4167    0.3606     1.852   159.022     8.415
 3287.9348    84.957    2.5354    0.3592     1.024   149.119     8.241
 3288.0872    90.318    2.4850    0.3624     0.996   159.557     8.322
 3288.2396   114.110    2.5393    0.3015     1.159   179.900     8.957
 3288.3920   120.693    2.4256    0.3703     1.190   148.979     8.685
 3288.5444   129.097    2.5758    0.3405     1.068   162.554     9.562
 3288.6968   110.582    2.4715    0.3278     1.002   169.490     7.985
 3288.8492    99.377    2.4617    0.2952     3.103   184.299     8.361
 3289.0016   117.085    2.5433    0.3298     2.441   166.024     8.754
 3289.1540   109.715    2.4703    0.3468     0.616   161.130     8.873
 3289.3064   134.969    2.5473    0.3180     1.513   163.824     8.087
 3289.4588   112.107    2.4289    0.3944     1.018   140.873     8.284
 3289.6112   129.318    2.5336    0.2913     2.261   191.384     8.618
 3289.7636   103.990    2.5082    0.4800     1.812   136.224     8.448
 3289.9160    87.968    2.5446    0.3570     0.889   147.258     9.460
 3290.0684    95.722    2.4973    0.2872     1.220   199.208     8.751
 3290.2208   100.286    2.5600    0.3966     3.764   141.076     9.109
 3290.3732   103.489    2.4397    0.3743     3.980   140.636     8.792
 3290.5256   130.032    2.4615    0.3037     1.214   183.606     8.448
 3290.6780    97.271    2.5456    0.3117     0.957   171.719     7.898
 3290.8304    99.311    2.4967    0.3306     1.793   168.789     8.506
 3290.9828   106.203    2.4847    0.3088     1.500   174.171     8.498
 3291.1352   110.482    2.5117    0.3700     3.007   155.091     8.073
 3291.2876    91.485    2.5131    0.2217     4.476   200.000     8.432
 3291.4400    96.641    2.5105    0.3702     1.931   139.697     8.369
 3291.5924   139.536    2.5703    0.2490     2.440   200.000     9.143
 3291.7448   102.855    2.5490    0.3104     2.745   185.892     8.328
 3291.8972   105.178    2.4969    0.4384     1.251   139.567     8.960
 3292.0496   150.162    2.5701    0.2460     0.889   200.000     8.122
 3292.2020   108.092    2.5552    0.3962     3.018   134.471     8.791
 3292.3544   107.288    2.4855    0.2944     1.161   186.300     8.204
 3292.5068   133.561    2.4361    0.3306     1.678   161.941     8.224
 3292.6592   110.472    2.4710    0.3937     0.774   145.361     8.951
 3292.8116    95.846    2.5634    0.3639     5.015   153.608     9.055
 3292.9640   142.885    2.4043    0.2631     1.057   200.000     8.398
 3293.1164   121.197    2.5157    0.3000     0.408   180.229     9.075
 3293.2688   119.931    2.4701    0.2990     1.178   172.682     8.032
 3293.4212   120.699    2.5253    0.3435     1.905   164.509     8.206
 3293.5736   104.919    2.4150    0.3128     2.643   168.182     7.514
 3293.7260   119.811    2.4870    0.2819     2.590   193.669     8.520
 3293.8784   136.627    2.4317    0.2574     2.623   200.000     8.002
 3294.0308   131.796    2.4884    0.3473     2.460   154.840     8.787
 3294.1832   106.867    2.4827    0.3480     2.837   152.362     7.953
 3294.3356    95.453    2.5348    0.3016     0.592   187.244     8.306
 3294.4880   100.038    2.5013    0.4637     2.381   138.521     8.656
 3294.6404    94.066    2.4861    0.3043     4.530   181.247     7.622
 3294.7928   115.100    2.5388    0.2667     0.991   200.000     8.302
 3294.9452   103.100    2.4716    0.3793     1.878   147.248     8.558
 3295.0976   131.361    2.5859    0.3397     2.640   161.338     8.573
 3295.2500   119.477    2.5144    0.2908     0.969   178.562     8.396
 3295.4024   109.395    2.4564    0.4046     0.873   142.486     8.548
 3295.5548   115.131    2.5362    0.3447     2.253   158.946     8.207
 3295.7072   122.857    2.4854    0.3793     0.667   145.476     8.547
 3295.8596   112.269    2.4956    0.2673     1.674   200.000     8.732
 3296.0120   148.828    2.4735    0.3353     1.737   167.269     8.281
 3296.1644   105.675    2.5642    0.3777     0.820   146.987     8.467
 3296.3168   112.985    2.5346    0.3403     1.408   160.460     8.479
 3296.4692   111.712    2.4393    0.2940     1.027   187.309     8.880
 3296.6216   102.743    2.5433    0.4266     1.654   133.780     9.142
 3296.7740   124.947    2.5298    0.3424     1.765   161.179     8.392
 3296.9264    90.606    2.4780    0.3338     1.038   166.004     9.182
 3297.0788   111.022    2.4970    0.3526     1.009   163.098     7.896
 3297.2312   133.719    2.5720    0.2593     1.289   200.000     8.321
 3297.3836   120.418    2.4504    0.3252     0.968   159.580     8.257
 3297.5360    96.488    2.4807    0.2173     1.043   200.000     8.480
 3297.6884   120.540    2.4710    0.4107     1.977   130.790     8.565
 3297.8408   119.080    2.5483    0.3010     1.041   177.732     8.472
 3297.9932   124.286    2.5378    0.2859     1.974   194.469     9.083
 3298.1456   114.192    2.4247    0.3200     2.388   177.309     8.378
 3298.2980    98.226    2.5294    0.3432     0.730   165.401     8.694
 3298.4504   113.315    2.5444    0.2929     2.247   186.057     8.653
 3298.6028    90.426    2.4574    0.3660     1.811   149.523     8.489
 3298.7552    89.286    2.5562    0.2703     1.026   200.000     8.443
 3298.9076   120.924    2.5234    0.3233     3.904   156.470     8.696
 3299.0600   113.287    2.4873    0.2649     1.759   200.000     8.342
 3299.2124   139.810    2.5258    0.3224     3.456   170.576     8.698
 3299.3648   133.866    2.5572    0.4015     3.375   145.659     8.427
 3299.5172    75.786    2.5149    0.3013     2.490   176.261     8.799
 3299.6696    92.487    2.5539    0.2960     3.208   190.206     8.746
 3299.8220   116.809    2.5533    0.3180     1.524   167.770     8.649
 3299.9744   101.846    2.5053    0.3512     1.248   157.256     8.459
 3300.1268   106.817    2.4815    0.3032     0.742   167.972     8.007
 3300.2792   102.409    2.5497    0.3183     2.919   179.265     7.388
 3300.4316    85.340    2.4072    0.2614     4.735   200.000     8.758
 3300.5840   114.900    2.4888    0.3257     1.236   158.963     8.091
 3300.7364   111.774    2.5769    0.3684     2.321   147.285     9.013
 3300.8888    94.616    2.4852    0.2765     3.256   193.663     8.603
 3301.0412    91.172    2.5029    0.3704     0.930   156.434     8.039
 3301.1936   135.552    2.4892    0.3612     0.758   148.521     8.512
 3301.3460    91.805    2.5388    0.3462     2.174   163.970     8.126
 3301.4984   115.940    2.5353    0.3732     1.824   150.284     8.473
 3301.6508   111.546    2.5326    0.3955     0.673   139.914     8.102
 3301.8032   122.118    2.4259    0.3129     1.805   180.941     9.189
 3301.9556   115.648    2.5105    0.3303     1.145   161.922     8.304
 3302.1080   104.382    2.4955    0.2722     5.302   194.115     8.902
 3302.2604   116.751    2.5249    0.3152     1.606   188.741     8.779
 3302.4128   117.803    2.4902    0.2514     1.389   200.000     8.681
 3302.5652   111.535    2.4872    0.3565     3.786   156.167     7.973
 3302.7176   119.339    2.5343    0.2689     1.549   200.000     8.214
 3302.8700   152.018    2.5077    0.3561     1.870   151.516     8.426
 3303.0224    99.922    2.5713    0.3115     1.360   179.890     8.549
 3303.1748   102.025    2.5051    0.4350     1.371   138.978     8.354
