~VERSION INFORMATION
 VERS.                 2.0    : CWLS LOG ASCII STANDARD
 WRAP.                 NO     : ONE LINE PER DEPTH STEP
~WELL INFORMATION
 WELL.                 15/25-1    : Well name
 FLD .                 Magnus         : Field
 CTRY.                 UK       : Country
 STRT.M                3200.0000 : START DEPTH
 STOP.M                4500.0000   : STOP DEPTH
 STEP.M                0.1524        : STEP
 NULL.                 -999.25          : NULL VALUE
 SRVC.                 SubsurfAI        : Service company
~CURVE INFORMATION
 DEPT.M                              : Depth
 GR  .GAPI                           : Gamma Ray
 RHOB.G/C3                           : Bulk Density
 NPHI.V/V                            : Neutron Porosity
 RT  .OHMM                           : True Resistivity
 DT  .US/F                           : Sonic
 CALI.IN                             : Caliper
~PARAMETER INFORMATION
 LAT .                 61.6451   : Latitude
 LON .                 1.0123   : Longitude
 DESC.                 Magnus Fm — Upper Jurassic turbidite sandstone
~A  DEPT        GR        RHOB      NPHI      RT        DT        CALI
# ...
 4388.2628   121.933    2.5753    0.3341     3.714   163.653     8.467
 4388.4152   123.962    2.5023    0.2453     0.913   200.000     8.245
 4388.5676    95.529    2.3814    0.3795     0.704   135.513     8.646
 4388.7200    94.391    2.4734    0.2947     1.389   189.731     9.157
 4388.8724    83.348    2.3859    0.3359     2.316   168.355     8.341
 4389.0248    98.869    2.4044    0.2965     1.429   183.218     8.334
 4389.1772    90.400    2.4148    0.3667     2.972   151.783     8.289
 4389.3296   120.757    2.4709    0.2334     1.203   200.000     8.124
 4389.4820    98.725    2.4959    0.3214     2.327   163.033     8.919
 4389.6344    92.467    2.4491    0.2360     0.766   200.000     9.396
 4389.7868    95.299    2.4647    0.3518     3.813   151.087     8.939
 4389.9392    95.114    2.5002    0.3357     2.027   165.689     8.469
 4390.0916   111.402    2.4840    0.3149     3.608   180.753     9.017
 4390.2440   107.208    2.4852    0.2281     1.246   200.000     7.642
 4390.3964   114.535    2.4272    0.3839     7.242   151.804     8.086
 4390.5488   109.255    2.4720    0.3403     2.385   162.770     7.878
 4390.7012   117.115    2.5220    0.3560     2.219   153.196     8.586
 4390.8536   108.412    2.4735    0.3306     1.390   164.611     8.293
 4391.0060   122.611    2.4606    0.3271     0.520   164.723     8.227
 4391.1584   100.721    2.4985    0.3355     2.420   160.716     8.793
 4391.3108   105.913    2.4435    0.2511     1.119   200.000     7.828
 4391.4632    94.618    2.5274    0.2983     1.186   181.028     8.755
 4391.6156   112.643    2.5101    0.4108     3.690   131.603     8.194
 4391.7680   106.268    2.4578    0.2404     1.041   200.000     8.422
 4391.9204   105.643    2.6087    0.3015     0.816   176.176     8.061
 4392.0728   105.263    2.4979    0.3235     1.387   174.283     8.074
 4392.2252    84.714    2.4656    0.2227     1.335   200.000     8.963
 4392.3776   112.093    2.4378    0.2947     1.207   182.233     8.414
 4392.5300    89.952    2.4524    0.3248     2.058   177.795     8.985
 4392.6824    85.629    2.5536    0.3268     0.975   165.379     8.668
 4392.8348   129.157    2.4807    0.3062     1.958   173.489     8.379
 4392.9872   116.588    2.5447    0.3227     0.758   174.541     9.059
 4393.1396   121.610    2.5302    0.3403     1.355   163.607     8.288
 4393.2920   123.312    2.3975    0.2866     5.830   200.000     8.084
 4393.4444   121.164    2.5378    0.2444     1.608   200.000     8.248
 4393.5968   107.402    2.4771    0.2846     1.232   200.000     8.686
 4393.7492    92.878    2.4057    0.3731     2.228   143.197     8.468
 4393.9016   108.668    2.5451    0.2947     1.604   182.768     7.632
 4394.0540   136.254    2.4731    0.3871     3.214   150.815     9.635
 4394.2064   118.135    2.4599    0.3552     2.011   157.665     8.469
 4394.3588    94.495    2.4716    0.2726     1.570   200.000     7.715
 4394.5112   114.591    2.5128    0.3029     2.131   185.629     8.321
 4394.6636   128.232    2.4843    0.3308     0.980   173.548     7.928
 4394.8160   112.777    2.5235    0.2639     1.597   200.000     8.155
 4394.9684    98.939    2.5136    0.2766     2.270   200.000     8.871
 4395.1208   132.473    2.4764    0.3046     1.990   185.644     8.345
 4395.2732    89.016    2.4795    0.3215     1.625   172.610     8.168
 4395.4256   113.635    2.3848    0.2247     1.807   200.000     8.512
 4395.5780   124.196    2.5439    0.3498     1.394   163.346     8.213
 4395.7304   123.972    2.4892    0.2258     3.180   200.000     8.903
 4395.8828    94.497    2.5605    0.3293     2.079   166.105     8.625
 4396.0352   110.873    2.4326    0.2959     1.486   186.590     8.939
 4396.1876   102.549    2.5298    0.2355     2.756   200.000     8.405
 4396.3400   114.255    2.4480    0.3174     0.832   163.642     8.736
 4396.4924   125.937    2.5069    0.2288     1.905   200.000     8.640
 4396.6448    91.493    2.4394    0.3556     3.132   156.992     8.428
 4396.7972   122.759    2.4539    0.2936     1.550   179.678     7.980
 4396.9496   104.187    2.4751    0.2768     0.911   200.000     8.422
 4397.1020   104.799    2.5099    0.2923     1.743   191.704     8.815
 4397.2544   133.190    2.4433    0.2112     1.499   200.000     8.691
 4397.4068   126.304    2.4449    0.3152     1.945   172.846     8.498
 4397.5592   109.926    2.4519    0.3107     2.503   172.768     8.650
 4397.7116   113.137    2.4410    0.3867     1.406   153.798     7.882
 4397.8640   115.103    2.4510    0.3288     0.703   175.142     8.229
 4398.0164    87.073    2.4804    0.3545     2.022   157.144     8.237
 4398.1688   117.879    2.5157    0.3284     0.890   173.375     8.654
 4398.3212   124.308    2.5272    0.2839     3.567   192.981     8.042
 4398.4736   105.565    2.5019    0.2464     0.791   200.000     8.978
 4398.6260   122.619    2.5028    0.4003     1.096   145.243     8.345
 4398.7784    79.957    2.4820    0.3044     2.791   180.059     8.222
 4398.9308   115.926    2.4733    0.3103     1.728   174.830     8.581
 4399.0832   133.618    2.4697    0.3395     1.284   165.227     8.437
 4399.2356   102.278    2.5474    0.3041     1.881   183.395     8.796
 4399.3880   115.830    2.4879    0.3149     1.708   171.992     8.050
 4399.5404   130.650    2.4634    0.2549     2.150   200.000     8.748
 4399.6928   111.543    2.4946    0.3056     1.632   189.346     8.273
 4399.8452   100.303    2.5006    0.2999     1.139   190.753     9.073
 4399.9976   121.423    2.5197    0.2984     2.039   185.555     8.269
 4400.1500   125.450    2.3875    0.3206     2.430   176.004     8.656
 4400.3024   118.293    2.4298    0.3955     2.183   132.722     8.277
 4400.4548   130.820    2.4413    0.3181     1.458   174.990     8.860
 4400.6072   102.732    2.5455    0.3083     2.393   175.083     8.188
 4400.7596    92.400    2.4164    0.3581     1.145   158.716     7.757
 4400.9120   145.487    2.5009    0.2782     1.668   200.000     8.463
 4401.0644   135.377    2.4638    0.3365     1.899   157.133     8.657
 4401.2168   125.826    2.5580    0.2924     1.308   183.580     8.589
 4401.3692   103.695    2.4722    0.3208     2.127   173.607     8.942
 4401.5216    82.283    2.4874    0.2805     1.282   194.092     8.402
 4401.6740    98.315    2.4186    0.2751     0.877   189.956     8.003
 4401.8264   110.854    2.3923    0.3705     0.819   145.364     8.984
 4401.9788   123.585    2.5352    0.3034     2.045   185.223     8.433
 4402.1312    95.548    2.5004    0.3435     2.653   161.888     9.358
 4402.2836    92.197    2.4407    0.3345     1.678   172.414     9.558
 4402.4360   102.737    2.4697    0.2393     1.582   200.000     7.397
 4402.5884    96.500    2.5113    0.3343     1.586   169.199     9.063
 4402.7408   123.610    2.4211    0.2692     0.938   199.737     9.021
 4402.8932   114.499    2.4622    0.3041     2.055   173.674     7.989
 4403.0456   120.942    2.4831    0.4469     0.847   144.787     8.357
 4403.1980   107.536    2.4421    0.2777     4.590   197.249     8.478
 4403.3504    79.262    2.5141    0.2406     0.500   200.000     8.153
 4403.5028   139.541    2.4102    0.3455     6.917   166.861     8.367
 4403.6552   118.842    2.4328    0.3209     0.749   172.136     9.209
 4403.8076   123.541    2.5256    0.2733     1.100   195.618     8.453
 4403.9600    97.494    2.3746    0.3018     1.840   184.555     8.802
 4404.1124    96.694    2.5234    0.3439     3.681   164.869     8.043
 4404.2648   106.824    2.4774    0.2782     3.567   190.859     8.499
 4404.4172   108.149    2.3904    0.2301     3.078   200.000     8.599
 4404.5696    98.884    2.4736    0.3621     1.524   160.743     8.144
 4404.7220   141.574    2.5563    0.2795     4.906   199.220     8.292
 4404.8744   102.589    2.4720    0.2660     0.731   200.000     8.335
 4405.0268   110.364    2.4439    0.3057     3.338   178.443     8.512
 4405.1792    88.561    2.3909    0.3281     1.980   169.587     9.516
 4405.3316   113.180    2.5386    0.3296     1.719   167.988     9.132
