~VERSION INFORMATION
 VERS.                 2.0    : CWLS LOG ASCII STANDARD
 WRAP.                 NO     : ONE LINE PER DEPTH STEP
~WELL INFORMATION
 WELL.                 15/25-1    : Well name
 FLD .                 Magnus         : Field
 CTRY.                 UK       : Country
 STRT.M                3200.0000 : START DEPTH
 STOP.M                4500.0000   : STOP DEPTH
 STEP.M                0.1524        : STEP
 NULL.                 -999.25          : NULL VALUE
 SRVC.                 SubsurfAI        : Service company
~CURVE INFORMATION
 DEPT.M                              : Depth
 GR  .GAPI                           : Gamma Ray
 RHOB.G/C3                           : Bulk Density
 NPHI.V/V                            : Neutron Porosity
 RT  .OHMM                           : True Resistivity
 DT  .US/F                           : Sonic
 CALI.IN                             : Caliper
~PARAMETER INFORMATION
 LAT .                 61.6451   : Latitude
 LON .                 1.0123   : Longitude
 DESC.                 Magnus Fm — Upper Jurassic turbidite sandstone
~A  DEPT        GR        RHOB      NPHI      RT        DT        CALI
# ...
 3544.4240    40.848    2.2851    0.1473   104.815   200.000     8.359
 3544.5764    33.434    2.3264    0.1752    96.889   200.000     8.725
 3544.7288    33.112    2.1899    0.1493    80.508   200.000     8.091
 3544.8812    34.913    2.3576    0.1319   117.016   200.000     8.407
 3545.0336    23.543    2.2831    0.1696    86.383   200.000     8.652
 3545.1860    25.745    2.3201    0.1789    51.530   200.000     8.863
 3545.3384    23.637    2.3715    0.2342   125.934   200.000     9.097
 3545.4908    34.577    2.2562    0.1647    72.535   200.000     8.266
 3545.6432    35.258    2.2350    0.1808    81.180   200.000     8.632
 3545.7956    29.076    2.2696    0.1643    86.640   200.000     8.349
 3545.9480    38.891    2.1402    0.2121   100.771   200.000     8.406
 3546.1004    29.489    2.2510    0.2129   170.784   200.000     8.908
 3546.2528    43.701    2.2262    0.1674    43.785   200.000     8.294
 3546.4052    25.596    2.2564    0.1874    86.234   200.000     8.626
 3546.5576    23.411    2.2536    0.2005   105.315   200.000     8.196
 3546.7100    34.330    2.2912    0.1278    46.185   200.000     8.414
 3546.8624    33.912    2.2654    0.1790    49.579   200.000     8.656
 3547.0148    34.795    2.2618    0.1467    72.631   200.000     7.742
 3547.1672    39.369    2.2474    0.2167    70.221   200.000     8.826
 3547.3196    21.337    2.2760    0.2063    34.623   200.000     8.784
 3547.4720    29.711    2.3046    0.1712    72.555   200.000     8.991
 3547.6244    32.168    2.3325    0.2460    45.028   200.000     8.445
 3547.7768    29.889    2.1813    0.1284    70.649   200.000     8.398
 3547.9292    30.317    2.3454    0.2024    70.789   200.000     8.786
 3548.0816    28.851    2.2628    0.1702    83.597   200.000     7.953
 3548.2340    39.347    2.2772    0.1681   107.090   200.000     8.735
 3548.3864    28.123    2.1892    0.1693    60.820   200.000     8.900
 3548.5388    30.774    2.3420    0.1931   141.857   200.000     8.431
 3548.6912    23.721    2.2260    0.1473   120.390   200.000     8.469
 3548.8436    31.305    2.2628    0.1790    95.879   200.000     8.465
 3548.9960    29.341    2.1748    0.1786   108.435   200.000     8.692
 3549.1484    44.617    2.2797    0.2143    33.217   200.000     7.833
 3549.3008    28.173    2.3403    0.1621    58.675   200.000     8.792
 3549.4532    36.488    2.2278    0.1556    49.501   200.000     8.658
 3549.6056    32.531    2.3100    0.1785    48.185   200.000     9.034
 3549.7580    31.458    2.3005    0.2015    48.050   200.000     8.851
 3549.9104    30.194    2.4091    0.1974   110.804   200.000     9.124
 3550.0628    34.068    2.2753    0.1787    77.764   200.000     8.502
 3550.2152    36.776    2.3020    0.1612    67.460   200.000     8.108
 3550.3676    25.751    2.3416    0.1785   101.437   200.000     8.492
 3550.5200    36.011    2.2796    0.1491    29.484   200.000     8.591
 3550.6724    36.161    2.3150    0.1591   111.958   200.000     8.899
 3550.8248    32.779    2.2370    0.1773    63.618   200.000     7.938
 3550.9772    28.330    2.2829    0.1399    53.417   200.000     8.150
 3551.1296    27.823    2.3360    0.1676    68.690   200.000     9.187
 3551.2820    39.532    2.2195    0.1388    34.759   200.000     8.790
 3551.4344    29.763    2.2284    0.1723    57.954   200.000     8.331
 3551.5868    28.388    2.2703    0.2079    38.771   200.000     7.767
 3551.7392    28.918    2.2471    0.1903   162.262   200.000     8.916
 3551.8916    42.036    2.2107    0.1610    28.217   200.000     8.787
 3552.0440    34.832    2.3108    0.1313    93.304   200.000     8.599
 3552.1964    39.788    2.2637    0.1776   141.279   200.000     8.795
 3552.3488    39.481    2.2756    0.1548    99.986   200.000     8.780
 3552.5012    41.457    2.2917    0.1495    86.391   200.000     8.271
 3552.6536    33.217    2.2472    0.1917   129.269   200.000     8.005
 3552.8060    35.066    2.2243    0.1730    49.813   200.000     8.453
 3552.9584    35.475    2.2607    0.2043    84.698   200.000     8.700
 3553.1108    23.979    2.2618    0.1923    64.466   200.000     8.580
 3553.2632    29.163    2.3010    0.1769    80.016   200.000     8.284
 3553.4156    34.628    2.2509    0.1490    54.815   200.000     8.169
 3553.5680    34.325    2.2558    0.1699    48.385   200.000     8.564
 3553.7204    29.701    2.2592    0.1875   102.463   200.000     8.087
 3553.8728    35.327    2.2332    0.1582    68.674   200.000     8.564
 3554.0252    21.860    2.2517    0.1770    66.797   200.000     8.047
 3554.1776    29.170    2.3175    0.1445    66.676   200.000     8.293
 3554.3300    36.741    2.2099    0.1600    74.874   200.000     8.928
 3554.4824    37.424    2.2826    0.1612    43.758   200.000     8.652
 3554.6348    36.799    2.1916    0.1738    97.617   200.000     8.408
 3554.7872    22.010    2.3175    0.1636   134.083   200.000     7.922
 3554.9396    46.450    2.2341    0.1763    36.745   200.000     8.985
 3555.0920    27.090    2.3776    0.1849    42.419   200.000     8.532
 3555.2444    37.121    2.2639    0.1619    79.587   200.000     7.651
 3555.3968    35.989    2.3188    0.1781    66.249   200.000     8.390
 3555.5492    34.479    2.2686    0.1597    49.665   200.000     7.776
 3555.7016    35.308    2.2684    0.2064    57.176   200.000     8.328
 3555.8540    38.119    2.2771    0.1772   148.052   200.000     9.037
 3556.0064    39.433    2.2655    0.1265    45.728   200.000     8.053
 3556.1588    35.617    2.2937    0.1464    62.799   200.000     8.225
 3556.3112    24.804    2.2712    0.1358    46.177   200.000     8.724
 3556.4636    43.637    2.2242    0.1504    26.930   200.000     8.512
 3556.6160    26.162    2.3104    0.2196    63.427   200.000     7.898
 3556.7684    29.275    2.2589    0.1504   125.588   200.000     8.538
 3556.9208    28.448    2.2317    0.1367    94.772   200.000     8.309
 3557.0732    33.973    2.3704    0.1807    58.786   200.000     7.769
 3557.2256    35.360    2.2881    0.2000   136.969   200.000     8.663
 3557.3780    34.945    2.3619    0.1513    34.229   200.000     8.196
 3557.5304    36.696    2.3240    0.1571    62.689   200.000     8.938
 3557.6828    42.217    2.2564    0.1636    62.557   200.000     8.382
 3557.8352    33.817    2.2746    0.1412   105.190   200.000     8.794
 3557.9876    33.008    2.2841    0.2082    39.254   200.000     7.874
 3558.1400    29.042    2.3426    0.1767    63.535   200.000     8.514
 3558.2924    36.296    2.2494    0.1620    37.151   200.000     8.670
 3558.4448    35.264    2.2954    0.1983    63.023   200.000     8.006
 3558.5972    30.259    2.2197    0.1445   194.382   200.000     8.792
 3558.7496    36.780    2.3357    0.1698   125.979   200.000     8.492
 3558.9020    41.010    2.2188    0.1237    83.702   200.000     8.871
 3559.0544    39.730    2.2990    0.1444   118.045   200.000     8.740
 3559.2068    38.471    2.3170    0.1811    31.618   200.000     8.640
 3559.3592    28.214    2.3215    0.1691    66.425   200.000     8.124
 3559.5116    35.159    2.2064    0.1715   136.290   200.000     8.085
 3559.6640    32.155    2.2622    0.1938    95.094   200.000     8.793
 3559.8164    34.233    2.2364    0.1561   246.479   200.000     8.649
 3559.9688    35.903    2.2229    0.1656    40.156   200.000     8.107
 3560.1212    33.106    2.2143    0.1470    96.249   200.000     8.411
 3560.2736    24.206    2.2264    0.1642    56.065   200.000     8.302
 3560.4260    26.997    2.2532    0.1536    62.269   200.000     8.871
 3560.5784    27.317    2.1936    0.1349    18.872   200.000     8.587
 3560.7308    35.349    2.1991    0.1882   111.252   200.000     8.492
 3560.8832    36.376    2.2471    0.1761    90.634   200.000     8.728
 3561.0356    35.810    2.2228    0.1970    66.059   200.000     8.674
 3561.1880    29.521    2.2928    0.2065   101.694   200.000     8.730
 3561.3404    42.296    2.2702    0.1697    40.762   200.000     8.893
 3561.4928    36.756    2.3459    0.1510    75.386   200.000     7.753
