~VERSION INFORMATION
 VERS.                 2.0    : CWLS LOG ASCII STANDARD
 WRAP.                 NO     : ONE LINE PER DEPTH STEP
~WELL INFORMATION
 WELL.                 15/25-1    : Well name
 FLD .                 Magnus         : Field
 CTRY.                 UK       : Country
 STRT.M                3200.0000 : START DEPTH
 STOP.M                4500.0000   : STOP DEPTH
 STEP.M                0.1524        : STEP
 NULL.                 -999.25          : NULL VALUE
 SRVC.                 SubsurfAI        : Service company
~CURVE INFORMATION
 DEPT.M                              : Depth
 GR  .GAPI                           : Gamma Ray
 RHOB.G/C3                           : Bulk Density
 NPHI.V/V                            : Neutron Porosity
 RT  .OHMM                           : True Resistivity
 DT  .US/F                           : Sonic
 CALI.IN                             : Caliper
~PARAMETER INFORMATION
 LAT .                 61.6451   : Latitude
 LON .                 1.0123   : Longitude
 DESC.                 Magnus Fm — Upper Jurassic turbidite sandstone
~A  DEPT        GR        RHOB      NPHI      RT        DT        CALI
 3200.0000   118.363    2.5255    0.3028     0.839   181.791     7.732
 3200.1524   116.124    2.4975    0.3009     0.848   179.867     8.386
 3200.3048    93.759    2.5526    0.2739     1.896   200.000     8.230
 3200.4572   126.025    2.4994    0.2990     2.755   183.685     8.432
 3200.6096   103.579    2.4971    0.3677     1.690   147.981     8.473
 3200.7620   100.614    2.4988    0.3592     1.648   156.800     7.684
 3200.9144    94.840    2.5807    0.3931     1.026   141.283     7.975
 3201.0668   109.938    2.5171    0.2543     0.722   200.000     8.252
 3201.2192   116.380    2.5028    0.3426     0.662   164.555     8.036
 3201.3716    95.009    2.3939    0.3362     1.510   161.854     8.453
 3201.5240   129.850    2.4863    0.2659     0.893   200.000     8.993
 3201.6764   121.722    2.5169    0.3535     1.445   147.039     8.459
 3201.8288   120.180    2.5398    0.2786     1.047   192.485     9.074
 3201.9812   119.819    2.4954    0.3704     0.662   151.315     9.050
 3202.1336   116.521    2.5044    0.2927     2.112   179.493     7.885
 3202.2860   130.773    2.4867    0.2950     0.520   195.203     8.436
 3202.4384   107.709    2.5267    0.3450     1.840   154.821     8.348
 3202.5908    97.505    2.5109    0.3621     0.577   153.268     9.201
 3202.7432   125.276    2.5505    0.2275     1.860   200.000     8.384
 3202.8956   103.841    2.5097    0.3950     1.268   130.456     8.175
 3203.0480   123.169    2.6038    0.3957     0.726   139.590     8.675
 3203.2004    97.185    2.4627    0.3456     2.662   158.185     7.977
 3203.3528    94.160    2.5229    0.2891     2.821   188.420     8.628
 3203.5052   106.433    2.5291    0.2570     1.302   200.000     7.651
 3203.6576   115.838    2.4920    0.3634     0.865   149.851     9.081
 3203.8100   123.511    2.4259    0.2823     1.604   194.978     9.282
 3203.9624   114.857    2.4788    0.2185     0.973   200.000     8.479
 3204.1148    77.399    2.4960    0.3393     1.668   175.696     8.324
 3204.2672    98.510    2.4184    0.3305     1.449   171.233     8.773
 3204.4196    93.642    2.4424    0.3634     1.080   151.526     8.788
 3204.5720    90.709    2.5370    0.3620     1.678   155.568     8.177
 3204.7244   112.317    2.4958    0.3039     0.879   173.428     8.427
 3204.8768   101.202    2.3815    0.2758     2.454   200.000     8.706
 3205.0292    82.864    2.5559    0.3441     4.831   153.761     9.127
 3205.1816   132.360    2.5731    0.3261     1.917   175.287     8.203
 3205.3340   108.146    2.4435    0.2324     0.817   200.000     8.632
 3205.4864   112.499    2.5322    0.2600     1.738   200.000     8.966
 3205.6388   115.255    2.5038    0.3645     1.618   153.828     8.516
 3205.7912   126.478    2.5487    0.3410     2.326   165.603     8.892
 3205.9436   103.148    2.5271    0.4222     0.775   141.187     8.921
 3206.0960   104.295    2.5647    0.3876     1.767   142.759     8.322
 3206.2484    97.771    2.5085    0.3130     1.567   180.487     8.761
 3206.4008   130.078    2.6226    0.3066     0.983   175.911     8.829
 3206.5532   106.921    2.5378    0.3286     0.978   172.912     8.751
 3206.7056   112.644    2.5818    0.3586     1.279   151.622     9.024
 3206.8580   130.272    2.5226    0.3024     1.538   171.168     8.100
 3207.0104   132.233    2.4473    0.2708     1.056   200.000     9.427
 3207.1628   134.176    2.5689    0.3094     0.833   179.292     7.310
 3207.3152   122.888    2.6575    0.2755     1.181   198.032     8.139
 3207.4676    90.887    2.4659    0.3407     0.831   161.456     7.933
 3207.6200   118.198    2.4465    0.3863     0.912   145.110     8.131
 3207.7724   115.730    2.5008    0.2336     2.170   200.000     8.511
 3207.9248   106.036    2.4979    0.3259     1.265   165.425     8.019
 3208.0772   138.551    2.5606    0.3209     1.350   177.456     8.548
 3208.2296   124.023    2.4965    0.2867     1.483   190.458     8.334
 3208.3820   104.078    2.4887    0.4301     2.314   136.235     7.882
 3208.5344   122.837    2.4492    0.3522     1.189   162.017     9.007
 3208.6868    75.654    2.4774    0.3367     2.303   168.457     8.444
 3208.8392   121.148    2.6187    0.3302     1.499   163.581     7.681
 3208.9916   112.787    2.4676    0.3908     0.504   144.497     8.409
 3209.1440   108.400    2.4083    0.2879     1.624   193.943     8.737
 3209.2964   134.652    2.4869    0.2485     0.956   200.000     8.624
 3209.4488   104.000    2.5577    0.2351     1.031   200.000     8.755
 3209.6012   116.743    2.4452    0.3762     2.158   145.701     7.742
 3209.7536   124.681    2.5600    0.2995     1.574   192.027     8.868
 3209.9060   116.231    2.5454    0.4226     0.782   135.826     7.997
 3210.0584   112.284    2.4849    0.3156     1.431   166.987     9.066
 3210.2108    80.728    2.5613    0.3905     0.762   141.553     8.324
 3210.3632   117.078    2.4412    0.3120     1.021   172.546     8.927
 3210.5156   102.391    2.5252    0.3737     1.722   145.693     9.827
 3210.6680   113.788    2.4378    0.3208     1.258   170.616     9.700
 3210.8204   114.660    2.4802    0.2962     1.202   192.364     9.154
 3210.9728   125.784    2.5046    0.2896     0.754   188.639     8.372
 3211.1252   101.447    2.5161    0.3695     2.185   148.512     8.655
 3211.2776    99.926    2.5672    0.3416     0.826   170.552     8.445
 3211.4300   103.380    2.4874    0.3005     0.669   189.794     8.799
 3211.5824   115.763    2.4844    0.2790     2.442   186.360     8.610
 3211.7348   125.958    2.4599    0.3496     2.960   158.847     8.561
 3211.8872    77.667    2.5609    0.4062     1.074   134.169     9.144
 3212.0396   108.325    2.4891    0.2537     0.363   200.000     8.746
 3212.1920   110.057    2.4667    0.3037     0.628   181.793     8.494
 3212.3444   109.967    2.4751    0.2917     1.391   199.131     8.027
 3212.4968   122.380    2.5460    0.2782     0.422   197.046     9.197
 3212.6492   121.338    2.5436    0.2987     0.476   186.401     9.244
 3212.8016   128.744    2.5411    0.3451     2.533   159.142     8.328
 3212.9540   109.397    2.4965    0.2541     1.551   200.000     8.842
 3213.1064    67.178    2.5425    0.3480     1.096   150.671     7.952
 3213.2588   119.215    2.5154    0.2493     2.065   200.000     8.089
 3213.4112   109.383    2.5354    0.2899     1.317   186.180     8.207
 3213.5636   106.596    2.5038    0.3790     1.623   139.921     8.745
 3213.7160   117.959    2.5071    0.2567     0.703   200.000     7.409
 3213.8684   114.148    2.5731    0.3821     3.414   142.847     8.976
 3214.0208    89.889    2.3765    0.4017     1.172   143.927     8.453
 3214.1732   121.841    2.5504    0.3989     6.389   136.094     8.916
 3214.3256    93.916    2.4887    0.2800     1.211   193.102     8.714
 3214.4780   102.579    2.5125    0.3471     1.352   156.072     8.407
 3214.6304   119.645    2.4482    0.3141     1.060   172.680     8.010
 3214.7828   100.683    2.4912    0.2645     2.780   197.091     8.164
 3214.9352   112.526    2.5635    0.2664     2.741   200.000     8.139
 3215.0876    96.473    2.4875    0.3163     0.713   174.871     8.589
 3215.2400   129.519    2.5115    0.3330     2.364   161.225     8.247
 3215.3924   106.437    2.4645    0.2876     1.908   199.652     9.162
 3215.5448    98.253    2.4724    0.3053     1.763   187.144     8.956
 3215.6972   108.732    2.4659    0.2822     0.655   200.000     8.481
 3215.8496   108.487    2.5809    0.3064     1.568   182.230     9.006
 3216.0020   102.319    2.5551    0.3294     0.878   170.632     7.655
 3216.1544   125.535    2.4267    0.3809     1.213   154.035     8.603
 3216.3068    99.427    2.4712    0.3331     0.720   165.719     8.988
 3216.4592   111.375    2.4983    0.2872     1.417   200.000     9.182
 3216.6116    92.662    2.4669    0.2653     4.978   200.000     8.353
 3216.7640   115.090    2.5225    0.2974     1.737   179.579     9.101
 3216.9164   109.810    2.4781    0.3393     0.262   165.660     9.299
 3217.0688   102.828    2.5537    0.3162     1.670   173.375     7.795
