~VERSION INFORMATION
 VERS.                 2.0    : CWLS LOG ASCII STANDARD
 WRAP.                 NO     : ONE LINE PER DEPTH STEP
~WELL INFORMATION
 WELL.                 15/25-1    : Well name
 FLD .                 Magnus         : Field
 CTRY.                 UK       : Country
 STRT.M                3200.0000 : START DEPTH
 STOP.M                4500.0000   : STOP DEPTH
 STEP.M                0.1524        : STEP
 NULL.                 -999.25          : NULL VALUE
 SRVC.                 SubsurfAI        : Service company
~CURVE INFORMATION
 DEPT.M                              : Depth
 GR  .GAPI                           : Gamma Ray
 RHOB.G/C3                           : Bulk Density
 NPHI.V/V                            : Neutron Porosity
 RT  .OHMM                           : True Resistivity
 DT  .US/F                           : Sonic
 CALI.IN                             : Caliper
~PARAMETER INFORMATION
 LAT .                 61.6451   : Latitude
 LON .                 1.0123   : Longitude
 DESC.                 Magnus Fm — Upper Jurassic turbidite sandstone
~A  DEPT        GR        RHOB      NPHI      RT        DT        CALI
# ...
 4129.9448    27.184    2.2561    0.1617    61.002   200.000     8.105
 4130.0972    22.723    2.1110    0.1908   166.020   200.000     8.803
 4130.2496    23.635    2.1727    0.1599    83.382   200.000     8.073
 4130.4020    18.621    2.1861    0.1835   139.052   200.000     8.592
 4130.5544    28.748    2.2926    0.1998    56.343   200.000     8.460
 4130.7068    39.016    2.2253    0.1664    27.412   200.000     8.389
 4130.8592    30.356    2.2554    0.1301   110.006   200.000     8.443
 4131.0116    29.073    2.1829    0.1557   133.972   200.000     8.772
 4131.1640    24.029    2.2590    0.1791   113.649   200.000     8.297
 4131.3164    27.690    2.2226    0.1527   161.196   200.000     8.368
 4131.4688    32.967    2.2460    0.0944   150.974   200.000     8.394
 4131.6212    38.881    2.2817    0.1362   164.289   200.000     8.290
 4131.7736    27.716    2.3022    0.1124   131.162   200.000     9.039
 4131.9260    33.453    2.2058    0.1752    79.658   200.000     9.204
 4132.0784    22.580    2.2450    0.1456    53.229   200.000     8.482
 4132.2308    28.136    2.2328    0.1795    57.539   200.000     8.033
 4132.3832    30.422    2.2439    0.1549    55.225   200.000     7.951
 4132.5356    30.959    2.2861    0.1987    51.092   200.000     8.475
 4132.6880    22.255    2.2346    0.1285    70.649   200.000     8.167
 4132.8404    29.660    2.2791    0.1499    67.629   200.000     8.839
 4132.9928    30.358    2.2696    0.1760    47.702   200.000     7.658
 4133.1452    24.281    2.2356    0.1622    50.213   200.000     8.264
 4133.2976    26.626    2.2125    0.1583   119.752   200.000     8.281
 4133.4500    32.893    2.2993    0.1593   111.617   200.000     9.050
 4133.6024    29.178    2.3183    0.1628    85.476   200.000     8.850
 4133.7548    33.880    2.2698    0.1532    52.864   200.000     8.129
 4133.9072    31.619    2.2890    0.1682   114.634   200.000     8.817
 4134.0596    32.962    2.2775    0.1738   149.624   200.000     8.908
 4134.2120    26.828    2.2257    0.1604    42.888   200.000     8.855
 4134.3644    30.997    2.2909    0.1583    56.021   200.000     8.550
 4134.5168    27.268    2.1759    0.2076    71.618   200.000     8.966
 4134.6692    31.009    2.1996    0.1643    70.346   200.000     8.016
 4134.8216    33.188    2.2651    0.1872    64.806   200.000     8.971
 4134.9740    29.084    2.2437    0.1520   114.784   200.000     8.392
 4135.1264    27.706    2.3375    0.1347   159.607   200.000     8.000
 4135.2788    37.737    2.3406    0.1286   215.995   200.000     8.454
 4135.4312    24.770    2.1199    0.1176    82.119   200.000     8.124
 4135.5836    33.903    2.2434    0.1419    75.016   200.000     8.836
 4135.7360    32.753    2.1456    0.1251    81.178   200.000     8.351
 4135.8884    26.169    2.2385    0.1731    28.602   200.000     8.969
 4136.0408    21.627    2.2277    0.1490   113.731   200.000     8.601
 4136.1932    31.044    2.2590    0.1702    93.568   200.000     8.563
 4136.3456    34.035    2.2402    0.1786    53.188   200.000     8.547
 4136.4980    34.052    2.2283    0.1282    52.418   200.000     8.001
 4136.6504    31.640    2.1999    0.1767   178.516   200.000     8.540
 4136.8028    32.404    2.2529    0.1315   137.596   200.000     8.633
 4136.9552    34.244    2.1562    0.1350    60.327   200.000     8.460
 4137.1076    26.036    2.1981    0.1789    60.085   200.000     8.103
 4137.2600    26.228    2.2576    0.1759    94.922   200.000     8.287
 4137.4124    32.892    2.2172    0.1272   130.985   200.000     8.065
 4137.5648    27.470    2.1986    0.1350   111.969   200.000     9.008
 4137.7172    23.376    2.2770    0.1621   102.643   200.000     8.933
 4137.8696    18.160    2.1884    0.1348   142.867   200.000     8.267
 4138.0220    24.784    2.2011    0.1278    45.725   200.000     8.031
 4138.1744    31.998    2.1923    0.1481    68.262   200.000     8.534
 4138.3268    21.711    2.2280    0.1594    79.752   200.000     8.628
 4138.4792    27.267    2.2637    0.1774   193.392   200.000     8.074
 4138.6316    27.254    2.3323    0.1867   104.526   200.000     7.901
 4138.7840    31.894    2.2265    0.1068    97.212   200.000     8.341
 4138.9364    25.817    2.2764    0.1616   100.071   200.000     7.983
 4139.0888    29.097    2.1869    0.1746    46.040   200.000     8.332
 4139.2412    19.712    2.3513    0.1462   123.713   200.000     7.527
 4139.3936    22.259    2.1838    0.1578   186.217   200.000     8.382
 4139.5460    28.935    2.2357    0.1745    65.312   200.000     8.533
 4139.6984    32.310    2.2921    0.1464   113.971   200.000     8.004
 4139.8508    31.831    2.1949    0.1646    60.356   200.000     8.596
 4140.0032    36.589    2.1389    0.1545   112.126   200.000     7.692
 4140.1556    16.195    2.3579    0.1515    96.430   200.000     8.740
 4140.3080    31.627    2.2386    0.1450    39.261   200.000     7.892
 4140.4604    29.750    2.2496    0.1633    69.084   200.000     7.766
 4140.6128    26.257    2.1814    0.1632    79.314   200.000     9.157
 4140.7652    28.641    2.2307    0.1361    69.383   200.000     8.015
 4140.9176    24.908    2.2267    0.1936    52.471   200.000     8.544
 4141.0700    29.263    2.1810    0.1854   111.046   200.000     9.201
 4141.2224    23.684    2.1951    0.1459    69.788   200.000     9.150
 4141.3748    28.967    2.2815    0.1878    82.573   200.000     8.835
 4141.5272    23.077    2.2264    0.1371    66.100   200.000     8.451
 4141.6796    23.592    2.1912    0.1730   195.104   200.000     8.124
 4141.8320    32.701    2.2051    0.1236    73.630   200.000     8.585
 4141.9844    26.785    2.3068    0.1464    65.999   200.000     9.024
 4142.1368    29.497    2.2540    0.1521    67.817   200.000     7.731
 4142.2892    33.104    2.2236    0.1785   139.293   200.000     8.470
 4142.4416    31.941    2.2727    0.1648    97.022   200.000     8.254
 4142.5940    34.971    2.2618    0.1284    91.052   200.000     9.178
 4142.7464    22.366    2.2376    0.1357    74.529   200.000     8.228
 4142.8988    24.746    2.1960    0.1672    44.097   200.000     8.257
 4143.0512    34.817    2.2053    0.1787    53.329   200.000     8.462
 4143.2036    29.666    2.1916    0.1080   113.999   200.000     9.327
 4143.3560    25.318    2.3022    0.1218    28.349   200.000     8.824
 4143.5084    39.532    2.2354    0.1924   106.271   200.000     8.898
 4143.6608    28.310    2.2961    0.2220   122.645   200.000     8.511
 4143.8132    17.800    2.2283    0.1442   111.718   200.000     8.429
 4143.9656    33.607    2.2533    0.1272    80.740   200.000     8.501
 4144.1180    31.105    2.2227    0.1558   179.453   200.000     9.078
 4144.2704    15.278    2.2008    0.1578    63.251   200.000     8.182
 4144.4228    28.462    2.2623    0.1663    42.605   200.000     8.853
 4144.5752    23.400    2.3056    0.1634    60.814   200.000     8.511
 4144.7276    31.695    2.2619    0.1460    93.698   200.000     8.282
 4144.8800    24.650    2.1826    0.1534    61.452   200.000     8.001
 4145.0324    24.444    2.2528    0.1139   107.286   200.000     8.444
 4145.1848    31.774    2.2636    0.1934   160.618   200.000     8.784
 4145.3372    31.270    2.2698    0.1583    25.173   200.000     8.333
 4145.4896    30.735    2.2158    0.1507   142.353   200.000     8.361
 4145.6420    26.212    2.2425    0.1591   186.268   200.000     9.059
 4145.7944    29.444    2.1432    0.1599    64.493   200.000     9.133
 4145.9468    26.845    2.2388    0.1435   119.934   200.000     8.443
 4146.0992    29.155    2.2720    0.1592   123.882   200.000     8.022
 4146.2516    38.491    2.2018    0.1607    68.084   200.000     9.066
 4146.4040    29.153    2.2589    0.1404    46.403   200.000     8.416
 4146.5564    24.354    2.1807    0.1068    48.057   200.000     8.489
 4146.7088    34.349    2.2873    0.2055    54.877   200.000     8.245
 4146.8612    31.181    2.3042    0.1503    80.037   200.000     8.094
 4147.0136    29.427    2.2823    0.1750   126.991   200.000     9.116
