~VERSION INFORMATION
 VERS.                 2.0    : CWLS LOG ASCII STANDARD
 WRAP.                 NO     : ONE LINE PER DEPTH STEP
~WELL INFORMATION
 WELL.                 15/25-1    : Well name
 FLD .                 Magnus         : Field
 CTRY.                 UK       : Country
 STRT.M                3200.0000 : START DEPTH
 STOP.M                4500.0000   : STOP DEPTH
 STEP.M                0.1524        : STEP
 NULL.                 -999.25          : NULL VALUE
 SRVC.                 SubsurfAI        : Service company
~CURVE INFORMATION
 DEPT.M                              : Depth
 GR  .GAPI                           : Gamma Ray
 RHOB.G/C3                           : Bulk Density
 NPHI.V/V                            : Neutron Porosity
 RT  .OHMM                           : True Resistivity
 DT  .US/F                           : Sonic
 CALI.IN                             : Caliper
~PARAMETER INFORMATION
 LAT .                 61.6451   : Latitude
 LON .                 1.0123   : Longitude
 DESC.                 Magnus Fm — Upper Jurassic turbidite sandstone
~A  DEPT        GR        RHOB      NPHI      RT        DT        CALI
# ...
 4474.3688   119.238    2.4025    0.2953     2.265   193.602     8.827
 4474.5212   105.490    2.4604    0.2472     0.697   200.000     8.424
 4474.6736    81.479    2.5027    0.3164     4.944   167.821     7.915
 4474.8260   106.815    2.4646    0.2552     1.787   200.000     8.661
 4474.9784   104.970    2.4148    0.3043     0.864   183.810     8.722
 4475.1308    98.009    2.4477    0.3163     0.689   177.543     7.669
 4475.2832   105.726    2.5690    0.3238     3.008   171.302     8.257
 4475.4356   107.519    2.4055    0.2868     1.316   194.418     7.872
 4475.5880    87.482    2.5068    0.3458     0.920   159.937     8.199
 4475.7404    76.206    2.4484    0.3606     1.910   158.565     8.314
 4475.8928   107.013    2.4429    0.2836     4.452   199.789     8.801
 4476.0452   109.941    2.5037    0.2645     2.194   200.000     8.043
 4476.1976   105.365    2.4927    0.2630     0.607   200.000     8.675
 4476.3500   102.777    2.5144    0.2253     1.642   200.000     8.597
 4476.5024   120.202    2.5751    0.3191     2.020   170.946     8.910
 4476.6548   122.380    2.4881    0.3200     2.485   165.778     8.722
 4476.8072   116.146    2.5153    0.2881     1.273   190.551     8.877
 4476.9596    97.560    2.4108    0.3688     0.971   144.149     8.459
 4477.1120   118.470    2.5520    0.4049     2.600   138.706     9.169
 4477.2644   111.049    2.5804    0.3313     1.895   172.689     8.847
 4477.4168   113.612    2.5210    0.4303     1.436   130.941     7.909
 4477.5692    92.428    2.5409    0.3196     0.514   172.202     7.648
 4477.7216   112.162    2.4345    0.3327     2.046   162.509     8.701
 4477.8740   102.743    2.3821    0.2863     0.582   200.000     8.643
 4478.0264   103.855    2.5080    0.2825     1.163   192.220     8.185
 4478.1788   107.400    2.4044    0.2802     2.010   194.964     8.581
 4478.3312   104.590    2.5985    0.3118     1.513   175.396     9.300
 4478.4836   119.326    2.4835    0.2547     2.307   200.000     7.951
 4478.6360   118.176    2.4763    0.3138     1.012   174.570     8.798
 4478.7884    77.732    2.4810    0.3041     2.252   186.171     7.952
 4478.9408   105.526    2.4209    0.3101     1.518   182.083     8.702
 4479.0932    95.312    2.6089    0.3641     1.803   153.576     8.561
 4479.2456    95.695    2.5550    0.3192     2.428   180.928     7.998
 4479.3980   118.172    2.4932    0.3228     1.421   170.120     8.185
 4479.5504   129.717    2.4852    0.2464     1.015   200.000     8.724
 4479.7028    96.279    2.3839    0.3163     0.999   167.876     8.208
 4479.8552   106.859    2.4822    0.4139     4.519   136.606     8.772
 4480.0076   108.561    2.4581    0.2569     1.386   200.000     8.927
 4480.1600   111.314    2.4829    0.2415     4.333   200.000     8.441
 4480.3124    95.559    2.4563    0.2855     1.144   194.533     8.851
 4480.4648   109.835    2.4614    0.3413     2.051   167.112     7.974
 4480.6172   108.089    2.4352    0.3109     1.418   177.732     7.854
 4480.7696   101.157    2.4226    0.2696     2.734   198.104     8.795
 4480.9220   124.646    2.4618    0.3532     1.166   167.385     7.501
 4481.0744   130.760    2.5441    0.3526     2.411   163.691     8.429
 4481.2268    83.860    2.4334    0.2685     4.523   193.198     9.452
 4481.3792   142.371    2.4729    0.2865     2.589   196.175     8.676
 4481.5316    89.250    2.4015    0.2494     2.057   200.000     8.235
 4481.6840    75.247    2.5675    0.3285     1.392   160.921     8.237
 4481.8364    99.593    2.4750    0.3108     2.461   179.643     7.937
 4481.9888    96.037    2.5798    0.3208     2.091   179.069     8.157
 4482.1412    89.067    2.4864    0.3394     0.834   160.960     8.815
 4482.2936    88.153    2.4925    0.3655     1.088   145.664     9.284
 4482.4460    77.594    2.4798    0.3474     2.239   160.257     8.797
 4482.5984   113.007    2.4236    0.3732     5.806   151.287     8.035
 4482.7508   120.811    2.4507    0.3507     1.022   153.462     8.524
 4482.9032    96.226    2.4498    0.3149     3.185   185.572     7.994
 4483.0556    98.058    2.4774    0.2829     2.827   198.331     8.958
 4483.2080    85.200    2.5226    0.2986     0.703   186.614     8.683
 4483.3604   131.286    2.5090    0.3442     1.458   162.235     8.874
 4483.5128   111.110    2.4935    0.2764     2.459   200.000     8.344
 4483.6652   110.221    2.4586    0.2608     2.060   200.000     8.404
 4483.8176   118.875    2.5859    0.2924     2.371   194.376     8.650
 4483.9700   107.581    2.4461    0.3649     0.674   141.912     8.809
 4484.1224   143.964    2.5200    0.2836     1.247   187.023     8.709
 4484.2748   128.395    2.4754    0.3211     0.932   183.573     9.250
 4484.4272   124.112    2.4782    0.3145     1.403   171.082     8.756
 4484.5796   111.232    2.4706    0.2912     1.901   199.174     8.846
 4484.7320    83.363    2.4846    0.3147     2.020   177.257     8.749
 4484.8844   121.794    2.4625    0.3310     2.257   153.990     8.092
 4485.0368   143.599    2.4321    0.3110     2.454   174.011     8.424
 4485.1892   109.032    2.4522    0.3289     1.565   165.705     8.267
 4485.3416   102.198    2.4522    0.3592     3.693   156.035     8.728
 4485.4940   113.530    2.4143    0.2981     1.327   186.926     8.213
 4485.6464   110.340    2.4967    0.2700     1.028   200.000     9.538
 4485.7988   118.453    2.5754    0.3289     4.542   170.997     7.990
 4485.9512   111.716    2.5201    0.1973     1.131   200.000     8.565
 4486.1036    65.386    2.5341    0.3927     0.644   133.392     7.780
 4486.2560    93.333    2.4491    0.2642     6.108   200.000     8.089
 4486.4084    92.806    2.4786    0.3123     2.692   174.126     8.276
 4486.5608    96.764    2.5197    0.2845     1.596   197.123     7.698
 4486.7132   119.599    2.4368    0.2694     3.176   200.000     8.846
 4486.8656   121.670    2.4787    0.3064     1.491   183.862     8.643
 4487.0180    95.914    2.4761    0.2463     1.313   200.000     8.734
 4487.1704    93.759    2.4359    0.3059     1.613   186.242     8.616
 4487.3228   122.714    2.4394    0.2487     1.619   200.000     8.651
 4487.4752    90.427    2.5154    0.3496     0.707   156.526     9.096
 4487.6276    96.451    2.4874    0.2858     1.966   190.920     7.120
 4487.7800   132.520    2.5248    0.3077     1.506   176.498     8.716
 4487.9324   127.736    2.5671    0.3907     1.311   133.546     9.328
 4488.0848    98.534    2.4190    0.3432     1.816   162.002     9.401
 4488.2372   118.302    2.5380    0.2793     1.199   193.180     8.789
 4488.3896   109.409    2.5678    0.2723     0.657   198.114     8.577
 4488.5420    87.601    2.4594    0.3382     2.815   159.357     8.732
 4488.6944   101.644    2.4388    0.2268     1.425   200.000     8.314
 4488.8468    96.062    2.4952    0.3471     2.021   160.507     8.157
 4488.9992    88.325    2.5105    0.3216     1.011   170.434     8.552
 4489.1516   130.743    2.5323    0.3773     1.561   153.709     8.418
 4489.3040   100.640    2.3946    0.2631     0.756   200.000     8.822
 4489.4564   115.361    2.5158    0.2804     0.537   194.927     8.695
 4489.6088   103.795    2.4763    0.2912     1.454   176.713     9.441
 4489.7612   106.449    2.5423    0.2817     1.639   200.000     8.011
 4489.9136   112.735    2.4723    0.3005     0.745   181.270     8.843
 4490.0660   101.941    2.4451    0.3571     1.532   150.809     7.916
 4490.2184   119.625    2.6164    0.2791     1.706   200.000     8.600
 4490.3708   109.659    2.4747    0.2611     1.629   200.000     8.053
 4490.5232    92.909    2.4286    0.3051     1.351   176.711     8.778
 4490.6756   112.038    2.5483    0.3115     2.095   175.841     8.116
 4490.8280   125.528    2.4592    0.2802     1.601   200.000     9.206
 4490.9804   112.161    2.4266    0.3208     1.469   169.333     8.477
 4491.1328   104.039    2.4654    0.3697     0.960   147.584     8.167
 4491.2852   121.328    2.4278    0.3792     0.619   146.154     8.186
 4491.4376   102.932    2.4941    0.2991     0.927   184.660     8.624
