~VERSION INFORMATION
 VERS.                 2.0    : CWLS LOG ASCII STANDARD
 WRAP.                 NO     : ONE LINE PER DEPTH STEP
~WELL INFORMATION
 WELL.                 29/3-1    : Well name
 FLD .                 Forties         : Field
 CTRY.                 UK       : Country
 STRT.M                2000.0000 : START DEPTH
 STOP.M                3500.0000   : STOP DEPTH
 STEP.M                0.1524        : STEP
 NULL.                 -999.25          : NULL VALUE
 SRVC.                 SubsurfAI        : Service company
~CURVE INFORMATION
 DEPT.M                              : Depth
 GR  .GAPI                           : Gamma Ray
 RHOB.G/C3                           : Bulk Density
 NPHI.V/V                            : Neutron Porosity
 RT  .OHMM                           : True Resistivity
 DT  .US/F                           : Sonic
 CALI.IN                             : Caliper
~PARAMETER INFORMATION
 LAT .                 57.7341   : Latitude
 LON .                 0.5432   : Longitude
 DESC.                 Forties Fm — Paleocene submarine fan sandstone
~A  DEPT        GR        RHOB      NPHI      RT        DT        CALI
# ...
 3291.5900   103.201    2.4859    0.2297     1.723   200.000     8.213
 3291.7424   116.534    2.5053    0.2648     2.343   197.409     8.088
 3291.8948    90.031    2.4209    0.3251     1.452   171.619     8.410
 3292.0472   106.350    2.5836    0.2949     4.882   192.475     8.696
 3292.1996   108.364    2.3863    0.2757     1.929   200.000     8.044
 3292.3520    87.031    2.3354    0.2637     2.062   200.000     8.617
 3292.5044   116.940    2.4441    0.2847     1.031   198.843     8.190
 3292.6568    87.330    2.4923    0.2939     1.525   183.950     8.249
 3292.8092   104.342    2.5175    0.2087     4.564   200.000     8.623
 3292.9616   102.265    2.4842    0.2867     1.651   194.490     8.504
 3293.1140    90.579    2.4574    0.2064     2.703   200.000     8.786
 3293.2664    98.455    2.5112    0.3134     2.386   175.948     8.282
 3293.4188    92.879    2.4623    0.2731     0.972   200.000     8.461
 3293.5712   106.447    2.4912    0.3119     0.917   175.969     9.156
 3293.7236   107.111    2.5270    0.2956     1.306   180.658     8.106
 3293.8760    89.258    2.5101    0.3043     1.045   181.927     8.890
 3294.0284    86.065    2.3871    0.2794     1.578   198.929     8.441
 3294.1808    89.738    2.4467    0.3641     7.332   153.632     7.855
 3294.3332    97.319    2.4812    0.2872     1.902   196.632     8.290
 3294.4856    84.683    2.4736    0.2916     1.320   188.482     8.363
 3294.6380    83.442    2.5085    0.2342     1.535   200.000     8.141
 3294.7904    96.522    2.4715    0.2580     0.678   200.000     9.001
 3294.9428    92.136    2.3571    0.2837     1.890   184.531     8.364
 3295.0952   102.866    2.4565    0.2882     1.802   187.509     8.378
 3295.2476    85.787    2.4570    0.2742     1.866   200.000     7.935
 3295.4000    97.268    2.4146    0.2738     3.086   200.000     8.564
 3295.5524    97.003    2.5114    0.2836     1.602   192.034     8.310
 3295.7048   108.889    2.4562    0.2356     0.993   200.000     8.194
 3295.8572    90.776    2.4827    0.2832     4.942   186.012     8.388
 3296.0096   110.688    2.4487    0.3791     2.417   147.590     8.369
 3296.1620   102.837    2.4261    0.3188     3.162   176.354     8.792
 3296.3144    86.101    2.4271    0.3586     3.818   164.096     8.376
 3296.4668   107.639    2.4658    0.2356     1.567   200.000     8.391
 3296.6192   103.099    2.4026    0.2494     1.916   200.000     8.515
 3296.7716    96.955    2.4904    0.2557     2.477   200.000     8.088
 3296.9240    97.805    2.4640    0.2729     3.266   200.000     8.255
 3297.0764    90.572    2.4505    0.3928     1.095   135.995     8.178
 3297.2288   116.474    2.4483    0.2472     2.305   200.000     7.924
 3297.3812    84.541    2.5004    0.3429     3.466   149.836     8.345
 3297.5336   105.975    2.4450    0.2515     3.729   200.000     8.518
 3297.6860    97.106    2.4514    0.2826     2.750   196.676     8.601
 3297.8384   111.150    2.4625    0.2163     1.276   200.000     8.713
 3297.9908    82.520    2.4059    0.1990     1.562   200.000     7.805
 3298.1432   111.875    2.4876    0.2928     2.158   190.461     8.307
 3298.2956   100.990    2.4876    0.4047     2.255   135.129     7.748
 3298.4480   105.655    2.4733    0.2563     2.348   200.000     8.774
 3298.6004   111.807    2.4567    0.3517     2.966   158.344     8.428
 3298.7528    94.693    2.3232    0.2140     1.645   200.000     9.099
 3298.9052   111.333    2.4687    0.3161     5.371   168.900     8.634
 3299.0576   117.445    2.4017    0.2718     1.687   200.000     8.365
 3299.2100   101.658    2.5298    0.2992     2.543   193.193     8.455
 3299.3624   106.280    2.3521    0.2925     1.584   198.735     8.542
 3299.5148   102.992    2.5201    0.2437     0.728   200.000     8.229
 3299.6672   105.223    2.4868    0.3412     2.672   160.997     8.601
 3299.8196    78.379    2.4490    0.2895     2.534   181.967     8.868
 3299.9720   114.469    2.4325    0.3049     2.110   178.620     8.439
 3300.1244    89.876    2.4498    0.2191     1.370   200.000     8.011
 3300.2768    88.250    2.4841    0.2918     2.438   185.404     8.042
 3300.4292   103.610    2.5479    0.2729     2.305   200.000     8.898
 3300.5816    91.833    2.4621    0.2480     1.739   200.000     7.945
 3300.7340   109.052    2.4034    0.3469     0.950   155.102     8.943
 3300.8864   105.047    2.4225    0.2902     1.385   190.490     8.491
 3301.0388   137.279    2.4754    0.3209     3.231   171.279     9.016
 3301.1912   102.537    2.5521    0.2804     1.330   200.000     8.891
 3301.3436   106.858    2.3674    0.2882     1.668   197.949     8.246
 3301.4960    72.713    2.4504    0.3226     1.821   171.826     8.243
 3301.6484   120.981    2.5346    0.2959     3.986   181.973     9.553
 3301.8008    81.956    2.4256    0.2140     2.568   200.000     8.569
 3301.9532    95.712    2.5058    0.2997     2.425   187.020     7.805
 3302.1056   107.274    2.4799    0.3053     1.209   190.592     8.267
 3302.2580   102.119    2.4324    0.3182     2.296   170.389     8.341
 3302.4104    78.778    2.4682    0.3014     1.941   180.107     8.816
 3302.5628    80.659    2.4259    0.2375     4.221   200.000     8.541
 3302.7152    73.770    2.4659    0.3461     1.437   164.282     8.166
 3302.8676   101.446    2.4971    0.2686     2.771   200.000     9.054
 3303.0200   105.431    2.3653    0.2840     2.086   187.967     8.670
 3303.1724   104.055    2.4938    0.2598     2.243   200.000     8.058
 3303.3248   105.249    2.4693    0.2369     1.904   200.000     8.199
 3303.4772    88.492    2.5530    0.4020     1.969   141.165     8.273
 3303.6296   129.991    2.5058    0.2734     1.371   188.057     8.328
 3303.7820    95.926    2.4653    0.3070     3.030   185.261     8.356
 3303.9344   106.506    2.3805    0.2903     3.407   194.461     8.237
 3304.0868   118.107    2.4977    0.3147     2.719   178.593     8.833
 3304.2392   115.215    2.4129    0.2422     3.380   200.000     8.248
 3304.3916    93.698    2.4749    0.2423     4.161   200.000     7.591
 3304.5440    68.617    2.2917    0.2717     3.321   200.000     8.329
 3304.6964   103.603    2.5028    0.3281     5.143   167.867     9.067
 3304.8488   103.067    2.5018    0.3162     1.506   171.910     9.070
 3305.0012   104.238    2.4641    0.3215     1.502   171.242     8.546
 3305.1536    96.879    2.5013    0.3500     1.275   153.298     8.359
 3305.3060    80.099    2.4185    0.3149     2.074   176.548     7.953
 3305.4584   104.146    2.5479    0.2679     1.484   200.000     8.880
 3305.6108    80.257    2.4631    0.2729     2.877   195.257     9.190
 3305.7632   107.054    2.4237    0.2830     4.163   197.814     8.658
 3305.9156   113.057    2.4217    0.2797     2.426   191.463     8.378
 3306.0680    93.671    2.4482    0.2356     1.407   200.000     8.649
 3306.2204    98.968    2.4711    0.3328     2.710   165.228     7.652
 3306.3728   107.887    2.5182    0.3130     1.775   179.314     8.544
 3306.5252    95.069    2.4696    0.2852     2.732   192.265     8.195
 3306.6776   101.034    2.4863    0.2430     2.086   200.000     8.396
 3306.8300   116.326    2.5153    0.2828     2.211   191.912     8.748
 3306.9824    87.768    2.4083    0.2810     2.691   190.897     8.723
 3307.1348    87.635    2.4331    0.2616     2.785   200.000     8.267
 3307.2872   118.726    2.4211    0.2948     2.894   189.363     8.505
 3307.4396    93.088    2.5045    0.2165     3.711   200.000     7.906
 3307.5920   110.288    2.4269    0.3071     3.422   183.003     8.207
 3307.7444    98.419    2.5044    0.3070     7.365   185.209     8.239
 3307.8968   104.256    2.4630    0.3227     3.067   163.682     8.158
 3308.0492    84.303    2.4099    0.2871     3.418   188.922     8.616
 3308.2016    86.163    2.5690    0.3378     0.842   159.064     8.286
 3308.3540    94.574    2.4360    0.2299     1.515   200.000     8.333
 3308.5064   103.027    2.4058    0.2475     2.931   200.000     8.546
 3308.6588    88.331    2.5001    0.2861     2.018   192.277     8.389
