~VERSION INFORMATION
 VERS.                 2.0    : CWLS LOG ASCII STANDARD
 WRAP.                 NO     : ONE LINE PER DEPTH STEP
~WELL INFORMATION
 WELL.                 21/2-4    : Well name
 FLD .                 Brent         : Field
 CTRY.                 UK       : Country
 STRT.M                2800.0000 : START DEPTH
 STOP.M                4000.0000   : STOP DEPTH
 STEP.M                0.1524        : STEP
 NULL.                 -999.25          : NULL VALUE
 SRVC.                 SubsurfAI        : Service company
~CURVE INFORMATION
 DEPT.M                              : Depth
 GR  .GAPI                           : Gamma Ray
 RHOB.G/C3                           : Bulk Density
 NPHI.V/V                            : Neutron Porosity
 RT  .OHMM                           : True Resistivity
 DT  .US/F                           : Sonic
 CALI.IN                             : Caliper
~PARAMETER INFORMATION
 LAT .                 61.0521   : Latitude
 LON .                 1.7234   : Longitude
 DESC.                 Brent Group — Etive/Rannoch sandstone, oil rim
~A  DEPT        GR        RHOB      NPHI      RT        DT        CALI
# ...
 2954.9908   109.114    2.5228    0.3339     1.315   163.034     8.803
 2955.1432   130.141    2.4846    0.4302     0.880   143.503     8.976
 2955.2956   136.019    2.4543    0.3210     1.699   174.315     8.801
 2955.4480   109.660    2.4097    0.3163     2.128   171.078     8.734
 2955.6004   105.533    2.5691    0.3377     1.246   166.949     9.010
 2955.7528   110.317    2.5483    0.3219     0.987   172.619     8.208
 2955.9052    96.933    2.4632    0.3535     2.501   158.345     8.339
 2956.0576   108.979    2.5277    0.3747     1.590   142.263     7.894
 2956.2100    98.831    2.4996    0.3511     2.292   160.253     8.319
 2956.3624    97.080    2.4984    0.3537     3.679   160.550     8.770
 2956.5148    93.927    2.4857    0.3193     2.808   172.942     8.288
 2956.6672   116.194    2.4109    0.3262     2.277   164.639     9.088
 2956.8196   130.641    2.4907    0.2675     1.659   200.000     8.016
 2956.9720   105.530    2.4953    0.4258     2.407   135.436     8.199
 2957.1244   107.059    2.5525    0.2755     2.811   198.852     8.325
 2957.2768    92.112    2.4559    0.3039     2.103   176.402     8.107
 2957.4292    97.546    2.6010    0.3787     1.506   147.483     8.233
 2957.5816   118.696    2.4328    0.3077     3.351   177.105     8.680
 2957.7340    98.323    2.4880    0.3260     2.620   172.433     8.608
 2957.8864    90.679    2.4645    0.3430     2.355   157.275     8.447
 2958.0388   126.781    2.5564    0.3031     3.711   193.217     7.793
 2958.1912   130.580    2.4281    0.2849     1.233   192.398     8.285
 2958.3436   116.555    2.4456    0.3664     3.353   149.872     8.348
 2958.4960   124.126    2.5073    0.2472     2.454   200.000     8.944
 2958.6484    91.676    2.4774    0.2832     3.637   199.534     8.325
 2958.8008    91.864    2.5718    0.2927     1.876   183.481     8.608
 2958.9532    90.529    2.5276    0.3408     0.981   165.746     8.493
 2959.1056   115.265    2.5198    0.3468     2.704   167.475     8.698
 2959.2580   130.068    2.4467    0.3465     1.803   164.463     8.400
 2959.4104    96.554    2.4907    0.3104     4.726   182.904     7.337
 2959.5628    79.488    2.5309    0.2815     1.908   187.664     8.900
 2959.7152    99.297    2.5614    0.3820     1.049   138.786     8.682
 2959.8676   118.114    2.5109    0.3097     1.472   169.461     8.357
 2960.0200   113.813    2.4194    0.2715     2.180   200.000     8.876
 2960.1724   132.825    2.5227    0.2891     1.687   191.191     8.068
 2960.3248    99.799    2.4856    0.3032     1.216   178.487     8.340
 2960.4772   129.306    2.4453    0.3236     3.048   169.246     8.801
 2960.6296   114.458    2.3496    0.2771     3.330   196.408     8.573
 2960.7820   118.188    2.5428    0.2901     2.141   179.789     8.985
 2960.9344   104.442    2.4207    0.2918     2.134   184.276     8.551
 2961.0868   100.712    2.4746    0.2567     1.279   200.000     9.082
 2961.2392   134.050    2.5321    0.4100     3.219   140.048     7.948
 2961.3916   116.999    2.4986    0.2888     2.387   192.609     8.423
 2961.5440   114.002    2.4620    0.2649     1.602   200.000     8.090
 2961.6964   110.954    2.4467    0.3279     4.411   166.213     8.232
 2961.8488   124.603    2.4613    0.2888     3.910   187.768     8.530
 2962.0012   113.022    2.4463    0.2850     2.682   200.000     8.043
 2962.1536   125.803    2.4648    0.2565     1.881   200.000     8.133
 2962.3060    79.501    2.4867    0.2997     0.707   184.841     8.658
 2962.4584    93.847    2.5684    0.3304     1.634   162.056     9.420
 2962.6108   115.565    2.4778    0.3038     1.348   181.892     9.693
 2962.7632   123.727    2.4176    0.3399     1.145   170.944     8.340
 2962.9156   100.005    2.4665    0.3671     1.050   146.633     8.663
 2963.0680   136.080    2.5468    0.2520     1.179   200.000     8.511
 2963.2204    93.965    2.4813    0.3462     2.270   150.411     8.736
 2963.3728   124.585    2.5102    0.3622     2.683   147.815     8.053
 2963.5252    94.882    2.4770    0.2635     2.661   200.000     8.825
 2963.6776   115.895    2.5168    0.3677     2.122   149.243     8.637
 2963.8300   103.279    2.5450    0.2801     1.493   198.746     8.698
 2963.9824    92.076    2.4598    0.2552     1.395   200.000     8.427
 2964.1348    76.591    2.4017    0.3569     1.585   157.029     8.507
 2964.2872   105.865    2.4652    0.2824     4.125   194.340     7.644
 2964.4396   130.178    2.4395    0.3417     5.876   164.948     8.282
 2964.5920   129.295    2.4749    0.3122     2.583   180.995     8.272
 2964.7444   116.988    2.4986    0.2593     2.125   200.000     8.386
 2964.8968   106.346    2.4669    0.4167     2.214   143.877     9.037
 2965.0492   118.130    2.5350    0.2677     1.986   200.000     8.595
 2965.2016   114.404    2.5277    0.2800     1.899   198.181     8.299
 2965.3540    85.867    2.4020    0.3182     2.586   167.035     8.195
 2965.5064   106.437    2.4543    0.3087     1.441   176.488     8.109
 2965.6588   119.069    2.4436    0.2628     2.980   200.000     8.334
 2965.8112   142.630    2.5603    0.3206     1.718   178.499     9.020
 2965.9636   106.989    2.4566    0.3105     3.014   184.905     8.580
 2966.1160   108.319    2.5427    0.3671     1.480   147.319     8.447
 2966.2684   103.425    2.5297    0.3080     2.235   173.436     7.720
 2966.4208   109.267    2.4973    0.2317     3.993   200.000     8.001
 2966.5732   104.094    2.5205    0.3236     2.056   167.954     7.783
 2966.7256   101.750    2.5020    0.3234     1.932   162.877     8.673
 2966.8780    81.441    2.4429    0.2777     0.680   194.291     8.317
 2967.0304    99.810    2.4923    0.3031     1.745   179.950     8.701
 2967.1828   125.894    2.5165    0.3426     2.997   155.811     8.124
 2967.3352    94.018    2.4847    0.4282     2.795   132.810     8.228
 2967.4876    98.995    2.5183    0.3716     0.832   149.501     8.396
 2967.6400    96.865    2.4806    0.2821     5.028   193.526     8.387
 2967.7924    93.345    2.4697    0.2806     2.052   197.419     7.893
 2967.9448   110.398    2.5098    0.2895     1.930   193.124     8.636
 2968.0972   108.436    2.4988    0.3491     1.328   158.906     8.724
 2968.2496    81.013    2.5316    0.2397     1.702   200.000     8.669
 2968.4020    89.316    2.4891    0.2868     3.099   194.665     8.161
 2968.5544   116.236    2.4611    0.3248     2.295   174.069     8.291
 2968.7068   131.312    2.4848    0.3782     4.881   145.696     8.152
 2968.8592   111.067    2.5153    0.3120     2.588   176.155     8.883
 2969.0116   124.696    2.4718    0.3429     1.506   150.066     8.677
 2969.1640   101.266    2.4520    0.3579     3.054   139.167     9.240
 2969.3164    94.470    2.4496    0.3734     1.822   140.357     8.488
 2969.4688   105.599    2.5021    0.3222     0.923   162.400     8.358
 2969.6212   119.496    2.5491    0.2176     1.144   200.000     9.150
 2969.7736   123.321    2.4001    0.3021     1.107   175.280     8.403
 2969.9260   103.466    2.4433    0.2799     2.801   187.097     8.868
 2970.0784   129.742    2.4260    0.2692     1.225   200.000     8.360
 2970.2308   119.481    2.5433    0.3434     0.920   158.673     8.113
 2970.3832   118.422    2.4656    0.3285     2.115   177.159     8.907
 2970.5356    98.958    2.5309    0.3715     4.322   152.807     8.524
 2970.6880   101.095    2.4866    0.2690     1.729   200.000     8.536
 2970.8404   123.391    2.4429    0.3498     2.359   162.799     8.246
 2970.9928   107.778    2.4601    0.3372     1.661   162.952     7.211
 2971.1452   135.573    2.3942    0.2772     1.712   200.000     8.467
 2971.2976    97.543    2.5252    0.3213     0.635   171.177     8.174
 2971.4500   134.780    2.4755    0.3449     2.605   168.723     8.411
 2971.6024   109.910    2.5488    0.3257     3.199   168.210     8.061
 2971.7548   133.868    2.4531    0.2704     3.533   200.000     7.928
 2971.9072   113.263    2.5058    0.3712     1.989   145.048     8.260
 2972.0596   122.945    2.5002    0.2865     0.951   192.648     8.119
