~VERSION INFORMATION
 VERS.                 2.0    : CWLS LOG ASCII STANDARD
 WRAP.                 NO     : ONE LINE PER DEPTH STEP
~WELL INFORMATION
 WELL.                 21/2-4    : Well name
 FLD .                 Brent         : Field
 CTRY.                 UK       : Country
 STRT.M                2800.0000 : START DEPTH
 STOP.M                4000.0000   : STOP DEPTH
 STEP.M                0.1524        : STEP
 NULL.                 -999.25          : NULL VALUE
 SRVC.                 SubsurfAI        : Service company
~CURVE INFORMATION
 DEPT.M                              : Depth
 GR  .GAPI                           : Gamma Ray
 RHOB.G/C3                           : Bulk Density
 NPHI.V/V                            : Neutron Porosity
 RT  .OHMM                           : True Resistivity
 DT  .US/F                           : Sonic
 CALI.IN                             : Caliper
~PARAMETER INFORMATION
 LAT .                 61.0521   : Latitude
 LON .                 1.7234   : Longitude
 DESC.                 Brent Group — Etive/Rannoch sandstone, oil rim
~A  DEPT        GR        RHOB      NPHI      RT        DT        CALI
# ...
 3351.0784    18.202    1.5512    0.5145   387.312   134.220     7.869
 3351.2308    16.260    1.5235    0.5220   780.724   133.783     8.017
 3351.3832    19.684    1.5450    0.4543   643.662   139.841     7.720
 3351.5356     8.879    1.5252    0.5729   668.158   136.973     8.557
 3351.6880    16.371    1.5257    0.6000  1057.642   141.484     8.674
 3351.8404    18.572    1.5353    0.4608   483.093   134.086     8.417
 3351.9928    19.737    1.5604    0.5092   819.958   136.436     8.567
 3352.1452    15.913    1.5921    0.6000   948.548   137.767     9.000
 3352.2976    14.729    1.5695    0.5241   655.792   136.629     8.328
 3352.4500    20.088    1.5433    0.5007   649.020   131.473     8.469
 3352.6024    21.448    1.5636    0.6000   660.210   133.211     8.449
 3352.7548    17.901    1.5424    0.6000   619.655   138.050     8.516
 3352.9072    12.711    1.5784    0.6000   580.256   136.842     8.736
 3353.0596    21.918    1.5990    0.6000   457.109   136.337     8.271
 3353.2120    17.111    1.5478    0.5052   424.591   137.964     8.608
 3353.3644    22.014    1.5540    0.6000   473.278   141.190     8.778
 3353.5168    13.099    1.5632    0.6000   709.541   141.050     9.040
 3353.6692    22.695    1.5641    0.5046   534.843   132.235     9.000
 3353.8216    16.157    1.5748    0.5022   510.960   137.676     8.677
 3353.9740    14.512    1.5408    0.6000   373.072   138.350     9.182
 3354.1264    17.575    1.5397    0.6000   217.343   133.507     8.067
 3354.2788    15.173    1.5707    0.4894   543.243   137.446     9.285
 3354.4312    15.615    1.5039    0.5925   771.516   136.982     9.053
 3354.5836    16.329    1.5410    0.5573  1374.063   133.515     8.446
 3354.7360    19.210    1.5035    0.4267  1099.503   136.046     8.824
 3354.8884    22.607    1.5838    0.6000   465.967   139.528     7.985
 3355.0408    13.656    1.5378    0.5646   448.993   135.910     8.586
 3355.1932    16.525    1.5367    0.6000   272.919   137.244     8.653
 3355.3456    15.681    1.5374    0.6000   637.326   141.207     8.338
 3355.4980    17.742    1.5000    0.6000  1263.110   137.598     8.900
 3355.6504    21.254    1.5562    0.6000   637.365   142.415     8.282
 3355.8028    18.782    1.5354    0.6000   571.291   137.564     9.364
 3355.9552    13.015    1.5331    0.5959  1444.955   135.983     8.206
 3356.1076    20.187    1.5955    0.6000   503.016   140.003     8.707
 3356.2600    12.728    1.5511    0.6000   373.160   133.866     8.335
 3356.4124    20.200    1.5663    0.5662  1381.036   138.561     7.988
 3356.5648    17.696    1.5681    0.6000  1120.557   144.539     8.286
 3356.7172    18.665    1.5624    0.5866   624.048   142.930     9.014
 3356.8696    10.102    1.5456    0.6000  1070.580   145.381     8.801
 3357.0220     8.495    1.5709    0.5345   544.732   140.981     8.654
 3357.1744    20.104    1.5130    0.4616   516.249   144.657     7.774
 3357.3268    26.526    1.5714    0.6000   542.985   142.683     8.477
 3357.4792    21.275    1.5247    0.6000   747.299   146.773     8.361
 3357.6316    17.197    1.5744    0.6000   248.348   141.280     8.605
 3357.7840    18.991    1.5000    0.5791   659.337   140.745     8.301
 3357.9364    15.583    1.5580    0.6000  1363.173   137.479     8.972
 3358.0888    19.339    1.6006    0.6000   287.337   142.674     8.067
 3358.2412    24.959    1.5466    0.6000   689.226   139.774     8.405
 3358.3936    13.523    1.5480    0.5481   343.619   143.690     7.775
 3358.5460    24.440    1.5745    0.5316   568.830   140.060     8.543
 3358.6984    15.597    1.5240    0.5542   509.486   137.046     8.654
 3358.8508     9.142    1.5600    0.6000   623.662   139.948     8.808
 3359.0032    15.241    1.5702    0.6000   881.909   140.502     8.916
 3359.1556    22.295    1.5325    0.6000   516.608   144.996     9.027
 3359.3080    19.323    1.5318    0.4758   885.175   130.474     8.431
 3359.4604    21.046    1.5826    0.6000   804.741   145.859     8.247
 3359.6128    22.596    1.5454    0.6000   689.524   124.828     8.413
 3359.7652    18.495    1.5512    0.5393   388.088   140.953     8.458
 3359.9176    15.723    1.5953    0.6000   425.546   143.425     8.055
 3360.0700    13.951    1.6144    0.6000   538.862   133.580     8.542
 3360.2224    13.093    1.5365    0.5617   404.897   137.120     8.240
 3360.3748    12.020    1.5661    0.4902   492.145   134.856     7.814
 3360.5272    16.107    1.5589    0.4928   804.745   143.859     8.970
 3360.6796     7.747    1.6056    0.4602   291.727   140.129     8.796
 3360.8320    13.798    1.5787    0.5546   821.168   139.076     8.971
 3360.9844    19.328    1.5406    0.5907  1983.338   142.663     8.381
 3361.1368    23.257    1.5589    0.5877   405.708   136.170     8.615
 3361.2892    13.650    1.5202    0.4945   532.962   136.517     8.946
 3361.4416    21.118    1.5000    0.5946   493.361   128.100     8.089
 3361.5940    12.543    1.5371    0.5716   534.630   137.721     7.956
 3361.7464    16.676    1.5053    0.6000  1409.728   145.439     8.560
 3361.8988    15.057    1.5636    0.6000   703.783   136.458     8.832
 3362.0512    17.740    1.5433    0.4850   940.939   140.762     8.098
 3362.2036    12.812    1.5509    0.6000   995.138   126.921     8.682
 3362.3560    13.730    1.6102    0.5479   427.078   132.217     9.038
 3362.5084    18.286    1.5503    0.5317   532.874   127.494     8.404
 3362.6608    24.743    1.5257    0.3805   703.472   141.997     8.858
 3362.8132    21.104    1.5303    0.5214  1688.962   146.689     7.589
 3362.9656    19.495    1.5135    0.6000   585.710   140.916     8.366
 3363.1180    18.424    1.5339    0.5387   380.028   144.267     8.687
 3363.2704    22.726    1.5267    0.4798   590.055   140.531     8.212
 3363.4228    15.560    1.5545    0.4041   646.425   143.057     8.099
 3363.5752    14.168    1.5130    0.4561   932.813   147.190     8.226
 3363.7276    22.171    1.5329    0.5265   654.490   133.460     8.390
 3363.8800    14.531    1.5634    0.5485  1078.852   136.596     8.124
 3364.0324    17.495    1.5151    0.6000   559.190   132.886     8.017
 3364.1848    25.424    1.5620    0.6000  1000.880   141.879     8.750
 3364.3372    17.340    1.5674    0.6000   354.927   139.594     8.460
 3364.4896    17.037    1.5694    0.4732   582.151   133.142     7.736
 3364.6420    12.969    1.5568    0.5246   497.397   139.058     8.356
 3364.7944    15.362    1.5221    0.5003   317.395   139.349     8.320
 3364.9468    18.369    1.6041    0.5690   802.018   138.217     8.255
 3365.0992    16.277    1.5305    0.5772  1474.893   143.242     8.643
 3365.2516    18.276    1.5770    0.5873   674.689   130.617     8.761
 3365.4040    21.927    1.5522    0.6000   818.676   149.276     9.085
 3365.5564    16.328    1.5673    0.5361   558.213   136.359     8.580
 3365.7088    15.464    1.5792    0.6000  1306.532   133.839     8.174
 3365.8612    21.511    1.5657    0.4983   824.623   138.185     8.723
 3366.0136    13.890    1.5517    0.4826   562.852   132.477     8.392
 3366.1660    16.526    1.5664    0.5255   266.888   137.733     8.370
 3366.3184    19.847    1.5805    0.6000   549.468   144.086     8.129
 3366.4708    21.932    1.5628    0.4586   288.540   139.566     8.253
 3366.6232    15.246    1.5444    0.6000   714.140   141.555     8.162
 3366.7756    14.446    1.5813    0.4861   284.351   138.315     8.909
 3366.9280    16.475    1.6542    0.4955  1032.996   135.466     8.612
 3367.0804    18.055    1.5807    0.5576   349.850   127.218     8.256
 3367.2328    19.373    1.5823    0.6000   869.768   127.936     8.462
 3367.3852    11.944    1.5758    0.6000   913.369   134.814     7.924
 3367.5376    17.206    1.5403    0.6000   373.291   139.143     8.028
 3367.6900    12.661    1.5643    0.5007   270.513   136.737     8.833
 3367.8424    13.508    1.5514    0.6000   398.552   127.133     8.314
 3367.9948    15.249    1.5292    0.4572   555.435   135.388     8.532
 3368.1472    15.336    1.5625    0.4453   432.959   134.861     8.749
