~VERSION INFORMATION
 VERS.                 2.0    : CWLS LOG ASCII STANDARD
 WRAP.                 NO     : ONE LINE PER DEPTH STEP
~WELL INFORMATION
 WELL.                 21/2-4    : Well name
 FLD .                 Brent         : Field
 CTRY.                 UK       : Country
 STRT.M                2800.0000 : START DEPTH
 STOP.M                4000.0000   : STOP DEPTH
 STEP.M                0.1524        : STEP
 NULL.                 -999.25          : NULL VALUE
 SRVC.                 SubsurfAI        : Service company
~CURVE INFORMATION
 DEPT.M                              : Depth
 GR  .GAPI                           : Gamma Ray
 RHOB.G/C3                           : Bulk Density
 NPHI.V/V                            : Neutron Porosity
 RT  .OHMM                           : True Resistivity
 DT  .US/F                           : Sonic
 CALI.IN                             : Caliper
~PARAMETER INFORMATION
 LAT .                 61.0521   : Latitude
 LON .                 1.7234   : Longitude
 DESC.                 Brent Group — Etive/Rannoch sandstone, oil rim
~A  DEPT        GR        RHOB      NPHI      RT        DT        CALI
# ...
 3437.1844    21.233    1.5012    0.4996   461.934   134.446     9.157
 3437.3368    18.728    1.5860    0.6000   267.513   139.768     7.946
 3437.4892    15.118    1.5981    0.5243   770.705   146.025     8.305
 3437.6416    21.867    1.5861    0.6000  1467.045   137.963     8.469
 3437.7940    16.656    1.5194    0.6000   594.931   133.149     8.196
 3437.9464    15.393    1.5766    0.6000  1018.881   132.323     8.480
 3438.0988    17.547    1.5000    0.4906   426.692   138.314     7.971
 3438.2512    12.418    1.6235    0.4660   533.257   136.787     8.214
 3438.4036    15.581    1.5000    0.5204   230.623   142.769     8.506
 3438.5560    17.418    1.5898    0.3459   385.847   157.222     8.570
 3438.7084    20.266    1.5328    0.6000  1432.219   138.044     8.703
 3438.8608    18.859    1.5540    0.4978   339.996   145.088     8.517
 3439.0132    12.596    1.5577    0.6000   537.798   134.998     8.007
 3439.1656    13.075    1.5275    0.6000   327.712   139.683     8.132
 3439.3180    18.680    1.5713    0.5228   387.663   131.799     8.580
 3439.4704    17.415    1.6213    0.6000   949.776   142.193     8.476
 3439.6228    19.261    1.5918    0.6000   503.060   131.803     9.311
 3439.7752    13.432    1.5144    0.4972  1070.475   136.643     8.379
 3439.9276    25.841    1.5523    0.5792   606.546   134.652     8.377
 3440.0800     7.780    1.5878    0.5133   408.228   136.876     9.032
 3440.2324    18.226    1.5461    0.5815  1109.603   140.178     7.909
 3440.3848    14.659    1.5065    0.4509   446.974   138.096     8.944
 3440.5372    13.578    1.5394    0.5503   400.170   133.374     9.175
 3440.6896    12.868    1.5483    0.6000  1192.964   130.029     8.160
 3440.8420    15.721    1.5136    0.5623   715.810   133.594     8.807
 3440.9944    10.651    1.5839    0.4632  1394.732   137.177     8.346
 3441.1468    17.779    1.5364    0.5175  1265.961   138.102     9.193
 3441.2992    24.265    1.5630    0.6000   499.536   133.985     8.707
 3441.4516    13.480    1.5100    0.5852   621.433   134.680     7.999
 3441.6040    19.512    1.5106    0.5462   590.524   136.115     8.585
 3441.7564    24.220    1.5182    0.6000   219.056   135.774     8.004
 3441.9088    24.795    1.5777    0.6000   315.082   147.485     8.219
 3442.0612    21.964    1.5518    0.4790   592.400   138.709     8.632
 3442.2136    20.219    1.5540    0.5967   917.219   139.588     8.129
 3442.3660    20.467    1.5322    0.5500   866.852   138.516     8.495
 3442.5184    21.521    1.5249    0.4520  1090.495   143.230     8.718
 3442.6708    14.930    1.5634    0.5057   547.362   134.971     8.169
 3442.8232    20.661    1.5182    0.4946   941.825   133.800     8.608
 3442.9756    11.588    1.5478    0.5209   527.406   141.176     9.315
 3443.1280    23.898    1.5414    0.5612   913.184   138.490     8.139
 3443.2804    21.874    1.5306    0.6000   563.366   141.986     8.086
 3443.4328    17.160    1.5302    0.5304   670.776   140.833     8.092
 3443.5852    15.269    1.5527    0.6000   588.218   120.347     8.225
 3443.7376    17.348    1.5671    0.4726   597.752   131.714     8.710
 3443.8900    24.553    1.5599    0.4672   621.754   132.720     8.333
 3444.0424    23.447    1.5305    0.6000  1194.727   132.783     8.328
 3444.1948    23.735    1.5288    0.5649   502.407   136.613     8.290
 3444.3472    21.051    1.5525    0.5315   895.019   130.375     8.341
 3444.4996     7.969    1.5716    0.5951   831.344   141.070     8.504
 3444.6520    16.700    1.5350    0.6000   922.519   136.543     8.393
 3444.8044    12.846    1.5429    0.6000   437.845   136.549     8.169
 3444.9568    15.712    1.6013    0.6000   762.087   132.064     8.722
 3445.1092    16.495    1.5228    0.5313   580.580   134.455     8.561
 3445.2616    15.804    1.5946    0.5382   492.800   138.006     8.469
 3445.4140    21.494    1.5000    0.5268   880.271   139.471     8.021
 3445.5664    15.995    1.5641    0.6000   875.842   139.636     8.454
 3445.7188    17.365    1.5650    0.6000   317.577   142.053     8.392
 3445.8712    18.521    1.5512    0.6000   925.049   138.905     7.626
 3446.0236    15.608    1.5395    0.6000  1098.748   133.726     8.139
 3446.1760    23.763    1.5706    0.5530  1540.709   133.191     7.702
 3446.3284    21.096    1.5070    0.5155   628.410   141.309     8.056
 3446.4808    17.873    1.5570    0.5133   415.195   136.866     7.836
 3446.6332    16.507    1.5387    0.6000   803.742   130.882     8.509
 3446.7856    15.060    1.5569    0.5898  1335.611   146.110     7.999
 3446.9380    21.183    1.5032    0.5987   332.242   132.260     8.077
 3447.0904    17.175    1.5000    0.5711   443.419   137.164     8.133
 3447.2428    28.985    1.5876    0.6000   221.997   141.884     7.537
 3447.3952    17.378    1.5413    0.5452   509.985   133.435     8.639
 3447.5476    13.769    1.5915    0.6000   242.800   137.363     8.545
 3447.7000    14.526    1.5567    0.4893  1628.657   145.502     8.767
 3447.8524    20.958    1.6359    0.5812   691.310   129.384     8.491
 3448.0048    18.663    1.5273    0.4499   322.322   123.301     8.306
 3448.1572    17.682    1.5417    0.5926  1498.300   137.578     8.637
 3448.3096    13.791    1.5762    0.4824   341.308   139.677     8.241
 3448.4620    23.712    1.5519    0.6000  1031.556   134.770     8.020
 3448.6144    22.015    1.5539    0.6000   363.867   142.844     9.432
 3448.7668    19.452    1.5965    0.6000   648.532   140.139     8.304
 3448.9192    17.181    1.5746    0.6000   949.815   143.260     8.627
 3449.0716    16.006    1.5515    0.6000  1218.507   141.526     8.491
 3449.2240    18.896    1.5164    0.6000   459.219   130.679     8.355
 3449.3764    17.131    1.5210    0.5520   350.058   140.945     8.327
 3449.5288    18.529    1.5336    0.6000   576.706   142.793     7.870
 3449.6812    22.027    1.6115    0.5973  1121.376   140.341     8.455
 3449.8336    21.499    1.5593    0.6000   314.472   126.475     9.181
 3449.9860    11.632    1.6120    0.5880   693.851   126.518     7.929
 3450.1384    21.037    1.5559    0.6000  1109.294   129.740     8.986
 3450.2908    17.482    1.5315    0.5699   613.454   141.147     8.266
 3450.4432    15.262    1.5000    0.5215   268.296   141.594     8.838
 3450.5956    15.515    1.5296    0.5625   403.669   143.306     8.413
 3450.7480    18.422    1.5462    0.6000   928.478   136.391     8.272
 3450.9004    17.720    1.5376    0.6000   654.308   134.431     8.731
 3451.0528    20.934    1.5335    0.6000   387.830   135.019     8.931
 3451.2052     9.203    1.5425    0.5702   653.628   132.426     9.330
 3451.3576    23.273    1.5750    0.4568   807.957   137.041     8.208
 3451.5100    15.783    1.5683    0.6000   321.816   126.153     8.626
 3451.6624    13.101    1.5681    0.5993   373.612   134.575     8.286
 3451.8148    15.308    1.5984    0.5957  1339.109   141.647     8.687
 3451.9672    19.727    1.5762    0.6000   704.633   133.803     8.471
 3452.1196    17.012    1.5534    0.4228   297.444   142.384     8.280
 3452.2720    21.603    1.5029    0.5535   889.418   143.477     8.360
 3452.4244    17.210    1.5674    0.6000   487.364   135.117     8.853
 3452.5768    20.935    1.5317    0.4926   494.912   137.368     8.809
 3452.7292    21.803    1.5563    0.5219   117.018   133.112     8.213
 3452.8816    14.824    1.5820    0.5235  1507.351   132.808     9.268
 3453.0340    13.855    1.5335    0.6000  2042.928   137.702     8.075
 3453.1864    14.231    1.5715    0.6000   349.390   136.014     8.206
 3453.3388    14.951    1.5262    0.5410   490.757   133.086     8.230
 3453.4912    22.144    1.5725    0.4644   763.886   139.883     8.832
 3453.6436    14.711    1.5860    0.5450   527.540   131.903     8.813
 3453.7960    23.303    1.5485    0.6000   492.727   138.435     8.141
 3453.9484    17.686    1.5561    0.5664   706.401   131.176     8.238
 3454.1008    25.617    1.5258    0.6000   777.336   131.858     8.269
 3454.2532    20.894    1.5341    0.5743   363.640   134.857     9.015
