~VERSION INFORMATION
 VERS.                 2.0    : CWLS LOG ASCII STANDARD
 WRAP.                 NO     : ONE LINE PER DEPTH STEP
~WELL INFORMATION
 WELL.                 21/2-4    : Well name
 FLD .                 Brent         : Field
 CTRY.                 UK       : Country
 STRT.M                2800.0000 : START DEPTH
 STOP.M                4000.0000   : STOP DEPTH
 STEP.M                0.1524        : STEP
 NULL.                 -999.25          : NULL VALUE
 SRVC.                 SubsurfAI        : Service company
~CURVE INFORMATION
 DEPT.M                              : Depth
 GR  .GAPI                           : Gamma Ray
 RHOB.G/C3                           : Bulk Density
 NPHI.V/V                            : Neutron Porosity
 RT  .OHMM                           : True Resistivity
 DT  .US/F                           : Sonic
 CALI.IN                             : Caliper
~PARAMETER INFORMATION
 LAT .                 61.0521   : Latitude
 LON .                 1.7234   : Longitude
 DESC.                 Brent Group — Etive/Rannoch sandstone, oil rim
~A  DEPT        GR        RHOB      NPHI      RT        DT        CALI
# ...
 3902.1568    13.204    2.6584    0.0533   277.423   200.000     7.783
 3902.3092    15.334    2.7015    0.0740   119.591   200.000     9.399
 3902.4616    17.003    2.7251    0.0810   251.544   200.000     8.285
 3902.6140    16.384    2.6983    0.0754    86.971   200.000     7.808
 3902.7664    18.021    2.6130    0.0836   194.463   200.000     7.873
 3902.9188    19.692    2.6671    0.0625   126.801   200.000     8.407
 3903.0712    20.656    2.6747    0.0866   618.660   200.000     9.041
 3903.2236    14.804    2.5246    0.0764   119.180   200.000     8.638
 3903.3760    16.047    2.6939    0.0681   140.184   200.000     8.511
 3903.5284    15.569    2.6736    0.0592   147.508   200.000     8.555
 3903.6808    15.396    2.7063    0.0576    85.094   200.000     8.990
 3903.8332    12.222    2.6957    0.0643   155.043   200.000     8.549
 3903.9856    13.163    2.7201    0.0834   240.927   200.000     8.366
 3904.1380    11.177    2.6915    0.0672   177.731   200.000     8.010
 3904.2904    17.238    2.6711    0.0703   174.557   200.000     8.693
 3904.4428    15.070    2.6530    0.0696   149.459   200.000     8.668
 3904.5952    12.697    2.7383    0.0518    98.231   200.000     8.435
 3904.7476    10.139    2.7473    0.0719   130.020   200.000     8.479
 3904.9000    14.599    2.6808    0.0813   177.320   200.000     8.924
 3905.0524     9.424    2.6227    0.0657   125.885   200.000     8.128
 3905.2048    11.040    2.6711    0.0837    98.137   200.000     8.245
 3905.3572     9.687    2.7068    0.0743   243.596   200.000     8.723
 3905.5096    14.646    2.7574    0.0799   353.648   200.000     8.524
 3905.6620    13.877    2.6103    0.0788   152.210   200.000     7.900
 3905.8144    12.695    2.6467    0.0694   129.400   200.000     8.228
 3905.9668    15.357    2.6896    0.0827   255.694   200.000     7.970
 3906.1192    11.875    2.6524    0.0671   283.778   200.000     8.507
 3906.2716    18.760    2.6986    0.0792   228.343   200.000     8.443
 3906.4240    19.735    2.6258    0.0641   165.763   200.000     9.114
 3906.5764     9.154    2.6744    0.0865   205.937   200.000     8.275
 3906.7288     8.923    2.7417    0.0789   145.250   200.000     8.827
 3906.8812    16.846    2.6694    0.0745   149.219   200.000     8.273
 3907.0336    14.968    2.6412    0.0672   153.133   200.000     8.369
 3907.1860    15.936    2.6250    0.0655    98.285   200.000     8.343
 3907.3384    13.648    2.6166    0.0371   429.746   200.000     8.422
 3907.4908    21.502    2.6604    0.0690   167.494   200.000     7.884
 3907.6432    12.955    2.5967    0.0640   213.589   200.000     8.115
 3907.7956    16.062    2.6655    0.0675   140.830   200.000     8.482
 3907.9480    11.585    2.6747    0.0780   161.124   200.000     8.470
 3908.1004    21.629    2.6576    0.0886   282.198   200.000     8.525
 3908.2528     7.977    2.7206    0.0774    77.425   200.000     8.640
 3908.4052    10.342    2.6205    0.0757    98.922   200.000     8.341
 3908.5576    15.787    2.6557    0.0602   141.909   200.000     8.965
 3908.7100     9.798    2.6717    0.0882   379.879   200.000     9.288
 3908.8624    16.774    2.5620    0.0911    84.447   200.000     8.052
 3909.0148    13.440    2.6680    0.0610   232.119   200.000     8.506
 3909.1672    11.837    2.6892    0.0797   314.471   200.000     8.523
 3909.3196     9.225    2.6946    0.0591    84.401   200.000     9.013
 3909.4720    16.119    2.6391    0.0792   141.137   200.000     8.475
 3909.6244    11.482    2.5970    0.0749   195.170   200.000     8.800
 3909.7768    18.832    2.6411    0.0858    80.614   200.000     8.602
 3909.9292    16.609    2.6874    0.0564   116.483   200.000     9.044
 3910.0816    13.359    2.5637    0.0705   212.795   200.000     7.708
 3910.2340     8.196    2.6642    0.0675   341.068   200.000     8.617
 3910.3864    18.168    2.7385    0.0668    77.361   200.000     8.737
 3910.5388    14.470    2.7030    0.0618   150.812   200.000     8.320
 3910.6912    13.259    2.6301    0.0784    83.579   200.000     7.791
 3910.8436    14.075    2.7500    0.0683   132.006   200.000     8.691
 3910.9960    10.468    2.6535    0.0731   215.062   200.000     8.633
 3911.1484    13.752    2.5783    0.0738   141.849   200.000     9.029
 3911.3008    13.346    2.6131    0.0721   272.136   200.000     8.529
 3911.4532    10.805    2.6180    0.0525   180.847   200.000     8.301
 3911.6056    13.883    2.6108    0.0615   196.209   200.000     7.556
 3911.7580    10.945    2.6145    0.0522   205.301   200.000     8.672
 3911.9104    16.162    2.6408    0.0774   137.344   200.000     7.827
 3912.0628    12.496    2.7708    0.1013   117.730   200.000     7.924
 3912.2152    14.666    2.7547    0.0671    91.100   200.000     8.256
 3912.3676    13.879    2.6691    0.0922   184.126   200.000     8.685
 3912.5200    13.696    2.6634    0.0475   253.769   200.000     8.305
 3912.6724    15.492    2.7219    0.0565   383.906   200.000     7.904
 3912.8248    12.761    2.6615    0.0631   180.699   200.000     8.420
 3912.9772    16.785    2.6044    0.0589   289.768   200.000     8.423
 3913.1296    12.311    2.6390    0.0808   207.478   200.000     8.212
 3913.2820    19.029    2.7459    0.0690   117.183   200.000     8.603
 3913.4344    16.391    2.6643    0.0742    56.138   200.000     8.812
 3913.5868    17.305    2.7330    0.0734   112.726   200.000     8.787
 3913.7392    15.870    2.6936    0.0724   184.243   200.000     8.647
 3913.8916    18.515    2.6284    0.0722    83.006   200.000     8.292
 3914.0440    18.073    2.6460    0.0623   184.425   200.000     8.640
 3914.1964    16.175    2.7915    0.0742   240.629   200.000     8.080
 3914.3488    10.688    2.6533    0.0763   167.212   200.000     8.870
 3914.5012    10.066    2.6765    0.0501   115.229   200.000     8.250
 3914.6536    12.875    2.5703    0.0798    78.020   200.000     8.782
 3914.8060    17.275    2.6723    0.0635   176.080   200.000     7.988
 3914.9584    14.635    2.7785    0.0770   198.875   200.000     8.780
 3915.1108    17.141    2.6940    0.0727   134.881   200.000     8.524
 3915.2632    17.729    2.6534    0.0737   177.518   200.000     9.237
 3915.4156    15.478    2.6545    0.0676   102.200   200.000     8.759
 3915.5680    25.296    2.5857    0.0902   146.145   200.000     9.118
 3915.7204    15.101    2.6068    0.0723    99.023   200.000     8.724
 3915.8728    10.072    2.7333    0.1037   160.553   200.000     8.145
 3916.0252    11.066    2.7138    0.0605   141.947   200.000     8.276
 3916.1776    11.954    2.6778    0.0645   203.772   200.000     7.916
 3916.3300     8.769    2.6157    0.0653   228.950   200.000     8.597
 3916.4824    18.964    2.7718    0.0711   111.444   200.000     9.616
 3916.6348    13.708    2.5687    0.0598   113.372   200.000     7.753
 3916.7872    13.301    2.6959    0.0774   138.551   200.000     8.237
 3916.9396    15.539    2.7383    0.0704   150.747   200.000     8.989
 3917.0920    20.900    2.6451    0.0767    60.448   200.000     9.275
 3917.2444    13.093    2.7664    0.0550   392.080   200.000     9.022
 3917.3968    16.633    2.7041    0.0739    80.474   200.000     7.890
 3917.5492    18.529    2.6389    0.0708   120.536   200.000     8.591
 3917.7016    12.368    2.6612    0.0694   243.351   200.000     9.251
 3917.8540    12.940    2.5984    0.0840   143.671   200.000     9.560
 3918.0064    18.283    2.6515    0.0607   214.275   200.000     8.754
 3918.1588    12.780    2.7463    0.0460   116.436   200.000     8.534
 3918.3112    14.986    2.6473    0.0648   279.416   200.000     8.779
 3918.4636    17.554    2.6033    0.0717    86.361   200.000     8.450
 3918.6160    20.510    2.7451    0.0636   132.714   200.000     8.958
 3918.7684    15.312    2.6977    0.0689   403.956   200.000     7.731
 3918.9208     7.719    2.7381    0.0743   144.212   200.000     8.163
 3919.0732    11.898    2.7090    0.0735   131.826   200.000     8.607
 3919.2256    20.723    2.6785    0.0718   103.279   200.000     7.949
