~VERSION INFORMATION
 VERS.                 2.0    : CWLS LOG ASCII STANDARD
 WRAP.                 NO     : ONE LINE PER DEPTH STEP
~WELL INFORMATION
 WELL.                 29/3-1    : Well name
 FLD .                 Forties         : Field
 CTRY.                 UK       : Country
 STRT.M                2000.0000 : START DEPTH
 STOP.M                3500.0000   : STOP DEPTH
 STEP.M                0.1524        : STEP
 NULL.                 -999.25          : NULL VALUE
 SRVC.                 SubsurfAI        : Service company
~CURVE INFORMATION
 DEPT.M                              : Depth
 GR  .GAPI                           : Gamma Ray
 RHOB.G/C3                           : Bulk Density
 NPHI.V/V                            : Neutron Porosity
 RT  .OHMM                           : True Resistivity
 DT  .US/F                           : Sonic
 CALI.IN                             : Caliper
~PARAMETER INFORMATION
 LAT .                 57.7341   : Latitude
 LON .                 0.5432   : Longitude
 DESC.                 Forties Fm — Paleocene submarine fan sandstone
~A  DEPT        GR        RHOB      NPHI      RT        DT        CALI
# ...
 2895.5024    12.175    2.0682    0.3764    19.544   146.997     8.557
 2895.6548     9.019    2.1446    0.5141     9.788   141.813     8.234
 2895.8072     4.234    2.0840    0.3986    17.833   140.675     8.591
 2895.9596    11.096    2.1155    0.3818    16.100   139.243     8.214
 2896.1120    13.559    2.1059    0.4069    10.159   132.435     8.385
 2896.2644     4.926    2.0615    0.3806    26.888   140.457     8.318
 2896.4168    15.658    2.0795    0.4151    15.819   149.716     9.308
 2896.5692     9.256    2.1627    0.3483     6.937   158.016     8.747
 2896.7216    12.374    2.1015    0.4519    28.656   136.126     8.894
 2896.8740    10.399    2.0551    0.3511    25.624   154.920     8.505
 2897.0264     5.723    2.0685    0.3590    11.875   155.808     8.638
 2897.1788     6.884    2.1454    0.3377    11.901   159.810     8.688
 2897.3312     8.532    2.1284    0.4163    26.955   147.580     9.066
 2897.4836    15.878    1.9884    0.4277    20.131   135.764     8.279
 2897.6360    12.626    2.1862    0.3445    28.904   158.934     8.477
 2897.7884    11.667    2.1510    0.4261    15.477   132.951     8.553
 2897.9408     9.828    2.0500    0.3628    19.951   153.099     9.205
 2898.0932    11.615    2.0443    0.3484    19.026   153.098     9.132
 2898.2456     7.763    2.1307    0.4270    39.344   138.478     8.551
 2898.3980     8.607    2.0389    0.3682    31.360   141.201     8.141
 2898.5504    15.402    2.1631    0.4570    13.526   137.175     8.512
 2898.7028     5.970    2.1306    0.4736    17.235   147.846     7.910
 2898.8552     5.484    2.0393    0.3248    17.445   167.654     9.116
 2899.0076    13.243    2.0673    0.4036    32.290   138.904     8.534
 2899.1600    14.255    2.1105    0.2423    26.969   200.000     9.068
 2899.3124    13.861    2.0930    0.3636    16.807   148.924     8.770
 2899.4648    13.030    2.0868    0.3924     8.132   131.795     8.605
 2899.6172    12.828    2.0971    0.3604     6.977   156.624     8.535
 2899.7696    20.803    2.2404    0.2035    50.879   200.000     8.686
 2899.9220    25.196    2.1284    0.1677   212.016   200.000     8.740
 2900.0744    25.459    2.2584    0.2134    70.747   200.000     8.762
 2900.2268    31.662    2.2933    0.2146    93.118   200.000     8.864
 2900.3792    31.100    2.2533    0.1679    57.013   200.000     8.878
 2900.5316    26.748    2.3084    0.1845    96.194   200.000     8.645
 2900.6840    25.682    2.1920    0.2426    77.469   200.000     8.358
 2900.8364    26.995    2.2168    0.1381   103.485   200.000     9.146
 2900.9888    29.268    2.2540    0.1486   135.002   200.000     8.624
 2901.1412    25.082    2.2140    0.2402   105.991   200.000     8.898
 2901.2936    29.946    2.2700    0.2469    92.574   200.000     8.082
 2901.4460    30.278    2.2053    0.1785   150.289   200.000     8.194
 2901.5984    30.931    2.2814    0.1803    55.150   200.000     8.360
 2901.7508    23.537    2.1749    0.2365   135.438   200.000     9.373
 2901.9032    24.769    2.2224    0.2153    52.711   200.000     8.482
 2902.0556    26.874    2.2371    0.2209    64.145   200.000     8.568
 2902.2080    18.363    2.3143    0.1347   136.650   200.000     8.597
 2902.3604    27.617    2.2488    0.2097    87.281   200.000     8.152
 2902.5128    25.281    2.3267    0.2357    73.712   200.000     8.460
 2902.6652    30.821    2.1834    0.2149    78.307   200.000     8.441
 2902.8176    23.493    2.2394    0.2640    37.041   200.000     8.550
 2902.9700    22.838    2.2206    0.2173    38.155   200.000     8.973
 2903.1224    22.509    2.1677    0.1955   124.588   200.000     9.353
 2903.2748    33.494    2.2485    0.2379   176.756   200.000     8.746
 2903.4272    27.223    2.2006    0.2305    84.966   200.000     8.058
 2903.5796    25.589    2.1313    0.2370    52.155   200.000     8.600
 2903.7320    25.648    2.2885    0.2024    91.648   200.000     7.701
 2903.8844    23.350    2.2603    0.1789    84.718   200.000     8.809
 2904.0368    18.883    2.2217    0.2516    78.721   200.000     8.504
 2904.1892    33.542    2.1112    0.2255   102.143   200.000     8.743
 2904.3416    31.752    2.3422    0.2352    49.878   200.000     8.724
 2904.4940    35.871    2.2447    0.2071    74.804   200.000     8.556
 2904.6464    24.680    2.2388    0.2548    52.367   200.000     8.139
 2904.7988    33.064    2.2536    0.1991    54.888   200.000     8.393
 2904.9512    28.771    2.1829    0.1939    68.173   200.000     8.258
 2905.1036    25.673    2.2067    0.1937    85.491   200.000     8.953
 2905.2560    23.027    2.1580    0.1870    59.060   200.000     8.238
 2905.4084    29.413    2.2314    0.2096    59.718   200.000     9.296
 2905.5608    22.781    2.1664    0.1859    61.168   200.000     8.879
 2905.7132    26.006    2.2130    0.2175    73.653   200.000     8.602
 2905.8656    30.525    2.2306    0.2224    96.892   200.000     8.373
 2906.0180    23.247    2.2270    0.2222    47.804   200.000     9.084
 2906.1704    33.035    2.2547    0.2487   123.615   200.000     8.495
 2906.3228    30.727    2.2115    0.2115    48.727   200.000     8.684
 2906.4752    26.209    2.2733    0.2297    91.886   200.000     8.174
 2906.6276    26.564    2.2630    0.1925   111.110   200.000     8.270
 2906.7800    25.327    2.2924    0.1886    51.005   200.000     8.178
 2906.9324    33.074    2.1811    0.1719    65.075   200.000     7.706
 2907.0848    26.084    2.2254    0.1804   139.905   200.000     8.555
 2907.2372    29.119    2.2383    0.1676    91.134   200.000     8.878
 2907.3896    24.381    2.2671    0.2496    68.547   200.000     8.906
 2907.5420    29.708    2.1882    0.1756    56.265   200.000     8.430
 2907.6944    25.544    2.2513    0.2302    27.767   200.000     8.529
 2907.8468    22.447    2.2116    0.1525   212.733   200.000     7.911
 2907.9992    22.567    2.2496    0.1806    66.706   200.000     8.597
 2908.1516    24.506    2.2139    0.2014    61.208   200.000     7.971
 2908.3040    20.240    2.1410    0.2401    82.055   200.000     8.913
 2908.4564    28.614    2.2957    0.2020    68.949   200.000     8.400
 2908.6088    29.201    2.2608    0.2880   129.582   192.105     8.676
 2908.7612    21.742    2.2593    0.2266    76.554   200.000     9.181
 2908.9136    28.270    2.2276    0.2034    44.296   200.000     8.555
 2909.0660    23.426    2.2404    0.2191   119.885   200.000     9.632
 2909.2184    21.626    2.1527    0.2440    54.668   200.000     8.823
 2909.3708    26.173    2.2139    0.2208    77.059   200.000     9.101
 2909.5232    29.169    2.1831    0.2040    71.668   200.000     9.175
 2909.6756    18.571    2.2250    0.1925   194.651   200.000     8.423
 2909.8280    24.423    2.2485    0.1685    90.456   200.000     8.649
 2909.9804    33.099    2.2445    0.2180    37.530   200.000     8.614
 2910.1328    28.465    2.2067    0.2783    43.956   192.855     7.524
 2910.2852    28.772    2.2748    0.2112    41.892   200.000     8.980
 2910.4376    23.057    2.3110    0.2366   229.999   200.000     8.153
 2910.5900    33.569    2.2396    0.2029    38.338   200.000     7.846
 2910.7424    29.768    2.2877    0.2185   375.004   200.000     9.114
 2910.8948    32.111    2.3190    0.1720   148.946   200.000     8.896
 2911.0472    35.234    2.2716    0.2424    33.104   200.000     8.443
 2911.1996    27.921    2.2819    0.1968    48.361   200.000     8.361
 2911.3520    27.734    2.1692    0.1779    66.202   200.000     7.814
 2911.5044    28.147    2.2512    0.1873    80.743   200.000     9.130
 2911.6568    24.418    2.1851    0.1886    33.063   200.000     8.285
 2911.8092    28.173    2.1859    0.2464    71.223   200.000     8.315
 2911.9616    29.889    2.2455    0.1954    53.106   200.000     8.496
 2912.1140    31.366    2.2403    0.2272    58.063   200.000     8.880
 2912.2664    23.954    2.2166    0.2528   115.907   200.000     8.065
 2912.4188    18.744    2.2568    0.2162    69.969   200.000     8.450
 2912.5712    21.439    2.2500    0.1908    85.944   200.000     8.280
