~VERSION INFORMATION
 VERS.                 2.0    : CWLS LOG ASCII STANDARD
 WRAP.                 NO     : ONE LINE PER DEPTH STEP
~WELL INFORMATION
 WELL.                 29/3-1    : Well name
 FLD .                 Forties         : Field
 CTRY.                 UK       : Country
 STRT.M                2000.0000 : START DEPTH
 STOP.M                3500.0000   : STOP DEPTH
 STEP.M                0.1524        : STEP
 NULL.                 -999.25          : NULL VALUE
 SRVC.                 SubsurfAI        : Service company
~CURVE INFORMATION
 DEPT.M                              : Depth
 GR  .GAPI                           : Gamma Ray
 RHOB.G/C3                           : Bulk Density
 NPHI.V/V                            : Neutron Porosity
 RT  .OHMM                           : True Resistivity
 DT  .US/F                           : Sonic
 CALI.IN                             : Caliper
~PARAMETER INFORMATION
 LAT .                 57.7341   : Latitude
 LON .                 0.5432   : Longitude
 DESC.                 Forties Fm — Paleocene submarine fan sandstone
~A  DEPT        GR        RHOB      NPHI      RT        DT        CALI
# ...
 3481.0232   105.596    2.4952    0.2579     2.335   200.000     8.585
 3481.1756    96.604    2.4655    0.3431     1.580   158.895     9.029
 3481.3280    90.237    2.5262    0.2469     3.104   200.000     8.932
 3481.4804   122.455    2.4881    0.2370     1.192   200.000     8.299
 3481.6328    82.011    2.4293    0.2686     2.144   198.428     7.742
 3481.7852    87.693    2.4750    0.3608     1.876   152.559     8.168
 3481.9376    92.234    2.5090    0.3186    11.878   171.835     8.085
 3482.0900   108.072    2.3951    0.1997     3.115   200.000     8.732
 3482.2424    97.993    2.3975    0.3029     2.200   176.706     9.347
 3482.3948   107.844    2.3417    0.2450     2.453   200.000     8.253
 3482.5472    93.085    2.4940    0.2449     2.388   200.000     8.441
 3482.6996   100.851    2.4864    0.3122     1.243   176.603     9.218
 3482.8520   100.875    2.4056    0.2753     2.639   200.000     9.176
 3483.0044    91.581    2.3919    0.3460     2.990   148.918     7.406
 3483.1568    83.638    2.4536    0.3273     1.528   171.802     7.832
 3483.3092    83.191    2.4890    0.3242     1.839   172.077     8.753
 3483.4616    88.466    2.4845    0.2523     3.584   200.000     8.274
 3483.6140   100.017    2.4088    0.3071     1.820   181.231     8.362
 3483.7664   101.863    2.4837    0.2774     1.435   194.919     9.032
 3483.9188    79.998    2.4721    0.2186     1.280   200.000     7.961
 3484.0712    98.762    2.3768    0.2950     2.106   183.639     8.898
 3484.2236    78.039    2.4104    0.3152     4.503   173.081     8.616
 3484.3760    88.732    2.3817    0.3343     1.167   170.606     8.763
 3484.5284   112.022    2.4473    0.2790     1.715   198.712     7.409
 3484.6808   111.462    2.4832    0.2693     1.839   196.479     8.140
 3484.8332   114.303    2.4268    0.1918     2.336   200.000     8.827
 3484.9856    86.996    2.3776    0.2997     1.331   182.329     8.503
 3485.1380   102.189    2.4979    0.2679     1.189   199.696     8.886
 3485.2904   115.333    2.3995    0.3295     2.423   163.375     8.903
 3485.4428    94.473    2.4384    0.3621     1.455   151.134     8.940
 3485.5952    93.585    2.5354    0.2648     2.709   200.000     8.397
 3485.7476    99.192    2.4862    0.2586     3.166   200.000     8.929
 3485.9000    98.953    2.4428    0.3901     1.908   140.663     8.850
 3486.0524   115.805    2.4588    0.2779     0.982   197.796     8.317
 3486.2048    90.275    2.4942    0.2976     0.756   182.703     8.983
 3486.3572   104.450    2.3983    0.2283     1.385   200.000     8.263
 3486.5096   119.137    2.3850    0.3450     2.750   156.629     7.989
 3486.6620    87.276    2.4153    0.3220     1.222   166.293     8.924
 3486.8144   105.462    2.3833    0.3180     4.763   166.984     8.804
 3486.9668   103.790    2.4437    0.3427     2.244   164.034     9.099
 3487.1192   105.101    2.4298    0.2348     1.724   200.000     8.138
 3487.2716    88.736    2.4477    0.2958     1.057   188.553     8.445
 3487.4240    92.596    2.5564    0.2721     2.933   199.083     8.176
 3487.5764    96.142    2.4885    0.2826     2.092   191.458     8.136
 3487.7288   105.222    2.4984    0.2973     1.655   180.018     8.441
 3487.8812    70.922    2.4243    0.2449     2.330   200.000     9.111
 3488.0336   107.017    2.4425    0.2916     2.180   189.530     8.959
 3488.1860    93.392    2.4214    0.2946     1.572   181.230     8.338
 3488.3384    95.557    2.4235    0.2377     1.833   200.000     8.842
 3488.4908    91.842    2.4683    0.2888     2.443   194.538     8.414
 3488.6432   114.262    2.3968    0.2545     1.723   200.000     8.589
 3488.7956    96.762    2.5004    0.2335     2.351   200.000     8.263
 3488.9480   108.998    2.5344    0.3040     1.781   176.161     9.208
 3489.1004   105.427    2.5114    0.3288     1.879   174.274     7.814
 3489.2528    96.151    2.3821    0.2833     2.377   200.000     8.623
 3489.4052    75.776    2.4880    0.4074     2.812   138.894     8.534
 3489.5576    91.967    2.4955    0.3245     1.342   170.913     7.951
 3489.7100    93.493    2.4768    0.2941     1.138   194.175     8.470
 3489.8624    89.526    2.4443    0.2681     1.060   200.000     8.217
 3490.0148   101.282    2.4379    0.2590     1.603   200.000     8.349
 3490.1672    91.923    2.4140    0.2828     2.171   198.057     7.617
 3490.3196    99.215    2.4731    0.2965     2.856   180.945     8.327
 3490.4720    92.836    2.4100    0.3316     4.246   172.706     8.418
 3490.6244    95.658    2.5131    0.2524     2.030   200.000     8.309
 3490.7768    96.098    2.5074    0.2524     5.025   200.000     7.880
 3490.9292   121.890    2.4143    0.2862     3.567   193.983     8.563
 3491.0816    93.397    2.4505    0.3288     3.047   160.611     8.162
 3491.2340   107.110    2.5008    0.2567     2.775   200.000     8.601
 3491.3864    95.051    2.5139    0.2239     1.298   200.000     8.318
 3491.5388    96.999    2.4447    0.2581     2.024   200.000     8.761
 3491.6912    96.071    2.5385    0.2600     1.094   200.000     8.283
 3491.8436   106.214    2.4542    0.2979     2.438   186.800     8.697
 3491.9960    97.797    2.4609    0.3255     1.708   177.273     8.806
 3492.1484   122.617    2.3977    0.3205     2.532   175.449     8.357
 3492.3008   112.288    2.5269    0.2861     5.249   186.798     9.803
 3492.4532   106.834    2.5227    0.3014     4.519   185.677     8.701
 3492.6056    97.565    2.4092    0.3046     0.840   175.314     8.622
 3492.7580    96.526    2.4636    0.2534     4.918   200.000     8.182
 3492.9104    96.115    2.5063    0.3678     1.583   152.279     8.561
 3493.0628   118.581    2.3644    0.3306     1.591   166.336     8.789
 3493.2152    92.824    2.3901    0.3206     2.199   161.093     8.919
 3493.3676    93.100    2.5001    0.2970     4.441   184.488     9.288
 3493.5200    77.793    2.5345    0.2904     3.350   194.761     8.243
 3493.6724    92.234    2.4795    0.3589     1.459   153.785     8.419
 3493.8248   117.894    2.4125    0.2830     2.267   197.514     8.831
 3493.9772   109.968    2.4476    0.3329     3.076   155.943     8.652
 3494.1296    92.670    2.5421    0.2747     1.672   200.000     8.122
 3494.2820   112.059    2.4135    0.2564     1.687   200.000     8.147
 3494.4344    77.944    2.4159    0.2899     1.532   196.872     8.470
 3494.5868    91.840    2.5471    0.2705     2.574   200.000     8.188
 3494.7392    92.958    2.4481    0.3680     1.142   150.271     8.888
 3494.8916   100.640    2.4626    0.2901     1.558   181.957     8.587
 3495.0440   110.980    2.5138    0.2879     1.134   193.885     8.054
 3495.1964   108.467    2.3990    0.2870     1.905   187.811     8.453
 3495.3488   102.890    2.3703    0.3061     0.796   182.837     7.521
 3495.5012   104.286    2.5188    0.2961     4.193   186.116     8.231
 3495.6536    71.383    2.3816    0.2317     1.317   200.000     8.640
 3495.8060    88.049    2.4837    0.2993     1.402   185.089     8.848
 3495.9584    93.401    2.4986    0.2068     5.534   200.000     7.582
 3496.1108   110.274    2.4347    0.3147     0.766   169.422     8.869
 3496.2632   104.526    2.5219    0.3433     1.080   145.150     8.102
 3496.4156    98.240    2.4952    0.3074     3.539   180.791     9.340
 3496.5680    74.758    2.4460    0.2323     1.300   200.000     8.008
 3496.7204   105.278    2.4980    0.2060     0.840   200.000     7.331
 3496.8728   108.735    2.5825    0.2368     1.873   200.000     9.718
 3497.0252    96.132    2.4501    0.2519     1.628   200.000     8.037
 3497.1776    99.987    2.3518    0.3266     3.001   165.556     8.730
 3497.3300    79.000    2.5368    0.3442     0.858   153.522     8.953
 3497.4824    90.187    2.4199    0.3433     2.177   156.887     8.260
 3497.6348   100.853    2.4209    0.3418     2.120   161.706     8.514
 3497.7872    95.055    2.3012    0.3256     1.631   173.058     8.487
 3497.9396    85.437    2.3975    0.2430     0.782   200.000     8.325
 3498.0920   117.710    2.4053    0.3310     2.220   159.499     8.942
