~VERSION INFORMATION
 VERS.                 2.0    : CWLS LOG ASCII STANDARD
 WRAP.                 NO     : ONE LINE PER DEPTH STEP
~WELL INFORMATION
 WELL.                 21/2-4    : Well name
 FLD .                 Brent         : Field
 CTRY.                 UK       : Country
 STRT.M                2800.0000 : START DEPTH
 STOP.M                4000.0000   : STOP DEPTH
 STEP.M                0.1524        : STEP
 NULL.                 -999.25          : NULL VALUE
 SRVC.                 SubsurfAI        : Service company
~CURVE INFORMATION
 DEPT.M                              : Depth
 GR  .GAPI                           : Gamma Ray
 RHOB.G/C3                           : Bulk Density
 NPHI.V/V                            : Neutron Porosity
 RT  .OHMM                           : True Resistivity
 DT  .US/F                           : Sonic
 CALI.IN                             : Caliper
~PARAMETER INFORMATION
 LAT .                 61.0521   : Latitude
 LON .                 1.7234   : Longitude
 DESC.                 Brent Group — Etive/Rannoch sandstone, oil rim
~A  DEPT        GR        RHOB      NPHI      RT        DT        CALI
# ...
 3282.1936    25.869    1.5649    0.5321  1764.704   135.956     9.422
 3282.3460    16.816    1.5752    0.5556   365.111   132.945     8.239
 3282.4984    14.387    1.5114    0.6000   528.375   138.463     8.916
 3282.6508    24.862    1.5342    0.5166   647.467   141.277     8.461
 3282.8032    12.063    1.5923    0.5691   257.040   147.434     8.541
 3282.9556    17.713    1.5470    0.6000  1162.080   135.957     8.489
 3283.1080    17.860    1.5000    0.5063   661.893   135.135     8.320
 3283.2604    16.816    1.5725    0.4597   459.253   142.720     8.270
 3283.4128    21.889    1.5794    0.6000  1497.281   136.260     8.470
 3283.5652    22.965    1.5423    0.5500  1429.253   135.173     9.322
 3283.7176    19.829    1.5769    0.5666  1216.318   125.464     9.117
 3283.8700    19.621    1.5427    0.6000   485.004   129.243     8.816
 3284.0224    17.731    1.5682    0.6000   567.600   141.151     9.087
 3284.1748    14.854    1.5409    0.6000   262.140   133.889     8.804
 3284.3272    19.381    1.5310    0.6000   692.753   136.680     8.278
 3284.4796    14.017    1.5709    0.6000  1502.944   143.985     8.979
 3284.6320    15.679    1.5000    0.5561   751.017   139.984     8.717
 3284.7844    18.969    1.5594    0.6000   428.681   143.064     8.467
 3284.9368    16.902    1.5517    0.5816   279.098   136.031     8.895
 3285.0892     7.891    1.5592    0.5268   846.662   139.588     8.352
 3285.2416    21.182    1.5908    0.6000   560.954   140.870     8.521
 3285.3940    24.837    1.5436    0.5608   898.330   138.962     8.953
 3285.5464    25.529    1.5406    0.5654  1166.043   136.482     8.950
 3285.6988    19.633    1.5350    0.4942  1023.793   137.265     8.218
 3285.8512    22.084    1.5476    0.5042   459.429   142.856     7.538
 3286.0036    19.566    1.5917    0.3793   439.868   148.528     8.632
 3286.1560    21.546    1.5857    0.6000   360.073   138.751     8.497
 3286.3084    19.445    1.5327    0.6000  1288.882   136.803     8.633
 3286.4608    10.833    1.5715    0.4592   356.971   123.387     8.556
 3286.6132    17.261    1.5620    0.6000   919.359   139.464     8.871
 3286.7656    19.611    1.5475    0.5188   448.964   133.973     7.753
 3286.9180    16.688    1.5219    0.4813   448.319   132.893     8.736
 3287.0704    20.922    1.5859    0.6000   407.316   133.466     8.266
 3287.2228    18.801    1.5809    0.6000  1234.531   133.332     8.503
 3287.3752    14.347    1.5854    0.6000   478.981   132.696     8.415
 3287.5276    14.324    1.5350    0.5797   677.138   138.601     8.474
 3287.6800    18.581    1.5370    0.6000   553.807   141.157     8.548
 3287.8324    19.668    1.5295    0.5348   525.201   150.081     8.699
 3287.9848    14.748    1.5950    0.6000   207.510   138.982     8.636
 3288.1372    17.542    1.5566    0.4566   587.014   141.135     8.662
 3288.2896    16.643    1.5000    0.5536   615.074   139.334     8.137
 3288.4420    20.241    1.5453    0.4873   401.498   137.448     8.667
 3288.5944    19.381    1.5743    0.6000   734.622   138.896     8.350
 3288.7468    15.891    1.5122    0.6000   358.522   141.139     9.299
 3288.8992    17.295    1.5733    0.6000   743.490   140.569     8.411
 3289.0516    17.452    1.5699    0.4571   403.567   133.037     7.628
 3289.2040    16.755    1.5355    0.6000   184.986   139.061     8.516
 3289.3564    21.677    1.5449    0.6000   558.818   143.303     8.700
 3289.5088    22.452    1.5180    0.6000   656.054   136.166     9.033
 3289.6612    18.462    1.5174    0.6000   230.903   129.981     8.618
 3289.8136    18.319    1.5822    0.6000   432.997   137.956     8.870
 3289.9660    14.781    1.5148    0.5120   812.917   138.182     8.883
 3290.1184    18.489    1.5213    0.5984   261.528   135.619     9.073
 3290.2708    18.720    1.5178    0.6000  1633.010   128.140     7.569
 3290.4232    23.982    1.5531    0.4130   586.332   127.212     8.157
 3290.5756    19.187    1.5233    0.5676   427.795   140.163     8.767
 3290.7280    20.790    1.5462    0.5134  1177.559   144.041     7.747
 3290.8804    19.602    1.5273    0.5883   446.999   128.807     7.596
 3291.0328    20.332    1.6021    0.5950   792.392   135.442     8.344
 3291.1852    19.012    1.5260    0.6000   872.973   134.197     8.261
 3291.3376    19.551    1.5549    0.6000  1283.254   140.527     8.289
 3291.4900    16.694    1.5519    0.6000   251.840   135.472     9.348
 3291.6424    17.416    1.5421    0.6000   535.040   132.777     8.414
 3291.7948    15.586    1.5655    0.4917   862.959   134.533     8.466
 3291.9472    21.085    1.5639    0.6000   968.904   134.134     7.991
 3292.0996    20.935    1.5523    0.5576   694.234   140.199     8.401
 3292.2520    13.895    1.5174    0.6000   361.498   150.388     8.520
 3292.4044    14.559    1.5514    0.6000   621.038   131.305     8.753
 3292.5568    18.807    1.5283    0.6000   380.937   136.399     8.618
 3292.7092    16.976    1.5522    0.5859   453.446   134.275     8.296
 3292.8616    18.458    1.5374    0.4468   409.388   141.273     8.079
 3293.0140    20.496    1.5428    0.4592   840.142   139.808     8.571
 3293.1664    17.255    1.5476    0.5403   447.885   137.182     8.580
 3293.3188    18.730    1.5600    0.5380   355.152   123.289     8.391
 3293.4712    17.938    1.5547    0.4806   507.137   149.195     8.624
 3293.6236    19.249    1.5807    0.6000   795.876   133.817     8.972
 3293.7760    17.585    1.5339    0.6000   811.341   141.689     8.961
 3293.9284    23.681    1.5302    0.5309   396.281   147.655     8.838
 3294.0808    18.934    1.5630    0.6000   919.788   139.276     8.829
 3294.2332    18.442    1.5741    0.5111   610.789   139.502     9.102
 3294.3856    12.276    1.5250    0.5366   295.113   149.498     7.882
 3294.5380    22.172    1.5366    0.6000   698.048   132.578     8.250
 3294.6904    11.291    1.5372    0.5572   520.798   136.388     9.190
 3294.8428    14.898    1.5456    0.6000   633.071   141.783     9.057
 3294.9952    24.009    1.5406    0.5477   773.011   138.414     8.339
 3295.1476    22.583    1.5279    0.5047  1476.384   133.282     8.356
 3295.3000    18.418    1.5456    0.4441   549.284   133.506     8.222
 3295.4524    19.152    1.5878    0.6000   584.729   141.173     8.749
 3295.6048    21.983    1.5000    0.6000   417.057   139.631     9.333
 3295.7572    14.164    1.5572    0.5993  1108.097   148.044     7.937
 3295.9096    20.604    1.5678    0.5507  1170.391   136.872     8.965
 3296.0620    14.062    1.5152    0.4621   602.798   134.741     8.854
 3296.2144    21.214    1.5611    0.6000   774.738   135.818     8.446
 3296.3668    23.069    1.6092    0.6000   381.173   141.613     9.003
 3296.5192    18.946    1.5953    0.5795   512.239   129.512     8.346
 3296.6716    15.490    1.5856    0.3907   318.851   139.591     8.563
 3296.8240    10.881    1.5232    0.5303   567.513   131.624     8.497
 3296.9764    13.866    1.5437    0.6000   544.889   129.997     7.950
 3297.1288    19.999    1.5714    0.6000   624.128   133.916     9.665
 3297.2812    15.797    1.5173    0.4980  1313.308   133.956     8.754
 3297.4336    18.852    1.5394    0.5203   388.184   132.489     8.432
 3297.5860    21.777    1.5435    0.5465   692.565   136.623     8.640
 3297.7384    16.849    1.5271    0.5066   279.397   133.791     9.272
 3297.8908    17.679    1.5909    0.6000   790.918   136.387     8.425
 3298.0432    17.685    1.5397    0.6000   308.413   142.059     9.244
 3298.1956    15.518    1.5452    0.4054   432.899   136.709     8.652
 3298.3480    13.740    1.5831    0.5126   575.471   143.187     9.344
 3298.5004    23.373    1.5991    0.5536   472.071   136.207     9.314
 3298.6528    21.284    1.5198    0.3288   367.002   166.079     8.641
 3298.8052    22.340    1.5361    0.6000   386.069   136.145     8.825
 3298.9576    17.105    1.5252    0.6000   555.746   126.084     8.488
 3299.1100    13.671    1.5627    0.5370   817.446   141.778     8.447
 3299.2624    12.174    1.5559    0.5912   732.921   126.790     8.308
