~VERSION INFORMATION
 VERS.                 2.0    : CWLS LOG ASCII STANDARD
 WRAP.                 NO     : ONE LINE PER DEPTH STEP
~WELL INFORMATION
 WELL.                 29/3-1    : Well name
 FLD .                 Forties         : Field
 CTRY.                 UK       : Country
 STRT.M                2000.0000 : START DEPTH
 STOP.M                3500.0000   : STOP DEPTH
 STEP.M                0.1524        : STEP
 NULL.                 -999.25          : NULL VALUE
 SRVC.                 SubsurfAI        : Service company
~CURVE INFORMATION
 DEPT.M                              : Depth
 GR  .GAPI                           : Gamma Ray
 RHOB.G/C3                           : Bulk Density
 NPHI.V/V                            : Neutron Porosity
 RT  .OHMM                           : True Resistivity
 DT  .US/F                           : Sonic
 CALI.IN                             : Caliper
~PARAMETER INFORMATION
 LAT .                 57.7341   : Latitude
 LON .                 0.5432   : Longitude
 DESC.                 Forties Fm — Paleocene submarine fan sandstone
~A  DEPT        GR        RHOB      NPHI      RT        DT        CALI
# ...
 2292.7604   116.135    2.4610    0.2819     0.950   194.645     8.212
 2292.9128    87.686    2.4057    0.2623     2.708   200.000     9.066
 2293.0652    83.516    2.5294    0.3670     2.457   147.816     7.838
 2293.2176   112.279    2.4345    0.2172     2.061   200.000     8.761
 2293.3700   105.018    2.5027    0.3128     1.935   184.585     8.332
 2293.5224    96.812    2.4567    0.4245     1.344   133.518     8.407
 2293.6748   107.280    2.4184    0.3240     8.577   171.992     8.635
 2293.8272   124.874    2.4503    0.3686     1.385   149.527     8.670
 2293.9796    99.259    2.5116    0.2761     1.344   200.000     9.169
 2294.1320   106.622    2.4555    0.3896     3.242   147.506     8.781
 2294.2844   100.750    2.4778    0.2694     0.814   200.000     8.712
 2294.4368    91.878    2.4282    0.3509     1.399   156.411     7.956
 2294.5892   101.486    2.4379    0.3414     3.115   164.987     8.665
 2294.7416   107.210    2.4724    0.2094     2.329   200.000     8.958
 2294.8940    96.591    2.5174    0.2878     1.637   180.796     8.591
 2295.0464   112.604    2.4215    0.3286     1.944   169.509     8.780
 2295.1988    89.921    2.4549    0.2437     2.083   200.000     9.343
 2295.3512   129.110    2.5210    0.2941     1.505   186.086     8.514
 2295.5036   116.574    2.5760    0.3045     2.294   176.001     8.816
 2295.6560   128.393    2.4285    0.2993     0.582   184.926     8.312
 2295.8084   114.369    2.4084    0.3009     5.460   185.109     8.335
 2295.9608   121.752    2.4861    0.3027     7.265   179.091     8.907
 2296.1132   129.470    2.4699    0.3697     0.908   142.047     9.057
 2296.2656    95.823    2.5311    0.3590     1.715   157.825     7.946
 2296.4180   123.629    2.5039    0.3194     4.725   175.849     8.013
 2296.5704   106.245    2.4888    0.2699     3.499   189.281     8.152
 2296.7228    99.115    2.4434    0.3864     1.698   143.168     8.309
 2296.8752    97.620    2.4249    0.3975     0.814   140.660     8.526
 2297.0276   101.806    2.5249    0.2859     2.298   193.144     8.622
 2297.1800    88.388    2.5268    0.3190     2.705   167.334     8.626
 2297.3324   114.071    2.3634    0.3701     1.220   152.897     8.651
 2297.4848   105.354    2.4858    0.2294     1.835   200.000     7.682
 2297.6372    91.769    2.4183    0.2602     1.252   200.000     8.848
 2297.7896   109.065    2.4376    0.3739     1.780   152.050     7.403
 2297.9420   114.319    2.5188    0.2984     1.799   182.286     8.381
 2298.0944    96.494    2.5064    0.2895     3.194   190.119     8.877
 2298.2468   105.190    2.5559    0.3698     5.379   144.593     9.209
 2298.3992   108.123    2.4640    0.3518     1.839   156.828     8.316
 2298.5516   102.688    2.4621    0.3129     1.075   172.043     8.935
 2298.7040   116.362    2.3191    0.3557     3.088   156.778     8.416
 2298.8564    91.491    2.4370    0.2406     4.442   200.000     8.110
 2299.0088    91.982    2.4909    0.3186     4.483   176.287     8.382
 2299.1612   110.262    2.4370    0.2270     1.610   200.000     8.691
 2299.3136   104.294    2.4167    0.3699     2.121   144.258     8.664
 2299.4660   114.650    2.5144    0.2944     1.145   189.958     8.452
 2299.6184   107.200    2.4353    0.2795     1.965   191.906     8.753
 2299.7708   107.623    2.4786    0.2532     2.994   200.000     8.510
 2299.9232    24.397    2.2720    0.2033    31.803   200.000     8.391
 2300.0756    30.148    2.2899    0.1737   128.287   200.000     8.365
 2300.2280    33.244    2.2454    0.1651    34.501   200.000     8.547
 2300.3804    31.583    2.2282    0.1242    42.781   200.000     8.618
 2300.5328    35.485    2.2336    0.1995    32.834   200.000     8.855
 2300.6852    25.464    2.2387    0.2118    32.448   200.000     9.088
 2300.8376    41.299    2.2929    0.1709    42.607   200.000     8.619
 2300.9900    32.495    2.2580    0.2192    39.024   200.000     8.913
 2301.1424    28.699    2.2916    0.1313    83.147   200.000     7.984
 2301.2948    24.566    2.2575    0.2497    23.315   200.000     8.450
 2301.4472    32.897    2.2519    0.1935    28.088   200.000     9.212
 2301.5996    31.464    2.2416    0.2055    32.873   200.000     8.554
 2301.7520    30.725    2.2887    0.2374    62.457   200.000     8.706
 2301.9044    44.374    2.1692    0.1837    23.324   200.000     8.728
 2302.0568    33.475    2.1820    0.2061    62.614   200.000     8.241
 2302.2092    33.120    2.2643    0.1779    69.281   200.000     7.889
 2302.3616    33.899    2.2957    0.1877    56.716   200.000     8.957
 2302.5140    41.076    2.1986    0.1399    70.956   200.000     8.574
 2302.6664    31.788    2.2885    0.2171    72.587   200.000     8.254
 2302.8188    30.484    2.2783    0.1511    26.261   200.000     8.293
 2302.9712    39.126    2.2074    0.1661    34.207   200.000     8.027
 2303.1236    32.005    2.2622    0.1675    27.791   200.000     8.325
 2303.2760    35.760    2.2466    0.1868    37.212   200.000     8.558
 2303.4284    36.550    2.2506    0.1740    53.319   200.000     8.571
 2303.5808    27.537    2.2257    0.2261    22.568   200.000     8.326
 2303.7332    32.554    2.2975    0.1790   118.533   200.000     8.409
 2303.8856    32.569    2.2784    0.2116    35.030   200.000     8.263
 2304.0380    23.232    2.2767    0.1629    36.596   200.000     8.717
 2304.1904    25.570    2.3345    0.1557    74.822   200.000     8.112
 2304.3428    29.046    2.2750    0.2315    78.473   200.000     8.225
 2304.4952    32.188    2.2266    0.2479    52.674   200.000     8.053
 2304.6476    34.410    2.3142    0.1701    91.101   200.000     8.273
 2304.8000    35.091    2.2474    0.1844    33.007   200.000     8.871
 2304.9524    29.143    2.2788    0.2163    38.648   200.000     7.983
 2305.1048    38.681    2.2919    0.1656    33.078   200.000     8.172
 2305.2572    26.412    2.2248    0.1908   103.163   200.000     8.409
 2305.4096    36.066    2.3167    0.2420    79.315   200.000     8.828
 2305.5620    31.769    2.2508    0.1639    96.133   200.000     8.448
 2305.7144    37.594    2.2834    0.2298    60.914   200.000     8.605
 2305.8668    35.886    2.2554    0.2205    63.174   200.000     8.564
 2306.0192    25.312    2.2606    0.1684   175.242   200.000     8.492
 2306.1716    32.462    2.2640    0.2050    46.244   200.000     8.314
 2306.3240    38.005    2.2617    0.1728    38.890   200.000     9.041
 2306.4764    24.697    2.2805    0.2135    53.264   200.000     8.416
 2306.6288    28.764    2.1946    0.2509    20.242   200.000     8.142
 2306.7812    32.694    2.2862    0.2137    18.862   200.000     8.917
 2306.9336    27.004    2.2084    0.2558    43.203   200.000     8.805
 2307.0860    34.353    2.3137    0.1995    32.389   200.000     9.109
 2307.2384    34.725    2.1702    0.1851    30.550   200.000     8.582
 2307.3908    26.901    2.2048    0.1640    22.947   200.000     8.345
 2307.5432    28.583    2.2549    0.2032    40.215   200.000     8.645
 2307.6956    23.695    2.2978    0.1747    60.438   200.000     8.678
 2307.8480    36.451    2.3247    0.2223    47.030   200.000     8.632
 2308.0004    28.065    2.2105    0.1563    40.907   200.000     8.009
 2308.1528    31.535    2.2394    0.2129    44.177   200.000     8.813
 2308.3052    25.096    2.2383    0.1823    47.608   200.000     8.646
 2308.4576    25.732    2.2241    0.1601    24.651   200.000     9.190
 2308.6100    29.450    2.3033    0.1795    78.483   200.000     8.640
 2308.7624    25.099    2.3518    0.1883    39.290   200.000     8.476
 2308.9148    30.782    2.3225    0.1878    26.332   200.000     8.438
 2309.0672    25.172    2.2430    0.1499    51.610   200.000     8.939
 2309.2196    30.148    2.2975    0.2408    65.301   200.000     7.765
 2309.3720    33.502    2.2423    0.1565    30.643   200.000     8.822
 2309.5244    33.996    2.2260    0.2118    28.925   200.000     8.635
 2309.6768    36.234    2.2124    0.1947    28.843   200.000     8.985
 2309.8292    35.417    2.2525    0.1933    81.218   200.000     8.722
