~VERSION INFORMATION
 VERS.                 2.0    : CWLS LOG ASCII STANDARD
 WRAP.                 NO     : ONE LINE PER DEPTH STEP
~WELL INFORMATION
 WELL.                 21/2-4    : Well name
 FLD .                 Brent         : Field
 CTRY.                 UK       : Country
 STRT.M                2800.0000 : START DEPTH
 STOP.M                4000.0000   : STOP DEPTH
 STEP.M                0.1524        : STEP
 NULL.                 -999.25          : NULL VALUE
 SRVC.                 SubsurfAI        : Service company
~CURVE INFORMATION
 DEPT.M                              : Depth
 GR  .GAPI                           : Gamma Ray
 RHOB.G/C3                           : Bulk Density
 NPHI.V/V                            : Neutron Porosity
 RT  .OHMM                           : True Resistivity
 DT  .US/F                           : Sonic
 CALI.IN                             : Caliper
~PARAMETER INFORMATION
 LAT .                 61.0521   : Latitude
 LON .                 1.7234   : Longitude
 DESC.                 Brent Group — Etive/Rannoch sandstone, oil rim
~A  DEPT        GR        RHOB      NPHI      RT        DT        CALI
# ...
 2886.1060   103.813    2.4410    0.3347     1.990   171.626     8.499
 2886.2584   110.713    2.4706    0.3111     1.834   183.334     8.989
 2886.4108    96.859    2.5322    0.3140     3.178   179.880     8.565
 2886.5632   126.750    2.5462    0.3307     1.283   164.271     7.953
 2886.7156   123.881    2.4816    0.2643     1.068   200.000     8.695
 2886.8680   114.949    2.5608    0.3416     2.605   160.493     9.572
 2887.0204   113.724    2.5104    0.3017     0.801   181.169     8.006
 2887.1728   104.477    2.4383    0.3331     1.715   164.474     8.876
 2887.3252    87.588    2.4223    0.2779     1.021   192.558     8.737
 2887.4776   106.421    2.5624    0.3162     1.039   165.861     7.933
 2887.6300    89.509    2.4370    0.3800     4.072   143.247     8.744
 2887.7824   102.759    2.5582    0.3534     1.323   154.317     8.792
 2887.9348   147.749    2.4993    0.3591     4.183   150.234     8.245
 2888.0872   129.445    2.4799    0.2758     3.249   191.445     8.368
 2888.2396   102.556    2.5114    0.3393     0.987   169.018     7.861
 2888.3920   119.638    2.5443    0.3939     0.720   145.945     8.711
 2888.5444   111.162    2.4439    0.3843     1.245   144.831     8.748
 2888.6968   110.005    2.5006    0.3419     1.868   157.656     8.185
 2888.8492   134.640    2.5583    0.3960     0.881   144.494     8.398
 2889.0016   133.480    2.4818    0.2878     1.859   188.756     7.686
 2889.1540   113.737    2.3114    0.2651     3.419   200.000     7.898
 2889.3064   127.691    2.5725    0.2834     3.255   194.070     8.236
 2889.4588    98.924    2.4814    0.3044     2.465   174.116     8.259
 2889.6112   107.839    2.5202    0.3505     1.502   153.321     8.877
 2889.7636   106.820    2.4955    0.3474     1.108   153.871     7.872
 2889.9160    94.055    2.4912    0.3179     1.086   173.291     9.251
 2890.0684    92.600    2.5166    0.2778     3.555   191.874     8.067
 2890.2208   108.196    2.4428    0.2689     2.925   200.000     8.389
 2890.3732   116.136    2.4117    0.3447     3.425   153.476     7.975
 2890.5256   104.463    2.4906    0.3300     1.636   171.092     8.436
 2890.6780   132.860    2.4140    0.2831     6.824   198.057     8.122
 2890.8304    97.476    2.5208    0.2511     2.836   200.000     8.292
 2890.9828   119.112    2.5096    0.2449     3.898   200.000     8.597
 2891.1352    75.809    2.5475    0.3192     1.372   173.209     8.172
 2891.2876    80.212    2.4695    0.2386     1.938   200.000     8.875
 2891.4400   121.622    2.4777    0.3399     0.605   162.496     8.173
 2891.5924   123.135    2.4134    0.3631     2.881   146.071     8.164
 2891.7448   118.994    2.4558    0.4137     2.389   134.677     8.964
 2891.8972   115.666    2.4631    0.2606     2.431   200.000     7.763
 2892.0496    86.038    2.4114    0.2933     2.680   181.063     9.338
 2892.2020    98.473    2.5438    0.2893     2.228   194.070     8.146
 2892.3544    77.968    2.5589    0.3377     2.097   155.343     7.806
 2892.5068   100.311    2.4804    0.3069     1.709   182.815     9.378
 2892.6592   110.479    2.6111    0.3662     2.094   157.405     8.731
 2892.8116    73.237    2.5219    0.3597     4.220   157.361     8.529
 2892.9640   124.098    2.4874    0.2964     0.957   186.405     9.186
 2893.1164    87.155    2.4530    0.3253     2.080   167.496     9.064
 2893.2688   115.641    2.6075    0.2980     2.570   187.576     7.417
 2893.4212   128.859    2.4820    0.3312     1.194   165.750     8.787
 2893.5736   109.729    2.4861    0.3456     1.742   164.816     9.033
 2893.7260   116.084    2.4601    0.3358     2.520   168.610     7.938
 2893.8784   118.312    2.5687    0.2813     0.630   190.269     9.330
 2894.0308   119.910    2.5356    0.2856     2.787   191.278     8.247
 2894.1832   112.939    2.4603    0.2959     1.202   179.498     9.162
 2894.3356   120.585    2.5325    0.3599     1.522   147.002     8.389
 2894.4880    82.453    2.4623    0.3033     1.406   176.260     8.929
 2894.6404    95.116    2.4035    0.3539     1.461   152.831     8.850
 2894.7928   114.022    2.4402    0.2984     0.932   187.414     8.820
 2894.9452   113.925    2.5476    0.3603     1.841   154.641     8.537
 2895.0976   127.847    2.4985    0.3623     5.538   154.764     8.366
 2895.2500   108.267    2.4863    0.3013     2.198   179.302     8.629
 2895.4024    96.276    2.5554    0.3325     1.643   168.668     8.705
 2895.5548   113.107    2.4867    0.3479     1.380   158.676     8.007
 2895.7072   113.617    2.5067    0.3764     3.622   145.365     8.898
 2895.8596   112.242    2.4480    0.2762     3.002   198.689     8.383
 2896.0120    90.476    2.4782    0.2864     2.074   191.519     8.640
 2896.1644   123.452    2.4416    0.2969     3.730   179.823     8.251
 2896.3168   106.713    2.3903    0.3029     1.443   179.845     8.614
 2896.4692   111.706    2.4933    0.3418     1.686   161.234     8.438
 2896.6216   113.681    2.4764    0.3402     1.378   172.801     8.646
 2896.7740    97.138    2.5012    0.2993     1.507   180.365     8.379
 2896.9264   118.598    2.4205    0.2974     2.493   183.391     8.452
 2897.0788    98.821    2.4867    0.3134     1.429   180.425     8.530
 2897.2312   112.411    2.4890    0.3201     1.004   178.041     8.542
 2897.3836   116.287    2.5314    0.3365     1.959   160.084     8.069
 2897.5360   108.801    2.3949    0.3022     4.015   180.889     8.659
 2897.6884   110.180    2.4730    0.2853     1.665   191.074     8.065
 2897.8408    97.762    2.4707    0.2858     4.038   191.651     8.925
 2897.9932   111.414    2.4836    0.3675     3.721   148.558     8.125
 2898.1456   114.078    2.5060    0.3155     3.233   170.153     8.049
 2898.2980    89.573    2.4404    0.3727     3.661   148.856     8.846
 2898.4504   110.627    2.4770    0.3284     2.401   168.058     7.914
 2898.6028   104.498    2.5515    0.3409     2.301   163.111     8.619
 2898.7552   122.710    2.4263    0.2859     4.358   192.167     8.226
 2898.9076   121.534    2.4835    0.3398     1.992   160.094     8.281
 2899.0600   100.910    2.4666    0.3489     2.340   151.405     8.171
 2899.2124    99.812    2.4265    0.2714     1.013   198.400     8.193
 2899.3648   109.008    2.5038    0.2359     1.834   200.000     8.850
 2899.5172   107.217    2.4976    0.3251     2.754   178.169     8.714
 2899.6696   103.113    2.5044    0.3854     1.113   140.727     8.877
 2899.8220   109.910    2.5003    0.3717     0.774   142.940     8.384
 2899.9744   107.179    2.4557    0.3316     2.702   163.265     9.089
 2900.1268   111.809    2.5335    0.3339     2.318   159.036     7.531
 2900.2792   102.805    2.5245    0.3077     1.730   179.455     8.589
 2900.4316   111.217    2.4996    0.2854     2.916   200.000     8.095
 2900.5840   125.868    2.5265    0.3145     0.756   175.332     8.469
 2900.7364   118.300    2.4821    0.3301     1.187   165.184     9.690
 2900.8888   126.684    2.5199    0.3778     2.551   142.806     8.393
 2901.0412    97.305    2.4231    0.2881     1.229   190.501     7.614
 2901.1936    95.187    2.4808    0.3113     2.062   173.856     8.098
 2901.3460   108.382    2.4926    0.3270     1.105   171.319     8.582
 2901.4984   105.325    2.4421    0.2594     2.764   200.000     9.080
 2901.6508   128.566    2.5221    0.3342     1.709   164.572     7.087
 2901.8032    88.738    2.4194    0.3517     0.729   152.969     8.240
 2901.9556   112.505    2.4738    0.3198     4.325   174.334     8.706
 2902.1080   124.173    2.4798    0.3360     2.060   166.441     9.182
 2902.2604   117.252    2.6008    0.3475     1.112   165.840     8.703
 2902.4128   108.363    2.5289    0.2867     1.836   192.039     8.058
 2902.5652   112.195    2.4741    0.3443     1.301   162.478     9.159
 2902.7176   114.255    2.4844    0.3561     5.537   152.398     7.590
 2902.8700   107.979    2.4192    0.3414     1.044   158.963     8.890
 2903.0224   117.353    2.5002    0.3339     1.374   166.228     8.048
 2903.1748   115.743    2.5335    0.2733     5.070   195.814     8.636
