~VERSION INFORMATION
 VERS.                 2.0    : CWLS LOG ASCII STANDARD
 WRAP.                 NO     : ONE LINE PER DEPTH STEP
~WELL INFORMATION
 WELL.                 29/3-1    : Well name
 FLD .                 Forties         : Field
 CTRY.                 UK       : Country
 STRT.M                2000.0000 : START DEPTH
 STOP.M                3500.0000   : STOP DEPTH
 STEP.M                0.1524        : STEP
 NULL.                 -999.25          : NULL VALUE
 SRVC.                 SubsurfAI        : Service company
~CURVE INFORMATION
 DEPT.M                              : Depth
 GR  .GAPI                           : Gamma Ray
 RHOB.G/C3                           : Bulk Density
 NPHI.V/V                            : Neutron Porosity
 RT  .OHMM                           : True Resistivity
 DT  .US/F                           : Sonic
 CALI.IN                             : Caliper
~PARAMETER INFORMATION
 LAT .                 57.7341   : Latitude
 LON .                 0.5432   : Longitude
 DESC.                 Forties Fm — Paleocene submarine fan sandstone
~A  DEPT        GR        RHOB      NPHI      RT        DT        CALI
# ...
 3377.6960    95.720    2.4172    0.3373     2.487   167.006     8.758
 3377.8484    87.790    2.4767    0.3346     1.324   164.498     8.019
 3378.0008   109.352    2.3469    0.3082     1.857   183.952     8.312
 3378.1532    89.215    2.3568    0.2432     2.052   200.000     8.429
 3378.3056    87.731    2.3382    0.3349     1.418   171.119     8.407
 3378.4580   101.381    2.4884    0.3455     2.531   157.346     8.473
 3378.6104   110.474    2.4999    0.1765     3.090   200.000     8.769
 3378.7628    87.781    2.4472    0.2870     1.325   188.803     8.523
 3378.9152    98.332    2.4414    0.2983     2.797   182.685     8.071
 3379.0676   119.179    2.4391    0.2519     1.778   200.000     8.580
 3379.2200    96.354    2.4130    0.2852     1.342   189.895     9.131
 3379.3724   106.453    2.4244    0.2800     1.858   200.000     8.487
 3379.5248   105.766    2.4000    0.2855     2.028   200.000     8.379
 3379.6772    87.791    2.4886    0.2857     2.521   192.877     8.420
 3379.8296    97.034    2.4714    0.3229     1.454   182.738     8.456
 3379.9820    87.335    2.5194    0.3378     1.237   173.359     8.287
 3380.1344   108.919    2.4747    0.2727     2.764   200.000     8.587
 3380.2868   105.645    2.5023    0.2952     1.623   177.010     7.346
 3380.4392    74.659    2.3957    0.2462     0.897   200.000     8.881
 3380.5916    95.131    2.4196    0.2814     2.085   193.958     8.813
 3380.7440    81.858    2.4028    0.2989     2.330   192.780     8.917
 3380.8964   100.778    2.5177    0.2749     1.261   195.975     8.643
 3381.0488    74.430    2.4758    0.3168     1.878   167.079     8.916
 3381.2012    95.468    2.4630    0.3137     1.349   173.882     9.014
 3381.3536    91.370    2.4075    0.3388     2.642   157.177     8.906
 3381.5060   100.667    2.3813    0.3330     0.804   168.011     8.469
 3381.6584    92.197    2.4238    0.2638     1.802   200.000     8.323
 3381.8108   112.790    2.3611    0.2852     1.996   187.682     8.118
 3381.9632    94.195    2.4932    0.2356     4.749   200.000     8.481
 3382.1156   104.358    2.4650    0.3915     3.324   141.345     9.069
 3382.2680   109.772    2.4733    0.2783     2.479   200.000     9.080
 3382.4204   110.746    2.4610    0.3013     1.525   171.916     8.980
 3382.5728   103.954    2.4175    0.3096     3.429   182.082     8.105
 3382.7252    81.347    2.4050    0.3256     1.640   175.039     9.483
 3382.8776   103.913    2.3931    0.2587     4.267   200.000     7.905
 3383.0300   119.735    2.4993    0.3591     1.896   151.492     8.788
 3383.1824    84.652    2.5371    0.3123     1.760   177.877     8.716
 3383.3348   105.432    2.4307    0.3664     2.173   147.496     8.595
 3383.4872    90.340    2.4980    0.3049     2.271   178.142     8.208
 3383.6396    89.400    2.4706    0.2974     1.103   185.024     8.530
 3383.7920    83.862    2.4469    0.3117     1.435   176.941     8.676
 3383.9444   104.945    2.4966    0.3650     1.605   149.084     8.243
 3384.0968    98.923    2.5270    0.2694     1.977   200.000     8.528
 3384.2492   118.986    2.3772    0.2753     6.954   200.000     8.604
 3384.4016    99.895    2.4632    0.2542     2.014   200.000     8.443
 3384.5540    90.133    2.4673    0.2776     2.071   192.394     7.795
 3384.7064   123.910    2.4618    0.2758     2.025   200.000     8.375
 3384.8588    73.604    2.4353    0.3011     1.624   197.263     8.575
 3385.0112   100.921    2.4159    0.3006     2.643   179.900     8.884
 3385.1636    98.204    2.5020    0.2028     1.140   200.000     8.448
 3385.3160    83.124    2.4429    0.3376     1.301   169.235     8.640
 3385.4684    98.198    2.3814    0.3604     1.530   148.008     7.945
 3385.6208    77.437    2.4635    0.2645     2.441   200.000     8.360
 3385.7732   108.165    2.4624    0.2725     2.666   199.206     8.318
 3385.9256    91.455    2.4823    0.3623     4.584   146.666     8.915
 3386.0780   115.181    2.3441    0.2751     3.219   200.000     8.154
 3386.2304    93.110    2.4535    0.2700     2.184   200.000     9.434
 3386.3828   120.803    2.4827    0.2526     0.796   200.000     7.774
 3386.5352   101.090    2.5451    0.3431     3.667   148.793     8.416
 3386.6876    99.462    2.4600    0.2667     0.574   200.000     8.426
 3386.8400    81.699    2.3973    0.3203     4.194   173.911     8.473
 3386.9924    90.256    2.3964    0.3347     2.784   151.808     8.027
 3387.1448    73.035    2.4508    0.3663     2.226   144.176     8.216
 3387.2972   116.970    2.4989    0.1976     2.591   200.000     8.826
 3387.4496    89.272    2.3151    0.2086     2.230   200.000     8.360
 3387.6020    98.962    2.4128    0.3225     1.722   175.088     8.240
 3387.7544    99.315    2.4210    0.2891     2.737   181.945     8.890
 3387.9068    93.134    2.4426    0.3052     2.073   176.324     8.404
 3388.0592   105.668    2.5135    0.2981     1.736   184.128     8.136
 3388.2116    93.049    2.4687    0.2586     2.802   200.000     8.759
 3388.3640   119.865    2.4517    0.3654     2.055   140.947     8.387
 3388.5164    99.340    2.4372    0.2161     3.577   200.000     7.360
 3388.6688   115.557    2.4465    0.3295     2.775   170.152     8.408
 3388.8212    92.846    2.4730    0.2872     2.691   193.718     8.851
 3388.9736    81.563    2.4617    0.3136     1.744   181.446     7.969
 3389.1260    91.534    2.4253    0.3274     1.656   163.370     9.146
 3389.2784    94.655    2.4907    0.3307     1.784   169.776     7.983
 3389.4308    98.690    2.5623    0.2967     2.418   187.544     9.111
 3389.5832    81.608    2.4041    0.3175     0.627   173.321     8.365
 3389.7356   107.030    2.4740    0.3008     2.414   174.030     8.820
 3389.8880    92.998    2.4573    0.2477     3.823   200.000     8.571
 3390.0404    57.618    2.4623    0.2774     4.688   200.000     8.583
 3390.1928   104.425    2.4960    0.2432     1.013   200.000     8.606
 3390.3452   112.573    2.3988    0.3015     2.234   181.474     8.690
 3390.4976    74.283    2.4217    0.3293     2.785   170.744     8.824
 3390.6500   100.257    2.4230    0.3229     4.800   177.059     8.641
 3390.8024    83.856    2.4861    0.3859     1.312   141.382     9.340
 3390.9548    97.768    2.4161    0.2829     1.163   196.903     8.004
 3391.1072   107.876    2.4645    0.2770     1.337   200.000     8.717
 3391.2596    94.943    2.5136    0.3020     1.953   182.685     8.587
 3391.4120    99.568    2.4813    0.3024     2.248   176.833     8.365
 3391.5644   105.187    2.4731    0.2836     1.657   195.722     8.419
 3391.7168   101.829    2.4769    0.3264     4.145   169.197     8.054
 3391.8692    82.736    2.4320    0.3113     1.969   168.767     8.508
 3392.0216    87.251    2.4975    0.2389     1.516   200.000     9.157
 3392.1740    91.158    2.5266    0.2287     0.754   200.000     8.856
 3392.3264    83.153    2.4811    0.3127     2.287   189.308     8.463
 3392.4788    83.358    2.4491    0.1471     1.204   200.000     9.327
 3392.6312    90.734    2.4022    0.3324     2.540   172.166     8.209
 3392.7836    96.703    2.4275    0.2701     7.348   198.648     8.839
 3392.9360    91.736    2.4067    0.3046     4.325   182.889     8.008
 3393.0884    83.689    2.4445    0.2772     2.340   194.432     8.634
 3393.2408    99.189    2.4562    0.2984     2.627   188.266     8.055
 3393.3932   106.395    2.3805    0.2834     0.902   191.071     8.874
 3393.5456   103.236    2.5181    0.2697     5.125   199.092     8.790
 3393.6980    95.539    2.4194    0.2680     0.618   200.000     8.238
 3393.8504    85.223    2.4468    0.2610     1.787   200.000     8.908
 3394.0028    81.561    2.4183    0.4005     3.268   138.258     8.144
 3394.1552   104.690    2.5138    0.3357     1.607   164.213     7.767
 3394.3076   110.215    2.4276    0.3838     2.550   147.753     8.596
 3394.4600    87.478    2.4330    0.3208     1.256   173.411     8.784
 3394.6124    88.481    2.5033    0.3478     2.255   152.592     8.158
 3394.7648    88.470    2.4322    0.2679     1.350   200.000     8.245
