~VERSION INFORMATION
 VERS.                 2.0    : CWLS LOG ASCII STANDARD
 WRAP.                 NO     : ONE LINE PER DEPTH STEP
~WELL INFORMATION
 WELL.                 29/3-1    : Well name
 FLD .                 Forties         : Field
 CTRY.                 UK       : Country
 STRT.M                2000.0000 : START DEPTH
 STOP.M                3500.0000   : STOP DEPTH
 STEP.M                0.1524        : STEP
 NULL.                 -999.25          : NULL VALUE
 SRVC.                 SubsurfAI        : Service company
~CURVE INFORMATION
 DEPT.M                              : Depth
 GR  .GAPI                           : Gamma Ray
 RHOB.G/C3                           : Bulk Density
 NPHI.V/V                            : Neutron Porosity
 RT  .OHMM                           : True Resistivity
 DT  .US/F                           : Sonic
 CALI.IN                             : Caliper
~PARAMETER INFORMATION
 LAT .                 57.7341   : Latitude
 LON .                 0.5432   : Longitude
 DESC.                 Forties Fm — Paleocene submarine fan sandstone
~A  DEPT        GR        RHOB      NPHI      RT        DT        CALI
# ...
 2688.8480     7.979    2.0646    0.2661    31.039   200.000     8.976
 2689.0004     6.707    2.1526    0.3346     4.143   161.866     8.465
 2689.1528    11.432    2.0823    0.4106    25.666   133.441     8.194
 2689.3052     3.558    2.0802    0.3633     9.551   154.065     8.366
 2689.4576    10.182    2.1414    0.4099     9.469   138.255     8.592
 2689.6100     6.487    2.0602    0.4021    11.727   141.362     8.700
 2689.7624     6.476    2.0654    0.3685    21.102   149.744     9.177
 2689.9148     9.745    2.1434    0.3749    19.827   153.223     7.908
 2690.0672    14.887    1.9973    0.3910    17.160   132.908     8.620
 2690.2196     8.904    2.1775    0.2756    21.311   200.000     7.893
 2690.3720    16.081    2.0574    0.3622    20.976   146.247     8.218
 2690.5244     8.668    2.0653    0.3255    15.469   171.246     7.523
 2690.6768     5.683    2.0562    0.4285    20.697   129.171     8.671
 2690.8292     7.453    2.0879    0.4213    11.540   137.609     8.275
 2690.9816    10.253    2.0994    0.4205    12.322   139.767     8.035
 2691.1340     6.998    2.0686    0.3626    21.910   160.814     8.388
 2691.2864    14.182    2.1255    0.3568     4.016   148.631     8.022
 2691.4388    13.752    2.0669    0.4020    14.331   141.895     8.678
 2691.5912     8.223    2.1970    0.3594    22.907   152.655     8.423
 2691.7436     8.624    2.1247    0.3503     6.698   159.897     8.101
 2691.8960     9.154    2.1511    0.3949    15.059   146.860     8.035
 2692.0484    14.323    1.9874    0.3999    13.301   133.155     8.228
 2692.2008    10.654    2.0456    0.3245    26.850   170.276     8.880
 2692.3532     5.885    2.0581    0.3414     7.959   161.353     8.112
 2692.5056    11.086    2.0510    0.3806    13.898   141.558     8.454
 2692.6580     7.008    2.0904    0.4603    19.594   137.082     8.292
 2692.8104    14.174    2.1188    0.3886    44.683   136.334     8.429
 2692.9628    13.282    2.1049    0.3559    16.456   153.851     8.442
 2693.1152    13.591    2.1399    0.5081    22.284   142.794     8.277
 2693.2676     6.397    2.0716    0.3075    11.663   185.107     8.720
 2693.4200    12.403    2.0953    0.3600    31.183   152.998     7.983
 2693.5724    11.175    2.0406    0.3653    18.726   156.969     8.648
 2693.7248     8.011    2.0746    0.4337     7.956   131.801     8.386
 2693.8772     9.521    2.1190    0.3378    15.166   157.453     9.260
 2694.0296     9.022    2.0608    0.3418    12.794   168.661     8.193
 2694.1820    10.911    2.0855    0.4178    11.388   128.979     8.512
 2694.3344     7.609    2.1798    0.5229    17.289   138.659     8.895
 2694.4868    12.098    2.1254    0.4655    16.874   138.339     8.309
 2694.6392    10.826    2.1286    0.3465    11.398   162.738     7.803
 2694.7916    11.629    2.1189    0.3841    39.009   152.775     8.921
 2694.9440     9.589    2.0945    0.4083     9.769   120.083     8.173
 2695.0964     7.916    2.1364    0.3860    16.743   144.216     8.670
 2695.2488    11.788    2.2047    0.3386    15.672   165.634     8.622
 2695.4012    11.286    2.0833    0.4036     6.693   143.589     8.274
 2695.5536    12.221    2.0834    0.4529    11.764   131.941     8.043
 2695.7060    11.293    2.0711    0.4007    14.876   139.114     8.772
 2695.8584    12.278    2.0855    0.4189    14.007   132.006     8.988
 2696.0108     5.884    2.0608    0.4877     9.537   143.774     7.987
 2696.1632    10.790    2.1522    0.3308    30.218   164.044     8.933
 2696.3156    11.947    2.0168    0.4176    30.387   140.817     7.463
 2696.4680     7.725    2.1086    0.3865    29.347   139.405     9.226
 2696.6204     7.026    2.0734    0.3523    14.613   156.926     8.585
 2696.7728    12.044    2.0749    0.4068    45.512   135.773     9.368
 2696.9252     9.837    2.1039    0.2834     7.935   192.038     9.377
 2697.0776     9.499    2.0325    0.4231    18.187   134.263     7.931
 2697.2300     9.720    2.1452    0.3716    25.911   143.101     8.192
 2697.3824     8.423    2.0804    0.3550    21.793   156.003     8.637
 2697.5348     4.438    2.0750    0.3153    17.315   172.474     9.008
 2697.6872     7.256    2.0143    0.3752    14.025   136.935     8.961
 2697.8396     5.786    2.0952    0.4146    14.024   137.861     8.956
 2697.9920    12.297    2.0846    0.4285    22.641   141.829     8.491
 2698.1444    11.528    2.0715    0.3638    50.400   156.870     8.189
 2698.2968     3.562    2.0731    0.3816    16.310   145.271     8.618
 2698.4492    11.174    2.1612    0.5028    16.974   132.527     8.009
 2698.6016     6.125    2.0807    0.3837    13.408   145.577     8.445
 2698.7540     5.043    2.1686    0.3736    14.097   144.548     8.595
 2698.9064    12.929    2.0617    0.2980     9.072   200.000     8.442
 2699.0588    15.049    2.1098    0.4093     6.064   137.190     9.020
 2699.2112    11.976    2.1149    0.3568    26.400   164.166     8.211
 2699.3636    12.969    2.1506    0.3872    17.980   142.056     7.957
 2699.5160     6.299    2.1104    0.3188     9.088   169.145     7.957
 2699.6684     8.359    2.1042    0.3918    16.311   139.966     9.288
 2699.8208     3.575    2.1066    0.2738    13.126   200.000     9.221
 2699.9732    10.702    2.1144    0.4766     9.768   132.464     8.225
 2700.1256    14.285    2.0680    0.3834    37.293   143.313     8.766
 2700.2780    10.444    2.1041    0.3471     9.191   158.910     9.214
 2700.4304     8.537    2.0804    0.3890     9.420   142.574     8.627
 2700.5828     6.836    2.1311    0.3602    16.533   150.639     8.306
 2700.7352    10.649    2.0203    0.3685    18.941   143.383     8.729
 2700.8876     7.668    2.1098    0.4490    12.191   136.156     9.036
 2701.0400     7.890    2.0504    0.4067    16.011   139.123     8.837
 2701.1924     8.045    2.1111    0.3782    30.827   143.774     8.682
 2701.3448     8.975    2.1247    0.4236    28.555   131.670     7.511
 2701.4972     5.991    2.1537    0.3140    19.271   176.428     7.791
 2701.6496     9.258    2.0148    0.3475    19.615   155.973     8.952
 2701.8020     3.771    2.0790    0.3185    13.945   178.038     8.543
 2701.9544     9.876    2.1342    0.4906    16.064   130.543     8.516
 2702.1068     8.462    2.1159    0.4052    10.977   138.645     8.377
 2702.2592    10.480    2.0767    0.3975    33.452   136.069     8.291
 2702.4116     3.004    2.1151    0.4113     6.027   136.307     8.488
 2702.5640     9.202    2.0197    0.4084    11.244   146.701     8.441
 2702.7164    10.583    2.0721    0.4656     9.556   145.557     8.695
 2702.8688    11.754    2.0802    0.3140    19.721   172.689     8.416
 2703.0212    11.149    2.1447    0.4147    10.577   141.314     8.076
 2703.1736     7.012    2.1311    0.3223    34.159   169.581     8.941
 2703.3260     9.135    2.1821    0.4016    10.109   138.908     8.806
 2703.4784     7.880    2.0879    0.4238    18.774   146.026     8.183
 2703.6308    11.219    2.1017    0.3679    31.462   152.867     9.316
 2703.7832     3.374    2.0989    0.4168     5.693   143.049     9.277
 2703.9356     8.003    2.0923    0.3199    24.773   171.463     9.030
 2704.0880     5.452    2.1644    0.3877    25.985   147.407     8.603
 2704.2404     8.644    2.0642    0.4661    11.607   138.829     9.235
 2704.3928     1.768    2.1276    0.4131    19.283   136.840     8.172
 2704.5452    10.973    2.1135    0.4166     9.554   140.367     8.336
 2704.6976     8.322    2.1331    0.4373     6.065   136.619     8.184
 2704.8500    15.938    2.1081    0.4161    10.927   145.612     8.396
 2705.0024     5.019    2.0026    0.4586    40.572   139.308     8.650
 2705.1548     8.731    2.0964    0.3319    27.273   162.995     8.803
 2705.3072     6.090    2.0553    0.3267    40.451   171.476     8.686
 2705.4596     9.506    2.0868    0.3460     8.030   162.040     9.147
 2705.6120    15.160    2.1417    0.4869    15.748   154.797     9.105
 2705.7644     7.336    2.1857    0.4464    20.289   133.983     8.852
 2705.9168     9.123    2.0865    0.4846    12.089   141.086     7.751
