~VERSION INFORMATION
 VERS.                 2.0    : CWLS LOG ASCII STANDARD
 WRAP.                 NO     : ONE LINE PER DEPTH STEP
~WELL INFORMATION
 WELL.                 21/2-4    : Well name
 FLD .                 Brent         : Field
 CTRY.                 UK       : Country
 STRT.M                2800.0000 : START DEPTH
 STOP.M                4000.0000   : STOP DEPTH
 STEP.M                0.1524        : STEP
 NULL.                 -999.25          : NULL VALUE
 SRVC.                 SubsurfAI        : Service company
~CURVE INFORMATION
 DEPT.M                              : Depth
 GR  .GAPI                           : Gamma Ray
 RHOB.G/C3                           : Bulk Density
 NPHI.V/V                            : Neutron Porosity
 RT  .OHMM                           : True Resistivity
 DT  .US/F                           : Sonic
 CALI.IN                             : Caliper
~PARAMETER INFORMATION
 LAT .                 61.0521   : Latitude
 LON .                 1.7234   : Longitude
 DESC.                 Brent Group — Etive/Rannoch sandstone, oil rim
~A  DEPT        GR        RHOB      NPHI      RT        DT        CALI
# ...
 3833.2720     5.050    2.6836    0.0656    98.711   200.000     8.672
 3833.4244    13.146    2.6462    0.0710   211.074   200.000     7.878
 3833.5768    22.528    2.6976    0.0630   102.216   200.000     8.706
 3833.7292    18.598    2.7426    0.0777   174.926   200.000     8.881
 3833.8816    12.329    2.6577    0.0777   197.578   200.000     8.824
 3834.0340    17.415    2.6818    0.0791   157.807   200.000     7.945
 3834.1864    18.908    2.5899    0.0743   121.715   200.000     8.549
 3834.3388    15.877    2.6263    0.0617   126.368   200.000     8.431
 3834.4912    14.405    2.6275    0.0826   190.787   200.000     8.158
 3834.6436    12.868    2.6945    0.0681   273.972   200.000     8.603
 3834.7960    17.592    2.6719    0.0713    88.488   200.000     8.115
 3834.9484    13.352    2.6487    0.0698    89.966   200.000     8.854
 3835.1008    15.362    2.6904    0.0920   322.661   200.000     7.922
 3835.2532    22.890    2.7175    0.0712    69.481   200.000     8.636
 3835.4056     8.427    2.6394    0.0738   116.980   200.000     8.460
 3835.5580    19.714    2.7065    0.0885   163.139   200.000     8.297
 3835.7104    20.914    2.5499    0.0656   209.275   200.000     8.652
 3835.8628    10.058    2.6613    0.0791   173.875   200.000     9.032
 3836.0152    16.526    2.7515    0.0678   126.355   200.000     8.845
 3836.1676     9.130    2.6280    0.0674    45.664   200.000     8.491
 3836.3200    11.184    2.5842    0.0644   170.732   200.000     8.909
 3836.4724    14.831    2.7353    0.0735   141.026   200.000     8.962
 3836.6248    13.092    2.5805    0.0693   246.390   200.000     8.452
 3836.7772    13.624    2.7621    0.0565   253.579   200.000     8.646
 3836.9296    17.934    2.6886    0.0821   145.594   200.000     9.400
 3837.0820    15.187    2.6741    0.0730   253.991   200.000     8.925
 3837.2344    13.031    2.8016    0.0580   196.318   200.000     8.615
 3837.3868     6.960    2.6623    0.0596   127.794   200.000     8.463
 3837.5392    14.636    2.6112    0.0753   114.276   200.000     8.097
 3837.6916    15.840    2.6047    0.0863   101.539   200.000     8.751
 3837.8440    10.842    2.7217    0.0684    88.982   200.000     9.047
 3837.9964    13.711    2.6319    0.0609   146.788   200.000     8.243
 3838.1488    16.673    2.6758    0.0492   150.130   200.000     7.904
 3838.3012    11.181    2.7688    0.0872    96.053   200.000     8.542
 3838.4536    19.652    2.6493    0.0719   254.083   200.000     8.394
 3838.6060    16.236    2.6767    0.0662   138.285   200.000     8.351
 3838.7584    11.985    2.7652    0.0799   126.196   200.000     8.469
 3838.9108    11.078    2.5711    0.0644   131.164   200.000     9.476
 3839.0632    10.133    2.7439    0.0934   119.159   200.000     8.299
 3839.2156    11.888    2.6949    0.0494   214.513   200.000     8.870
 3839.3680     6.323    2.5602    0.0778   125.376   200.000     8.113
 3839.5204    12.448    2.6350    0.0648   511.064   200.000     8.530
 3839.6728    15.251    2.6727    0.0766   209.693   200.000     8.272
 3839.8252    11.972    2.7111    0.0614   118.688   200.000     8.322
 3839.9776    17.575    2.7498    0.0630   337.906   200.000     8.173
 3840.1300    13.836    2.7060    0.0773   132.024   200.000     8.282
 3840.2824    22.461    2.7688    0.0860   191.472   200.000     9.255
 3840.4348    20.656    2.7003    0.0687   104.245   200.000     8.909
 3840.5872    15.108    2.6570    0.0640    37.642   200.000     8.709
 3840.7396    13.561    2.6850    0.0734   180.487   200.000     8.476
 3840.8920    22.111    2.6220    0.0902    90.595   200.000     8.315
 3841.0444    12.097    2.6043    0.0666   153.204   200.000     9.546
 3841.1968    10.461    2.6405    0.0654   183.064   200.000     8.441
 3841.3492    11.555    2.7606    0.0920    59.760   200.000     7.937
 3841.5016    15.864    2.6305    0.0672   111.669   200.000     8.540
 3841.6540     9.687    2.6516    0.0671    88.216   200.000     9.019
 3841.8064    17.952    2.6775    0.0569   132.742   200.000     8.831
 3841.9588    20.972    2.6742    0.0724   138.493   200.000     8.543
 3842.1112    19.965    2.6831    0.0638    95.577   200.000     8.381
 3842.2636    10.741    2.6838    0.0729   420.784   200.000     8.948
 3842.4160    11.655    2.6046    0.0696    71.442   200.000     8.357
 3842.5684     9.413    2.5656    0.0704    71.405   200.000     8.495
 3842.7208    11.223    2.5776    0.0698   456.196   200.000     8.563
 3842.8732    15.596    2.6461    0.0693    91.761   200.000     8.125
 3843.0256    10.710    2.6216    0.0746   116.800   200.000     7.884
 3843.1780    16.660    2.6550    0.0805   109.739   200.000     9.166
 3843.3304    19.949    2.5961    0.0570    66.878   200.000     9.403
 3843.4828    10.566    2.7330    0.0783   263.986   200.000     7.965
 3843.6352    24.805    2.7470    0.0558   109.465   200.000     8.715
 3843.7876     9.087    2.6408    0.0844    72.830   200.000     8.566
 3843.9400    12.518    2.6175    0.0808   259.296   200.000     8.802
 3844.0924     9.442    2.7182    0.0566    69.925   200.000     8.299
 3844.2448    10.795    2.7016    0.0704   320.429   200.000     8.259
 3844.3972    12.085    2.6450    0.0517   177.419   200.000     8.337
 3844.5496    23.157    2.7132    0.0513   199.923   200.000     8.161
 3844.7020    14.409    2.6272    0.0662   477.353   200.000     8.341
 3844.8544    26.059    2.6289    0.0660   257.339   200.000     8.798
 3845.0068    23.991    2.6947    0.0704    66.940   200.000     8.606
 3845.1592    15.814    2.6818    0.0560   171.298   200.000     8.723
 3845.3116    17.280    2.6756    0.0760   150.949   200.000     8.355
 3845.4640     7.427    2.6333    0.0676   183.506   200.000     7.956
 3845.6164    20.580    2.6461    0.0801   221.327   200.000     8.743
 3845.7688    10.792    2.6915    0.0824   236.474   200.000     8.882
 3845.9212    12.519    2.6766    0.0684    87.963   200.000     8.116
 3846.0736    14.222    2.6491    0.0676   112.380   200.000     7.930
 3846.2260    12.601    2.5567    0.0804    74.412   200.000     8.379
 3846.3784     8.666    2.7854    0.0698   184.166   200.000     8.906
 3846.5308    17.759    2.7185    0.0729   123.918   200.000     9.140
 3846.6832    20.923    2.7363    0.0789   155.324   200.000     9.140
 3846.8356    13.031    2.7166    0.0589   146.885   200.000     8.615
 3846.9880    20.666    2.7022    0.0730   196.223   200.000     9.052
 3847.1404    15.680    2.6816    0.0830   155.214   200.000     8.537
 3847.2928    17.293    2.7577    0.0715   257.885   200.000     8.103
 3847.4452    22.761    2.6750    0.0573   175.934   200.000     8.600
 3847.5976    11.767    2.7514    0.0704    65.225   200.000     8.903
 3847.7500    19.222    2.6576    0.0783   140.732   200.000     8.845
 3847.9024    18.000    2.6836    0.0861   167.435   200.000     8.549
 3848.0548    22.926    2.7155    0.0801   118.975   200.000     8.321
 3848.2072    14.497    2.6614    0.0778   101.810   200.000     8.709
 3848.3596    14.930    2.6812    0.0670   204.463   200.000     8.231
 3848.5120     5.885    2.7404    0.0633   136.324   200.000     8.245
 3848.6644    15.871    2.6422    0.0925   219.253   200.000     7.949
 3848.8168    14.547    2.6877    0.0812   127.780   200.000     8.643
 3848.9692    12.608    2.6902    0.0804   156.062   200.000     9.254
 3849.1216    14.288    2.6955    0.0690    65.021   200.000     7.883
 3849.2740    14.356    2.7068    0.0680   385.822   200.000     7.380
 3849.4264    14.434    2.6580    0.0701   122.027   200.000     8.149
 3849.5788    15.756    2.6644    0.0797    95.435   200.000     8.922
 3849.7312    15.726    2.6832    0.0802   241.116   200.000     8.221
 3849.8836    17.877    2.7001    0.0774    98.173   200.000     9.380
 3850.0360    16.434    2.6679    0.0867   146.615   200.000     8.178
 3850.1884    16.022    2.7242    0.0526   156.389   200.000     9.045
 3850.3408    19.705    2.6564    0.0827   208.565   200.000     8.544
