~VERSION INFORMATION
 VERS.                 2.0    : CWLS LOG ASCII STANDARD
 WRAP.                 NO     : ONE LINE PER DEPTH STEP
~WELL INFORMATION
 WELL.                 29/3-1    : Well name
 FLD .                 Forties         : Field
 CTRY.                 UK       : Country
 STRT.M                2000.0000 : START DEPTH
 STOP.M                3500.0000   : STOP DEPTH
 STEP.M                0.1524        : STEP
 NULL.                 -999.25          : NULL VALUE
 SRVC.                 SubsurfAI        : Service company
~CURVE INFORMATION
 DEPT.M                              : Depth
 GR  .GAPI                           : Gamma Ray
 RHOB.G/C3                           : Bulk Density
 NPHI.V/V                            : Neutron Porosity
 RT  .OHMM                           : True Resistivity
 DT  .US/F                           : Sonic
 CALI.IN                             : Caliper
~PARAMETER INFORMATION
 LAT .                 57.7341   : Latitude
 LON .                 0.5432   : Longitude
 DESC.                 Forties Fm — Paleocene submarine fan sandstone
~A  DEPT        GR        RHOB      NPHI      RT        DT        CALI
# ...
 2499.4148    23.976    2.3158    0.1399    50.954   200.000     8.239
 2499.5672    32.653    2.2241    0.1495    48.509   200.000     8.291
 2499.7196    34.832    2.3256    0.2101    49.542   200.000     8.815
 2499.8720    33.802    2.2508    0.1887    34.212   200.000     8.495
 2500.0244    31.778    2.2529    0.1657    86.419   200.000     9.619
 2500.1768    29.920    2.2359    0.2089    18.909   200.000     8.802
 2500.3292    34.492    2.2420    0.2066    65.535   200.000     8.578
 2500.4816    34.476    2.3012    0.2111   128.140   200.000     8.700
 2500.6340    40.264    2.2115    0.2240    22.494   200.000     7.863
 2500.7864    35.574    2.1917    0.1683    54.391   200.000     7.975
 2500.9388    30.023    2.3118    0.2161    16.244   200.000     8.415
 2501.0912    32.129    2.2703    0.2051   104.138   200.000     8.298
 2501.2436    35.220    2.2280    0.1997    89.672   200.000     7.940
 2501.3960    34.270    2.2295    0.1970    50.457   200.000     8.225
 2501.5484    32.827    2.2541    0.2005    28.554   200.000     8.965
 2501.7008    34.741    2.2636    0.2119   146.295   200.000     8.422
 2501.8532    29.313    2.2569    0.2231    28.834   200.000     8.770
 2502.0056    30.828    2.2749    0.2007    55.055   200.000     8.935
 2502.1580    29.156    2.2663    0.1655    55.832   200.000     8.562
 2502.3104    30.614    2.2653    0.2206    93.683   200.000     9.912
 2502.4628    27.144    2.2555    0.1855    20.112   200.000     8.436
 2502.6152    37.764    2.2833    0.2208    69.683   200.000     8.401
 2502.7676    33.185    2.2233    0.1659    44.879   200.000     8.548
 2502.9200    35.525    2.2226    0.2154    55.316   200.000     8.399
 2503.0724    34.982    2.2454    0.1542   106.169   200.000     8.722
 2503.2248    40.027    2.3279    0.1889    50.328   200.000     8.006
 2503.3772    27.277    2.2635    0.2350    55.409   200.000     8.548
 2503.5296    20.572    2.2666    0.1942    72.339   200.000     8.635
 2503.6820    28.283    2.2479    0.1824    59.339   200.000     8.017
 2503.8344    32.717    2.2580    0.2262    71.713   200.000     8.857
 2503.9868    39.748    2.1769    0.1735    53.716   200.000     8.459
 2504.1392    33.940    2.2491    0.1738    51.754   200.000     9.259
 2504.2916    40.202    2.2476    0.1941    33.510   200.000     8.634
 2504.4440    35.875    2.2733    0.1832    54.462   200.000     8.630
 2504.5964    24.043    2.2966    0.2146    77.111   200.000     8.992
 2504.7488    31.211    2.3547    0.1781    29.372   200.000     8.531
 2504.9012    31.990    2.2147    0.1973    65.706   200.000     9.219
 2505.0536    30.206    2.3132    0.2310    21.635   200.000     9.188
 2505.2060    28.782    2.1689    0.1913    23.777   200.000     8.647
 2505.3584    40.640    2.3120    0.1859    54.880   200.000     8.740
 2505.5108    40.574    2.2688    0.1918    42.950   200.000     8.436
 2505.6632    34.002    2.2958    0.2432    12.429   200.000     9.223
 2505.8156    34.504    2.2504    0.1982    39.259   200.000     8.704
 2505.9680    34.789    2.2049    0.1931   167.269   200.000     8.378
 2506.1204    31.584    2.1810    0.1920    83.108   200.000     8.102
 2506.2728    34.718    2.2845    0.1920    39.298   200.000     8.837
 2506.4252    35.932    2.2471    0.1962    49.915   200.000     8.334
 2506.5776    32.152    2.2901    0.1359    38.999   200.000     7.862
 2506.7300    29.538    2.2716    0.1862   166.553   200.000     8.220
 2506.8824    33.541    2.2043    0.1889    37.757   200.000     8.327
 2507.0348    32.376    2.2261    0.1898    50.151   200.000     8.184
 2507.1872    27.758    2.2448    0.1732    47.025   200.000     9.069
 2507.3396    34.570    2.2276    0.1996    25.267   200.000     8.180
 2507.4920    32.089    2.3416    0.1803    50.443   200.000     8.600
 2507.6444    37.884    2.2997    0.1884    45.994   200.000     9.426
 2507.7968    38.089    2.2615    0.2283    29.620   200.000     8.326
 2507.9492    33.245    2.2483    0.1625    52.492   200.000     8.976
 2508.1016    40.097    2.3019    0.2486    49.464   200.000     8.527
 2508.2540    35.118    2.2808    0.2325    29.323   200.000     8.721
 2508.4064    25.008    2.2782    0.1865    36.013   200.000     8.616
 2508.5588    34.310    2.2133    0.2199    66.207   200.000     8.672
 2508.7112    27.008    2.2387    0.1351    28.869   200.000     8.293
 2508.8636    37.291    2.3333    0.1599    35.957   200.000     8.734
 2509.0160    29.039    2.2923    0.1917    44.321   200.000     9.213
 2509.1684    40.865    2.2347    0.1894    29.850   200.000     8.727
 2509.3208    29.193    2.2371    0.2029    48.553   200.000     8.164
 2509.4732    30.288    2.2620    0.1744    61.387   200.000     8.452
 2509.6256    42.784    2.2668    0.1868    48.845   200.000     8.377
 2509.7780    30.974    2.2082    0.2080    28.220   200.000     8.829
 2509.9304    21.496    2.2059    0.1996    73.487   200.000     7.929
 2510.0828    23.992    2.2386    0.1614    54.129   200.000     8.806
 2510.2352    33.686    2.2780    0.1657    38.615   200.000     8.210
 2510.3876    39.247    2.2419    0.1796   107.323   200.000     8.200
 2510.5400    29.433    2.1952    0.2697    85.185   197.063     8.139
 2510.6924    39.518    2.2482    0.1785    59.848   200.000     8.437
 2510.8448    37.734    2.2562    0.2108    52.067   200.000     8.399
 2510.9972    36.241    2.2228    0.1879    56.925   200.000     8.609
 2511.1496    30.037    2.2811    0.2278   127.134   200.000     8.445
 2511.3020    39.276    2.2256    0.1949    36.206   200.000     9.159
 2511.4544    28.847    2.2733    0.1299    54.566   200.000     8.390
 2511.6068    27.714    2.2721    0.1573    30.953   200.000     8.604
 2511.7592    27.811    2.2475    0.2012    28.475   200.000     7.951
 2511.9116    35.818    2.2092    0.1929    57.539   200.000     8.187
 2512.0640    32.528    2.2905    0.2326   109.199   200.000     8.337
 2512.2164    39.008    2.2537    0.2348    44.088   200.000     8.949
 2512.3688    34.074    2.2242    0.2096   132.078   200.000     7.935
 2512.5212    31.101    2.2082    0.2165   106.432   200.000     8.248
 2512.6736    28.500    2.2985    0.2009    64.648   200.000     8.707
 2512.8260    31.549    2.2446    0.1673    44.635   200.000     8.314
 2512.9784    37.861    2.2977    0.1947   123.786   200.000     8.394
 2513.1308    31.954    2.2556    0.1942    46.118   200.000     8.678
 2513.2832    26.083    2.1692    0.1336    82.999   200.000     8.263
 2513.4356    27.225    2.2306    0.1833    65.031   200.000     8.631
 2513.5880    33.797    2.2614    0.2119    27.474   200.000     7.798
 2513.7404    32.916    2.3277    0.1661    27.958   200.000     8.519
 2513.8928    36.706    2.1343    0.1684    50.376   200.000     8.593
 2514.0452    30.985    2.2627    0.1778    63.581   200.000     8.579
 2514.1976    38.761    2.1592    0.2035    32.582   200.000     7.493
 2514.3500    26.867    2.2673    0.1552   127.941   200.000     8.004
 2514.5024    35.766    2.2808    0.1782    56.646   200.000     7.987
 2514.6548    38.271    2.2185    0.1896    32.821   200.000     8.377
 2514.8072    37.919    2.2566    0.1951   108.650   200.000     8.616
 2514.9596    29.036    2.2142    0.2671    29.840   200.000     8.205
 2515.1120    26.097    2.2884    0.1952    89.893   200.000     8.391
 2515.2644    39.757    2.1740    0.1905    59.456   200.000     8.363
 2515.4168    32.383    2.2646    0.1642    81.351   200.000     8.009
 2515.5692    36.850    2.2506    0.1832    33.774   200.000     8.642
 2515.7216    47.335    2.2782    0.1889    51.053   200.000     8.778
 2515.8740    29.281    2.2425    0.2110    41.860   200.000     7.917
 2516.0264    22.984    2.2789    0.2287    83.016   200.000     8.691
 2516.1788    35.741    2.2337    0.1873    55.148   200.000     8.763
 2516.3312    34.951    2.2224    0.1910   102.133   200.000     8.291
 2516.4836    38.489    2.2042    0.2228    33.279   200.000     8.275
