~VERSION INFORMATION
 VERS.                 2.0    : CWLS LOG ASCII STANDARD
 WRAP.                 NO     : ONE LINE PER DEPTH STEP
~WELL INFORMATION
 WELL.                 21/2-4    : Well name
 FLD .                 Brent         : Field
 CTRY.                 UK       : Country
 STRT.M                2800.0000 : START DEPTH
 STOP.M                4000.0000   : STOP DEPTH
 STEP.M                0.1524        : STEP
 NULL.                 -999.25          : NULL VALUE
 SRVC.                 SubsurfAI        : Service company
~CURVE INFORMATION
 DEPT.M                              : Depth
 GR  .GAPI                           : Gamma Ray
 RHOB.G/C3                           : Bulk Density
 NPHI.V/V                            : Neutron Porosity
 RT  .OHMM                           : True Resistivity
 DT  .US/F                           : Sonic
 CALI.IN                             : Caliper
~PARAMETER INFORMATION
 LAT .                 61.0521   : Latitude
 LON .                 1.7234   : Longitude
 DESC.                 Brent Group — Etive/Rannoch sandstone, oil rim
~A  DEPT        GR        RHOB      NPHI      RT        DT        CALI
# ...
 3196.0876    32.717    2.2335    0.1925    80.270   200.000     7.976
 3196.2400    35.590    2.2083    0.1882    78.603   200.000     8.655
 3196.3924    33.001    2.1981    0.1371    72.872   200.000     8.878
 3196.5448    25.410    2.2883    0.1701    79.721   200.000     8.684
 3196.6972    33.485    2.2724    0.1872    46.398   200.000     8.187
 3196.8496    28.466    2.2465    0.1913   194.704   200.000     8.397
 3197.0020    26.881    2.2449    0.2011    40.459   200.000     8.259
 3197.1544    32.557    2.2251    0.1544    58.450   200.000     8.373
 3197.3068    35.493    2.3034    0.2019    98.760   200.000     7.733
 3197.4592    30.413    2.2452    0.2122   199.154   200.000     8.557
 3197.6116    23.032    2.2987    0.2022   152.080   200.000     8.731
 3197.7640    27.111    2.1827    0.2318   106.119   200.000     9.261
 3197.9164    25.537    2.2803    0.1651    50.162   200.000     8.309
 3198.0688    22.755    2.2641    0.1632   115.054   200.000     8.959
 3198.2212    35.204    2.2900    0.1400    45.295   200.000     8.096
 3198.3736    25.065    2.3379    0.1497    65.380   200.000     8.339
 3198.5260    34.637    2.3395    0.1897   239.002   200.000     9.038
 3198.6784    34.548    2.1861    0.2552    39.077   200.000     8.341
 3198.8308    31.988    2.1709    0.1945    93.866   200.000     9.189
 3198.9832    35.584    2.2423    0.1611    42.576   200.000     7.953
 3199.1356    32.823    2.2221    0.1562    34.936   200.000     7.668
 3199.2880    28.785    2.2704    0.2052    25.949   200.000     9.072
 3199.4404    29.754    2.2913    0.2484   129.093   200.000     8.016
 3199.5928    24.378    2.2087    0.2034    41.760   200.000     9.293
 3199.7452    26.636    2.2513    0.1857    18.257   200.000     8.735
 3199.8976    26.422    2.2034    0.1812    36.074   200.000     9.211
 3200.0500    30.253    2.3128    0.1810   121.494   200.000     8.360
 3200.2024    34.017    2.2488    0.1699    92.864   200.000     8.251
 3200.3548    35.863    2.2600    0.2024   117.680   200.000     8.623
 3200.5072    29.721    2.2850    0.1765    63.764   200.000     8.319
 3200.6596    25.910    2.3095    0.1958    59.272   200.000     8.165
 3200.8120    21.422    2.2436    0.1771    60.048   200.000     8.840
 3200.9644    32.318    2.1977    0.1859    38.296   200.000     8.352
 3201.1168    30.328    2.2722    0.1879    68.109   200.000     9.016
 3201.2692    27.218    2.2417    0.2011    90.581   200.000     8.219
 3201.4216    30.269    2.3110    0.1593    50.862   200.000     9.043
 3201.5740    31.825    2.2809    0.1635    64.693   200.000     8.549
 3201.7264    32.807    2.1677    0.2177    56.356   200.000     9.349
 3201.8788    33.486    2.2304    0.1762    86.506   200.000     8.775
 3202.0312    32.112    2.2509    0.1983    43.676   200.000     8.512
 3202.1836    32.951    2.2845    0.2008    76.145   200.000     8.539
 3202.3360    20.080    2.1881    0.2056    50.093   200.000     8.401
 3202.4884    37.514    2.2452    0.1429    19.445   200.000     8.682
 3202.6408    37.062    2.3058    0.1755    49.133   200.000     8.239
 3202.7932    33.869    2.3010    0.2565   175.554   200.000     7.727
 3202.9456    28.375    2.1758    0.2109    39.627   200.000     8.205
 3203.0980    32.459    2.2702    0.1951    34.018   200.000     8.851
 3203.2504    32.780    2.3123    0.2282    63.593   200.000     8.456
 3203.4028    24.750    2.2572    0.1854    37.552   200.000     8.699
 3203.5552    29.695    2.3029    0.1340    70.808   200.000     8.873
 3203.7076    27.992    2.2428    0.2163    24.498   200.000     7.828
 3203.8600    24.926    2.1829    0.1848   140.571   200.000     8.469
 3204.0124    32.697    2.2005    0.1608    60.571   200.000     8.637
 3204.1648    30.597    2.2214    0.1960    40.148   200.000     8.658
 3204.3172    30.704    2.1823    0.1318    78.394   200.000     8.530
 3204.4696    33.257    2.2579    0.2014    34.771   200.000     8.880
 3204.6220    27.378    2.2537    0.1508    73.280   200.000     8.248
 3204.7744    31.449    2.2505    0.1794    69.216   200.000     8.701
 3204.9268    33.071    2.2180    0.1341    60.469   200.000     8.817
 3205.0792    35.301    2.2425    0.1450    48.158   200.000     8.785
 3205.2316    25.302    2.2185    0.1747    48.617   200.000     7.981
 3205.3840    31.828    2.1974    0.1838    54.750   200.000     8.461
 3205.5364    27.602    2.2597    0.1985    51.622   200.000     8.939
 3205.6888    23.245    2.2347    0.1523    70.743   200.000     8.592
 3205.8412    24.153    2.2040    0.1745    94.821   200.000     8.275
 3205.9936    34.409    2.2972    0.2188    56.760   200.000     8.858
 3206.1460    41.873    2.3108    0.2050    58.832   200.000     7.762
 3206.2984    32.941    2.2617    0.1971   101.865   200.000     8.990
 3206.4508    28.350    2.2614    0.2024   129.540   200.000     7.961
 3206.6032    34.551    2.2659    0.1791    53.840   200.000     8.409
 3206.7556    35.870    2.2887    0.1818    60.028   200.000     8.584
 3206.9080    27.078    2.2642    0.1540    67.107   200.000     8.480
 3207.0604    29.635    2.2003    0.2116    85.850   200.000     8.749
 3207.2128    38.295    2.1837    0.1721    36.082   200.000     8.381
 3207.3652    33.634    2.2596    0.2040    94.347   200.000     8.296
 3207.5176    31.993    2.2856    0.1787   144.913   200.000     8.384
 3207.6700    18.061    2.1512    0.2070    53.485   200.000     8.541
 3207.8224    26.424    2.2130    0.1626    31.519   200.000     9.032
 3207.9748    28.106    2.2407    0.1879   117.835   200.000     8.435
 3208.1272    24.737    2.3103    0.1538    74.641   200.000     8.881
 3208.2796    27.378    2.2027    0.1792   167.726   200.000     8.190
 3208.4320    29.549    2.2559    0.1824   130.452   200.000     8.529
 3208.5844    31.737    2.2340    0.1378    93.787   200.000     8.694
 3208.7368    35.327    2.3019    0.1709    63.920   200.000     8.148
 3208.8892    27.719    2.2235    0.1941    95.205   200.000     8.440
 3209.0416    28.929    2.3387    0.1984   164.347   200.000     8.521
 3209.1940    32.800    2.2676    0.1983    88.165   200.000     7.887
 3209.3464    27.563    2.2974    0.1829    55.474   200.000     8.873
 3209.4988    36.181    2.2908    0.1825    53.672   200.000     8.612
 3209.6512    22.461    2.2331    0.1619    32.429   200.000     8.261
 3209.8036    30.788    2.2918    0.1731   124.688   200.000     9.134
 3209.9560    31.985    2.3199    0.1911    44.774   200.000     8.288
 3210.1084    36.222    2.2720    0.1620    46.313   200.000     8.705
 3210.2608    30.908    2.3052    0.1796   131.586   200.000     8.771
 3210.4132    25.150    2.2370    0.1728    70.893   200.000     9.186
 3210.5656    29.566    2.2401    0.1762   142.682   200.000     8.685
 3210.7180    31.527    2.2123    0.1638    67.259   200.000     8.694
 3210.8704    43.796    2.1933    0.1570    92.543   200.000     8.443
 3211.0228    32.925    2.2704    0.1720    36.346   200.000     7.948
 3211.1752    24.594    2.2406    0.1654   110.114   200.000     8.347
 3211.3276    30.751    2.2413    0.1211   160.087   200.000     8.523
 3211.4800    28.415    2.3217    0.1696    28.463   200.000     9.298
 3211.6324    28.370    2.2844    0.1708    34.601   200.000     8.281
 3211.7848    35.654    2.1473    0.1848   101.904   200.000     8.315
 3211.9372    27.367    2.3560    0.2063    30.384   200.000     8.121
 3212.0896    31.083    2.2779    0.1671    76.389   200.000     8.520
 3212.2420    25.672    2.2606    0.1881    94.250   200.000     7.896
 3212.3944    31.465    2.2258    0.1960    78.833   200.000     8.586
 3212.5468    41.042    2.1373    0.1618    73.266   200.000     7.945
 3212.6992    28.558    2.2211    0.1620   100.078   200.000     8.051
 3212.8516    32.459    2.2278    0.1941   102.088   200.000     8.985
 3213.0040    35.127    2.2390    0.1982    82.018   200.000     8.463
 3213.1564    29.531    2.2314    0.1490    37.511   200.000     8.555
