~VERSION INFORMATION
 VERS.                 2.0    : CWLS LOG ASCII STANDARD
 WRAP.                 NO     : ONE LINE PER DEPTH STEP
~WELL INFORMATION
 WELL.                 21/2-4    : Well name
 FLD .                 Brent         : Field
 CTRY.                 UK       : Country
 STRT.M                2800.0000 : START DEPTH
 STOP.M                4000.0000   : STOP DEPTH
 STEP.M                0.1524        : STEP
 NULL.                 -999.25          : NULL VALUE
 SRVC.                 SubsurfAI        : Service company
~CURVE INFORMATION
 DEPT.M                              : Depth
 GR  .GAPI                           : Gamma Ray
 RHOB.G/C3                           : Bulk Density
 NPHI.V/V                            : Neutron Porosity
 RT  .OHMM                           : True Resistivity
 DT  .US/F                           : Sonic
 CALI.IN                             : Caliper
~PARAMETER INFORMATION
 LAT .                 61.0521   : Latitude
 LON .                 1.7234   : Longitude
 DESC.                 Brent Group — Etive/Rannoch sandstone, oil rim
~A  DEPT        GR        RHOB      NPHI      RT        DT        CALI
# ...
 3109.9816    42.254    2.1883    0.1590    97.850   200.000     8.786
 3110.1340    37.362    2.1633    0.1478    67.837   200.000     8.673
 3110.2864    29.689    2.2739    0.2317    77.262   200.000     8.140
 3110.4388    23.407    2.3404    0.1546    69.124   200.000     8.981
 3110.5912    25.250    2.2243    0.1517   102.227   200.000     8.424
 3110.7436    30.145    2.2990    0.2204    87.759   200.000     8.406
 3110.8960    25.562    2.2814    0.1630    49.540   200.000     9.026
 3111.0484    35.802    2.2447    0.1306    99.348   200.000     8.666
 3111.2008    30.376    2.2509    0.1458   173.682   200.000     7.860
 3111.3532    22.092    2.2024    0.2215    61.115   200.000     8.730
 3111.5056    30.294    2.2578    0.1888    60.849   200.000     8.648
 3111.6580    28.557    2.1761    0.1905    54.407   200.000     8.410
 3111.8104    28.413    2.2342    0.1479   107.885   200.000     8.254
 3111.9628    34.660    2.2448    0.1571    64.053   200.000     8.441
 3112.1152    25.327    2.3319    0.1917    95.396   200.000     8.917
 3112.2676    30.592    2.2584    0.2372    88.747   200.000     8.698
 3112.4200    24.695    2.2555    0.2055    48.718   200.000     8.811
 3112.5724    32.942    2.2178    0.1602    64.419   200.000     8.241
 3112.7248    25.324    2.2523    0.1195    92.248   200.000     8.231
 3112.8772    24.660    2.2374    0.2104    44.344   200.000     8.484
 3113.0296    26.950    2.3280    0.1999    84.731   200.000     8.761
 3113.1820    32.859    2.2871    0.1810    58.067   200.000     8.165
 3113.3344    24.315    2.2364    0.1750    83.435   200.000     8.398
 3113.4868    34.734    2.2066    0.1184    59.656   200.000     8.758
 3113.6392    27.981    2.2086    0.2321    53.353   200.000     8.854
 3113.7916    31.288    2.2188    0.1725   190.227   200.000     8.687
 3113.9440    34.989    2.2412    0.1919   168.634   200.000     8.467
 3114.0964    35.650    2.1544    0.1488   194.339   200.000     8.881
 3114.2488    26.910    2.2459    0.1895    42.682   200.000     7.936
 3114.4012    27.742    2.2246    0.1297    31.189   200.000     8.191
 3114.5536    28.587    2.3024    0.1254    47.936   200.000     8.732
 3114.7060    32.829    2.2687    0.1569    20.954   200.000     8.622
 3114.8584    29.798    2.2457    0.1701    86.259   200.000     8.294
 3115.0108    27.820    2.2417    0.1752    46.559   200.000     8.436
 3115.1632    33.945    2.2733    0.1717    28.419   200.000     9.594
 3115.3156    25.360    2.2876    0.1899    70.093   200.000     8.907
 3115.4680    28.533    2.2696    0.1874    38.318   200.000     8.671
 3115.6204    32.581    2.3173    0.2071    76.154   200.000     8.053
 3115.7728    30.032    2.2624    0.2056    81.748   200.000     8.414
 3115.9252    27.846    2.1806    0.1761   116.960   200.000     8.671
 3116.0776    30.446    2.2401    0.1860    39.583   200.000     8.121
 3116.2300    28.364    2.1846    0.2222    33.453   200.000     8.255
 3116.3824    24.366    2.2564    0.1895    26.378   200.000     8.186
 3116.5348    25.437    2.2101    0.1833    59.788   200.000     8.897
 3116.6872    24.485    2.2915    0.1754    99.294   200.000     8.086
 3116.8396    27.320    2.1737    0.1397   129.637   200.000     8.365
 3116.9920    43.094    2.2293    0.1545    56.103   200.000     8.581
 3117.1444    26.206    2.2549    0.2192   175.034   200.000     8.146
 3117.2968    27.175    2.2707    0.1511    62.327   200.000     8.401
 3117.4492    29.760    2.2387    0.1581    53.799   200.000     8.568
 3117.6016    24.715    2.3225    0.1596    77.822   200.000     9.075
 3117.7540    29.371    2.2528    0.1749    51.684   200.000     8.107
 3117.9064    25.795    2.2830    0.1935   104.967   200.000     8.897
 3118.0588    31.847    2.2539    0.1755    68.674   200.000     7.715
 3118.2112    35.835    2.2540    0.1907    82.455   200.000     8.783
 3118.3636    28.451    2.2166    0.1815    53.536   200.000     8.777
 3118.5160    37.249    2.3138    0.1036   123.039   200.000     7.885
 3118.6684    28.038    2.2622    0.1962    52.256   200.000     8.655
 3118.8208    32.610    2.2786    0.1805    83.421   200.000     7.989
 3118.9732    29.744    2.1954    0.1866    76.757   200.000     8.852
 3119.1256    27.526    2.1710    0.1820    65.560   200.000     8.902
 3119.2780    25.609    2.2197    0.1977    54.560   200.000     8.917
 3119.4304    24.138    2.3033    0.1731   111.203   200.000     8.532
 3119.5828    20.716    2.2110    0.1992    42.379   200.000     7.986
 3119.7352    33.068    2.2754    0.1828    49.248   200.000     8.492
 3119.8876    24.340    2.2586    0.1108   108.034   200.000     8.153
 3120.0400    36.451    2.2160    0.1789    53.264   200.000     8.932
 3120.1924    27.198    2.2706    0.1503   133.987   200.000     8.742
 3120.3448    28.039    2.3074    0.1969    66.883   200.000     8.694
 3120.4972    33.168    2.2528    0.1678    72.453   200.000     8.770
 3120.6496    25.334    2.2525    0.1858    40.450   200.000     8.694
 3120.8020    30.818    2.1892    0.2060   141.548   200.000     7.998
 3120.9544    32.560    2.2892    0.1795    39.774   200.000     8.069
 3121.1068    28.749    2.1702    0.1649    87.890   200.000     8.143
 3121.2592    30.870    2.2811    0.1667    62.321   200.000     8.962
 3121.4116    37.154    2.2778    0.1691    29.240   200.000     8.110
 3121.5640    32.704    2.2309    0.1659    64.464   200.000     8.868
 3121.7164    20.566    2.2408    0.2206    30.292   200.000     8.241
 3121.8688    26.556    2.2510    0.1743   178.330   200.000     8.738
 3122.0212    22.951    2.2160    0.2013    67.628   200.000     8.115
 3122.1736    38.369    2.3156    0.1769    59.256   200.000     9.105
 3122.3260    33.689    2.3027    0.1849    65.463   200.000     8.364
 3122.4784    27.311    2.2646    0.1802    41.083   200.000     8.596
 3122.6308    25.918    2.2713    0.1925    70.302   200.000     8.499
 3122.7832    36.688    2.3039    0.1868   146.914   200.000     8.313
 3122.9356    27.442    2.3671    0.2122    38.478   200.000     8.810
 3123.0880    23.789    2.2482    0.1989    53.824   200.000     8.505
 3123.2404    19.876    2.1859    0.1411    47.665   200.000     9.017
 3123.3928    19.689    2.2782    0.1412    78.147   200.000     9.261
 3123.5452    28.543    2.2190    0.1832    40.685   200.000     8.154
 3123.6976    36.778    2.3452    0.1624    33.268   200.000     7.972
 3123.8500    27.779    2.2755    0.1717    51.685   200.000     7.824
 3124.0024    27.559    2.2184    0.1259    36.324   200.000     7.939
 3124.1548    24.297    2.2473    0.1232    24.612   200.000     8.010
 3124.3072    29.461    2.2991    0.1335    97.358   200.000     8.715
 3124.4596    24.747    2.2651    0.1691   101.592   200.000     9.247
 3124.6120    25.044    2.2394    0.2118    38.359   200.000     8.133
 3124.7644    30.762    2.2268    0.1581    48.910   200.000     8.628
 3124.9168    31.345    2.2231    0.1556    42.741   200.000     8.512
 3125.0692    31.277    2.2635    0.1954    52.060   200.000     8.750
 3125.2216    21.795    2.2576    0.1552   120.757   200.000     8.338
 3125.3740    24.795    2.3271    0.1918    79.909   200.000     9.281
 3125.5264    27.693    2.2157    0.2128    17.370   200.000     8.454
 3125.6788    32.272    2.2597    0.1585    45.998   200.000     8.916
 3125.8312    35.001    2.3001    0.1916    62.836   200.000     8.224
 3125.9836    29.539    2.2599    0.2088    18.276   200.000     8.163
 3126.1360    33.605    2.2686    0.2218    25.946   200.000     8.364
 3126.2884    26.666    2.2115    0.1705    81.984   200.000     8.760
 3126.4408    31.362    2.2119    0.1959    63.065   200.000     8.401
 3126.5932    34.512    2.2148    0.1394    66.561   200.000     8.741
 3126.7456    34.051    2.2671    0.1664    79.406   200.000     8.376
 3126.8980    26.116    2.2443    0.1885    87.018   200.000     8.575
 3127.0504    30.908    2.2374    0.1498    85.275   200.000     8.862
