~VERSION INFORMATION
 VERS.                 2.0    : CWLS LOG ASCII STANDARD
 WRAP.                 NO     : ONE LINE PER DEPTH STEP
~WELL INFORMATION
 WELL.                 29/3-1    : Well name
 FLD .                 Forties         : Field
 CTRY.                 UK       : Country
 STRT.M                2000.0000 : START DEPTH
 STOP.M                3500.0000   : STOP DEPTH
 STEP.M                0.1524        : STEP
 NULL.                 -999.25          : NULL VALUE
 SRVC.                 SubsurfAI        : Service company
~CURVE INFORMATION
 DEPT.M                              : Depth
 GR  .GAPI                           : Gamma Ray
 RHOB.G/C3                           : Bulk Density
 NPHI.V/V                            : Neutron Porosity
 RT  .OHMM                           : True Resistivity
 DT  .US/F                           : Sonic
 CALI.IN                             : Caliper
~PARAMETER INFORMATION
 LAT .                 57.7341   : Latitude
 LON .                 0.5432   : Longitude
 DESC.                 Forties Fm — Paleocene submarine fan sandstone
~A  DEPT        GR        RHOB      NPHI      RT        DT        CALI
# ...
 2189.4332   110.648    2.4202    0.3037     1.513   179.214     8.779
 2189.5856   110.988    2.4349    0.3168     3.313   175.249     8.354
 2189.7380   113.489    2.4116    0.3345     1.567   162.505     8.422
 2189.8904   109.963    2.5042    0.3215     5.974   169.279     8.949
 2190.0428   104.317    2.4941    0.2546     1.042   200.000     8.312
 2190.1952    89.144    2.4251    0.3616     2.212   165.093     8.977
 2190.3476    90.856    2.4598    0.4194     1.962   134.346     8.244
 2190.5000   101.638    2.4894    0.2916     2.727   186.315     7.420
 2190.6524   130.144    2.4369    0.3015     2.524   178.180     8.900
 2190.8048   120.035    2.3742    0.3433     3.308   156.719     7.973
 2190.9572    95.021    2.4710    0.2846     0.799   194.544     8.524
 2191.1096    96.369    2.4463    0.2657     2.237   200.000     8.255
 2191.2620   115.412    2.4614    0.2799     2.283   200.000     8.720
 2191.4144   104.819    2.4500    0.3275     1.364   170.488     8.785
 2191.5668   121.132    2.5035    0.2805     2.287   193.139     8.534
 2191.7192   110.647    2.5389    0.3247     2.037   166.760     9.015
 2191.8716    98.705    2.4780    0.3785     2.810   143.474     8.660
 2192.0240    88.054    2.4589    0.3451     2.655   164.124     7.975
 2192.1764   101.052    2.4833    0.3310     0.759   163.198     8.097
 2192.3288   112.881    2.4490    0.3095     2.181   165.766     8.705
 2192.4812   126.503    2.4833    0.2958     1.242   193.270     8.546
 2192.6336    81.514    2.4589    0.1629     2.398   200.000     8.365
 2192.7860   101.108    2.4301    0.2807     0.910   197.551     8.704
 2192.9384   101.128    2.4929    0.3649     2.347   160.477     8.709
 2193.0908    98.737    2.4502    0.3906     1.345   137.610     8.392
 2193.2432   123.597    2.4924    0.2858     1.507   194.800     9.107
 2193.3956   120.832    2.4988    0.2679     0.951   200.000     8.617
 2193.5480   100.692    2.4378    0.3386     1.407   163.553     7.667
 2193.7004   105.514    2.4269    0.2851     1.692   194.314     9.182
 2193.8528    86.248    2.5245    0.3142     6.545   172.789     8.230
 2194.0052   134.262    2.4656    0.2993     3.546   192.838     7.991
 2194.1576   117.676    2.4688    0.2772     0.845   190.914     8.028
 2194.3100   107.415    2.4815    0.3326     2.856   163.663     8.648
 2194.4624   107.028    2.4546    0.2575     0.894   200.000     8.708
 2194.6148   122.948    2.4422    0.3046     2.155   178.591     8.121
 2194.7672    95.515    2.5155    0.3398     1.648   163.489     8.607
 2194.9196    90.484    2.5453    0.3379     1.613   152.591     8.502
 2195.0720   100.711    2.4916    0.3712     1.740   152.062     9.231
 2195.2244   114.445    2.4947    0.2923     2.027   190.539     8.679
 2195.3768   125.573    2.4907    0.4727     2.091   142.635     8.665
 2195.5292   104.353    2.4500    0.3074     2.098   176.821     8.593
 2195.6816   120.217    2.4698    0.3323     1.390   162.047     9.505
 2195.8340   121.420    2.4807    0.2599     2.396   200.000     8.395
 2195.9864   101.195    2.4352    0.3542     1.747   151.548     8.207
 2196.1388    90.863    2.5339    0.2642     0.655   200.000     8.062
 2196.2912   103.529    2.4277    0.3514     1.413   160.320     8.093
 2196.4436   102.981    2.4790    0.2598     1.264   200.000     8.727
 2196.5960   118.641    2.5036    0.2894     1.063   195.297     8.651
 2196.7484   110.590    2.6228    0.2615     1.904   200.000     8.708
 2196.9008    94.869    2.4359    0.3347     3.505   166.754     8.837
 2197.0532   115.033    2.4547    0.3171     0.638   172.479     7.798
 2197.2056   112.382    2.4078    0.3057     1.497   180.738     9.318
 2197.3580    95.137    2.3893    0.3128     1.433   168.891     8.244
 2197.5104   115.022    2.4249    0.3704     2.142   145.446     8.511
 2197.6628   115.154    2.4040    0.3372     2.421   162.481     7.950
 2197.8152    99.894    2.4515    0.2649     2.576   200.000     8.809
 2197.9676   134.848    2.5561    0.2107     0.419   200.000     8.470
 2198.1200    96.594    2.5232    0.3551     4.029   156.191     8.350
 2198.2724    94.693    2.4915    0.3349     1.306   176.282     8.301
 2198.4248   107.107    2.4689    0.3381     3.984   161.812     8.923
 2198.5772   111.867    2.4915    0.3158     2.185   177.016     8.090
 2198.7296    86.677    2.4432    0.2816     0.872   198.729     8.429
 2198.8820    92.321    2.4974    0.3304     0.960   163.154     8.557
 2199.0344   102.525    2.4625    0.3734     7.213   158.164     8.886
 2199.1868   112.950    2.4341    0.3219     1.890   168.064     8.016
 2199.3392   125.051    2.3810    0.2772     0.953   199.321     7.927
 2199.4916   100.336    2.5116    0.3832     2.757   148.142     9.181
 2199.6440   106.053    2.4255    0.2719     2.987   197.645     8.633
 2199.7964    89.013    2.4617    0.2742     3.364   200.000     8.616
 2199.9488    98.929    2.5593    0.3889     3.199   150.418     8.484
 2200.1012    90.846    2.4296    0.3590     1.484   158.989     8.202
 2200.2536   104.349    2.4475    0.2751     2.780   200.000     8.246
 2200.4060   130.259    2.5203    0.2730     2.715   200.000     8.470
 2200.5584   114.079    2.5465    0.3605     2.766   156.066     8.031
 2200.7108   116.870    2.4814    0.3043     2.774   186.311     8.520
 2200.8632   109.213    2.4292    0.2177     2.207   200.000     8.757
 2201.0156   102.020    2.4750    0.3030     3.134   178.180     9.274
 2201.1680    97.951    2.4123    0.2493     0.973   200.000     9.140
 2201.3204   102.567    2.5372    0.2873     1.194   197.708     8.244
 2201.4728   100.466    2.4204    0.2618     2.449   199.653     7.863
 2201.6252    95.787    2.4461    0.3039     1.564   186.085     9.107
 2201.7776    99.471    2.5031    0.2299     0.916   200.000     7.236
 2201.9300   120.345    2.4834    0.1910     1.181   200.000     8.267
 2202.0824   111.811    2.3838    0.3040     2.036   175.813     8.872
 2202.2348   101.587    2.3781    0.2045     2.234   200.000     8.703
 2202.3872    96.146    2.4080    0.2243     2.220   200.000     8.390
 2202.5396   114.483    2.4308    0.2948     1.598   191.127     8.218
 2202.6920   102.604    2.4916    0.3013     1.406   169.583     8.738
 2202.8444    88.159    2.4870    0.2724     2.821   197.904     8.417
 2202.9968   108.614    2.4966    0.3252     1.043   161.732     8.702
 2203.1492   107.244    2.5274    0.2914     1.081   188.760     8.854
 2203.3016   128.511    2.5354    0.3191     2.928   175.403     8.153
 2203.4540    76.206    2.4095    0.2827     3.475   192.983     8.738
 2203.6064   113.584    2.4759    0.2601     2.887   200.000     8.283
 2203.7588   123.748    2.4880    0.2883     1.383   191.612     8.951
 2203.9112   101.569    2.4949    0.2672     2.575   200.000     8.231
 2204.0636   110.510    2.5138    0.2893     2.633   184.259     8.062
 2204.2160   121.306    2.5026    0.3456     2.411   157.935     8.287
 2204.3684   111.462    2.4673    0.2454     2.633   200.000     8.962
 2204.5208   106.335    2.5347    0.3240     4.424   169.085     9.400
 2204.6732   123.228    2.4660    0.2954     2.015   189.063     8.638
 2204.8256   115.577    2.4443    0.3373     1.580   162.557     8.319
 2204.9780   108.665    2.4906    0.3587     3.399   161.414     8.539
 2205.1304    96.982    2.3742    0.3062     2.989   180.580     9.261
 2205.2828   115.101    2.4379    0.2647     1.233   200.000     8.528
 2205.4352    99.102    2.3980    0.3322     1.672   170.454     8.440
 2205.5876    92.043    2.4146    0.2554     2.800   200.000     8.211
 2205.7400    84.713    2.4340    0.3347     4.304   159.642     8.493
 2205.8924   109.762    2.4550    0.2997     3.919   175.146     8.290
 2206.0448   102.997    2.4145    0.3149     5.307   170.112     9.055
 2206.1972    97.332    2.3962    0.2567     3.516   200.000     8.235
 2206.3496    88.184    2.4565    0.2573     3.660   200.000     8.538
 2206.5020   130.582    2.4701    0.2766     2.971   199.859     7.974
