~VERSION INFORMATION
 VERS.                 2.0    : CWLS LOG ASCII STANDARD
 WRAP.                 NO     : ONE LINE PER DEPTH STEP
~WELL INFORMATION
 WELL.                 29/3-1    : Well name
 FLD .                 Forties         : Field
 CTRY.                 UK       : Country
 STRT.M                2000.0000 : START DEPTH
 STOP.M                3500.0000   : STOP DEPTH
 STEP.M                0.1524        : STEP
 NULL.                 -999.25          : NULL VALUE
 SRVC.                 SubsurfAI        : Service company
~CURVE INFORMATION
 DEPT.M                              : Depth
 GR  .GAPI                           : Gamma Ray
 RHOB.G/C3                           : Bulk Density
 NPHI.V/V                            : Neutron Porosity
 RT  .OHMM                           : True Resistivity
 DT  .US/F                           : Sonic
 CALI.IN                             : Caliper
~PARAMETER INFORMATION
 LAT .                 57.7341   : Latitude
 LON .                 0.5432   : Longitude
 DESC.                 Forties Fm — Paleocene submarine fan sandstone
~A  DEPT        GR        RHOB      NPHI      RT        DT        CALI
# ...
 2585.5208    31.135    2.3402    0.2186    47.720   200.000     8.513
 2585.6732    32.379    2.2734    0.1677    51.293   200.000     8.538
 2585.8256    24.180    2.3234    0.1700    74.114   200.000     8.812
 2585.9780    33.540    2.2135    0.2097    79.031   200.000     8.828
 2586.1304    34.616    2.2715    0.1678    44.696   200.000     8.657
 2586.2828    38.967    2.3436    0.1915    38.236   200.000     8.684
 2586.4352    35.593    2.2685    0.1661    68.056   200.000     8.897
 2586.5876    30.908    2.2040    0.1903    61.701   200.000     8.492
 2586.7400    35.380    2.2103    0.1656    62.227   200.000     8.051
 2586.8924    25.266    2.1940    0.1828    77.406   200.000     8.893
 2587.0448    22.200    2.2379    0.1762    43.455   200.000     8.896
 2587.1972    28.493    2.3037    0.1764    71.045   200.000     7.589
 2587.3496    39.993    2.2424    0.1442    55.845   200.000     9.111
 2587.5020    28.757    2.3013    0.1919    32.357   200.000     8.619
 2587.6544    28.513    2.1993    0.1946    29.392   200.000     8.297
 2587.8068    33.277    2.2884    0.1655   109.089   200.000     8.809
 2587.9592    30.003    2.1941    0.1418    21.623   200.000     8.119
 2588.1116    33.481    2.3521    0.1604   161.171   200.000     8.641
 2588.2640    27.804    2.2011    0.1840    36.857   200.000     8.725
 2588.4164    44.535    2.1992    0.1305    56.181   200.000     8.625
 2588.5688    34.096    2.2582    0.1991    13.673   200.000     8.009
 2588.7212    36.934    2.3207    0.2211    59.107   200.000     8.381
 2588.8736    31.137    2.2663    0.2100    54.229   200.000     9.138
 2589.0260    38.466    2.2392    0.2262    28.307   200.000     8.545
 2589.1784    35.313    2.2636    0.2155    49.383   200.000     8.097
 2589.3308    24.408    2.2212    0.1895    18.209   200.000     8.314
 2589.4832    31.888    2.1885    0.2078    57.846   200.000     8.693
 2589.6356    32.990    2.2821    0.1870    28.228   200.000     8.774
 2589.7880    31.135    2.2867    0.2201    59.030   200.000     8.265
 2589.9404    27.876    2.3253    0.2210    88.423   200.000     8.484
 2590.0928    35.545    2.3210    0.1937    35.869   200.000     8.068
 2590.2452    30.346    2.2229    0.1551    75.658   200.000     9.010
 2590.3976    29.224    2.2858    0.1934    34.991   200.000     8.741
 2590.5500    42.398    2.2278    0.2312    60.754   200.000     7.870
 2590.7024    32.374    2.2651    0.2086    23.120   200.000     8.522
 2590.8548    42.366    2.2779    0.1942    52.063   200.000     8.167
 2591.0072    28.453    2.2458    0.2010    53.486   200.000     8.453
 2591.1596    33.479    2.3079    0.1672    85.364   200.000     8.906
 2591.3120    30.328    2.2082    0.1958    15.243   200.000     8.844
 2591.4644    27.527    2.2635    0.1618    77.515   200.000     7.583
 2591.6168    26.342    2.2325    0.1849    80.080   200.000     8.411
 2591.7692    31.163    2.2343    0.1736    26.339   200.000     8.745
 2591.9216    31.414    2.2483    0.1867    80.972   200.000     8.886
 2592.0740    31.500    2.1910    0.2113    52.875   200.000     8.964
 2592.2264    32.175    2.1969    0.1827    47.125   200.000     8.122
 2592.3788    30.775    2.2849    0.1884    27.637   200.000     8.170
 2592.5312    26.281    2.2257    0.1597   114.337   200.000     8.225
 2592.6836    35.896    2.2613    0.2448    75.262   200.000     8.241
 2592.8360    23.865    2.2909    0.1812    38.109   200.000     8.883
 2592.9884    28.604    2.2035    0.1498    80.279   200.000     8.365
 2593.1408    40.525    2.1699    0.1810    75.937   200.000     9.021
 2593.2932    34.933    2.2569    0.2102    97.666   200.000     8.643
 2593.4456    27.866    2.2717    0.2117    70.566   200.000     8.867
 2593.5980    36.951    2.2582    0.1661    34.650   200.000     8.607
 2593.7504    34.446    2.2111    0.2062   112.675   200.000     8.665
 2593.9028    28.296    2.2080    0.2098    70.982   200.000     8.286
 2594.0552    29.086    2.2929    0.1899    32.917   200.000     8.872
 2594.2076    32.738    2.2597    0.1698    30.368   200.000     7.715
 2594.3600    33.835    2.2541    0.1837    54.230   200.000     8.601
 2594.5124    32.501    2.2439    0.2227    54.792   200.000     8.564
 2594.6648    39.732    2.3130    0.1892    42.888   200.000     8.859
 2594.8172    43.862    2.1647    0.2063    37.588   200.000     8.744
 2594.9696    26.607    2.2940    0.2206    47.386   200.000     8.839
 2595.1220    36.256    2.2248    0.1792    51.994   200.000     8.818
 2595.2744    33.739    2.2596    0.1688    38.385   200.000     8.417
 2595.4268    22.325    2.2509    0.1373    77.186   200.000     9.189
 2595.5792    35.062    2.2319    0.2044    41.287   200.000     8.940
 2595.7316    33.944    2.2961    0.1594    95.338   200.000     7.819
 2595.8840    38.407    2.2802    0.2092    88.507   200.000     8.165
 2596.0364    31.436    2.3074    0.1873    22.598   200.000     8.851
 2596.1888    35.057    2.3637    0.2472    45.727   200.000     9.151
 2596.3412    27.055    2.3595    0.1650   116.198   200.000     8.695
 2596.4936    32.358    2.2261    0.1640    59.023   200.000     8.473
 2596.6460    36.728    2.2863    0.1592    67.352   200.000     8.805
 2596.7984    30.490    2.3097    0.2046    19.810   200.000     8.886
 2596.9508    28.437    2.2838    0.2207    38.958   200.000     8.630
 2597.1032    35.964    2.2643    0.1841    36.723   200.000     8.185
 2597.2556    33.319    2.2277    0.1148    21.767   200.000     8.595
 2597.4080    31.662    2.2030    0.1582    24.063   200.000     7.866
 2597.5604    32.713    2.2179    0.1576   136.060   200.000     8.812
 2597.7128    37.304    2.2818    0.1544    52.168   200.000     8.094
 2597.8652    32.459    2.2649    0.1478    36.268   200.000     8.804
 2598.0176    33.429    2.2057    0.2047    21.723   200.000     8.150
 2598.1700    36.505    2.2957    0.1873    34.766   200.000     9.098
 2598.3224    39.984    2.2522    0.1981    47.436   200.000     8.951
 2598.4748    25.512    2.2085    0.1586    92.491   200.000     8.743
 2598.6272    26.630    2.2500    0.1765    53.094   200.000     8.877
 2598.7796    35.170    2.2376    0.2226    48.787   200.000     8.541
 2598.9320    37.651    2.2490    0.1625    36.976   200.000     7.673
 2599.0844    34.749    2.2778    0.1891   100.665   200.000     8.843
 2599.2368    34.432    2.1993    0.1577    61.814   200.000     8.217
 2599.3892    24.197    2.2404    0.1989    59.205   200.000     8.134
 2599.5416    33.098    2.2214    0.2129    99.445   200.000     8.880
 2599.6940    28.085    2.3138    0.2096    57.033   200.000     8.599
 2599.8464    11.638    2.1992    0.2770    13.472   198.735     8.548
 2599.9988     7.391    2.0465    0.3703     8.299   150.491     8.122
 2600.1512     9.611    2.1574    0.4232    10.092   134.476     7.994
 2600.3036    13.412    2.1437    0.3571    19.717   157.795     8.898
 2600.4560     7.380    2.0850    0.3343     9.100   159.349     9.041
 2600.6084    11.038    2.0937    0.2259    10.042   200.000     8.902
 2600.7608     8.411    2.1059    0.4388     6.907   139.091     8.995
 2600.9132     7.497    2.1561    0.3389    21.518   153.638     7.918
 2601.0656     9.417    2.1658    0.4274    26.330   138.280     9.307
 2601.2180    12.724    2.1028    0.3797    12.387   143.384     8.584
 2601.3704    11.320    2.0612    0.4076    22.784   139.157     9.046
 2601.5228    10.039    2.1257    0.3874    11.140   143.532     9.115
 2601.6752    10.087    2.0970    0.3501    14.854   150.095     7.775
 2601.8276    10.585    2.1485    0.3595     8.730   156.698     8.197
 2601.9800    13.263    2.0088    0.3683    11.882   149.332     8.716
 2602.1324    11.135    2.0725    0.3196    15.827   163.151     8.014
 2602.2848     9.716    2.0957    0.3659     8.533   156.789     8.371
 2602.4372     8.185    2.0493    0.3739    12.592   143.718     8.561
 2602.5896     9.666    2.0908    0.3427    16.208   163.262     8.603
