~VERSION INFORMATION
 VERS.                 2.0    : CWLS LOG ASCII STANDARD
 WRAP.                 NO     : ONE LINE PER DEPTH STEP
~WELL INFORMATION
 WELL.                 29/3-1    : Well name
 FLD .                 Forties         : Field
 CTRY.                 UK       : Country
 STRT.M                2000.0000 : START DEPTH
 STOP.M                3500.0000   : STOP DEPTH
 STEP.M                0.1524        : STEP
 NULL.                 -999.25          : NULL VALUE
 SRVC.                 SubsurfAI        : Service company
~CURVE INFORMATION
 DEPT.M                              : Depth
 GR  .GAPI                           : Gamma Ray
 RHOB.G/C3                           : Bulk Density
 NPHI.V/V                            : Neutron Porosity
 RT  .OHMM                           : True Resistivity
 DT  .US/F                           : Sonic
 CALI.IN                             : Caliper
~PARAMETER INFORMATION
 LAT .                 57.7341   : Latitude
 LON .                 0.5432   : Longitude
 DESC.                 Forties Fm — Paleocene submarine fan sandstone
~A  DEPT        GR        RHOB      NPHI      RT        DT        CALI
# ...
 2792.1752     4.115    2.1154    0.3249    11.234   168.964     8.484
 2792.3276    13.705    2.1120    0.4407     8.744   140.261     8.965
 2792.4800    11.787    2.1333    0.4026    30.161   132.407     8.130
 2792.6324    12.556    2.0497    0.3457    18.149   152.989     8.873
 2792.7848     8.529    2.0960    0.3757    21.724   141.088     8.390
 2792.9372     7.415    2.0958    0.4497    14.923   137.497     8.193
 2793.0896    10.463    2.1346    0.5077    14.385   137.431     8.558
 2793.2420     7.419    2.0376    0.3506    14.732   158.253     8.447
 2793.3944     4.372    2.1543    0.5146     6.437   139.525     8.133
 2793.5468     5.606    2.1412    0.3802    21.216   142.542     8.146
 2793.6992    11.148    2.1282    0.3572    13.191   155.342     7.962
 2793.8516     2.370    2.1492    0.3631     9.777   150.854     9.123
 2794.0040     7.063    2.1156    0.4244     8.038   137.665     8.406
 2794.1564    14.821    2.1210    0.3002     8.197   187.190     8.455
 2794.3088    15.112    2.1528    0.2993    28.006   180.885     8.495
 2794.4612     8.122    2.0578    0.3680    14.834   156.828     8.007
 2794.6136     9.340    2.1414    0.3543    14.950   159.566     8.996
 2794.7660     4.742    2.1152    0.4658    32.660   133.456     8.549
 2794.9184    18.158    2.0560    0.3300    14.528   162.864     8.136
 2795.0708     9.950    2.1104    0.3064    12.334   184.440     7.918
 2795.2232     7.499    2.0988    0.3638    15.210   155.018     8.491
 2795.3756    10.595    2.0852    0.3596    11.170   143.610     8.732
 2795.5280    11.272    2.1173    0.3968     6.511   141.579     8.475
 2795.6804    13.499    2.1258    0.2910    13.608   192.057     8.506
 2795.8328     6.042    2.0679    0.3390    13.940   158.420     8.128
 2795.9852    10.978    2.1482    0.2663     5.525   200.000     8.903
 2796.1376     9.391    2.0714    0.3164    12.356   178.628     8.307
 2796.2900    10.219    2.1603    0.3832    14.928   147.359     8.368
 2796.4424     8.056    2.0976    0.3338    18.511   167.700     8.272
 2796.5948    12.107    2.0894    0.4578    17.096   142.767     7.935
 2796.7472     6.721    2.0975    0.2801    20.461   189.569     8.150
 2796.8996     5.379    2.1226    0.4877     8.860   128.561     8.074
 2797.0520    11.647    2.0787    0.5188    30.715   136.341     7.567
 2797.2044     5.365    2.0483    0.3828     9.527   141.538     8.102
 2797.3568     7.038    2.0673    0.2605     5.635   200.000     8.513
 2797.5092     5.205    2.0636    0.3702     7.272   146.751     8.638
 2797.6616    11.453    2.0536    0.3696    22.289   146.806     8.807
 2797.8140    11.175    2.0754    0.3665     8.987   152.037     8.053
 2797.9664    13.665    2.0724    0.2984     7.173   182.926     8.044
 2798.1188     9.628    2.1262    0.2604     8.932   200.000     8.144
 2798.2712    16.941    2.1259    0.3537    30.479   159.567     8.966
 2798.4236     4.779    2.2150    0.4579     9.688   137.694     8.128
 2798.5760    11.616    2.1571    0.4665     6.192   133.774     8.682
 2798.7284     8.517    2.0617    0.4141     7.424   143.806     8.417
 2798.8808     7.824    2.1302    0.3676    13.035   153.065     8.348
 2799.0332    15.877    2.1597    0.3719    19.417   146.697     8.731
 2799.1856     8.548    2.1445    0.3913    10.264   145.482     8.605
 2799.3380    12.686    2.1428    0.3735    35.205   153.851     9.147
 2799.4904     4.108    2.1339    0.4793    16.807   138.586     8.818
 2799.6428     7.062    2.0951    0.4449    31.879   135.436     8.200
 2799.7952    13.162    2.1228    0.3385    15.974   164.293     8.700
 2799.9476    13.159    2.0456    0.4102    25.264   135.148     9.073
 2800.1000    16.466    2.0670    0.3946     7.254   146.767     8.365
 2800.2524     8.654    2.1176    0.3294    30.557   172.800     7.974
 2800.4048     8.934    2.1126    0.4262    11.167   129.457     8.391
 2800.5572    12.514    2.0712    0.2713    13.253   200.000     8.864
 2800.7096     6.877    2.0698    0.4047    10.017   144.607     8.327
 2800.8620     6.165    2.0930    0.4722    18.053   130.903     8.981
 2801.0144    13.015    2.0952    0.3937    22.309   143.417     8.224
 2801.1668     6.883    2.1092    0.3831    21.379   144.770     8.334
 2801.3192     7.371    2.1571    0.2763    16.273   195.749     7.955
 2801.4716    12.458    2.1422    0.3191    11.815   162.938     8.421
 2801.6240     5.770    2.0618    0.3342     4.332   173.693     8.139
 2801.7764     9.396    2.1422    0.3545    25.946   150.753     8.782
 2801.9288     7.988    2.0341    0.2913    27.515   183.769     8.282
 2802.0812     9.936    2.1375    0.2938    39.163   184.800     8.871
 2802.2336     9.392    2.0597    0.5319    20.636   142.220     8.428
 2802.3860    10.363    2.1625    0.4070    13.015   129.561     8.781
 2802.5384     6.596    2.0809    0.3753     5.245   134.903     8.661
 2802.6908     9.060    2.0995    0.3648    14.523   160.403     8.958
 2802.8432    10.407    2.1348    0.4082    23.883   145.077     8.188
 2802.9956     6.994    2.0528    0.3107     8.392   175.056     7.639
 2803.1480     7.311    2.1359    0.4002    13.908   129.477     8.543
 2803.3004     6.237    2.1241    0.4178    14.375   133.876     8.131
 2803.4528    10.860    2.0294    0.3278    12.499   168.329     8.324
 2803.6052    12.730    2.1305    0.3560    20.762   152.968     8.831
 2803.7576    12.739    2.1426    0.3830    17.844   147.816     8.162
 2803.9100    12.760    2.0977    0.3140    44.560   163.866     8.710
 2804.0624     8.716    2.1573    0.3825    23.586   146.032     8.754
 2804.2148    11.152    2.0913    0.3763    33.735   141.122     8.775
 2804.3672    12.541    2.1631    0.3020    25.792   184.518     8.563
 2804.5196     9.848    2.0857    0.3566    18.352   151.903     8.659
 2804.6720    17.202    2.1416    0.3580    19.889   153.939     8.335
 2804.8244    15.009    2.0640    0.2872    13.360   185.111     8.412
 2804.9768     9.140    2.1063    0.4137    11.761   135.160     8.564
 2805.1292     9.368    2.1062    0.4510    13.539   132.473     9.154
 2805.2816    12.663    2.1839    0.3576    20.298   148.573     8.677
 2805.4340     9.911    2.0084    0.3114    25.558   178.213     8.200
 2805.5864    15.987    2.0149    0.3369    14.632   165.361     8.816
 2805.7388    12.056    2.1067    0.3029     9.256   183.161     8.311
 2805.8912    10.004    2.1290    0.4102    11.304   134.639     8.264
 2806.0436    12.900    2.1079    0.3751    13.527   149.865     8.703
 2806.1960    12.931    2.1033    0.2878    16.047   190.808     8.742
 2806.3484     9.929    2.1483    0.4902    26.842   132.853     8.189
 2806.5008    10.091    2.0695    0.3450    16.086   159.106     8.534
 2806.6532    14.477    2.1543    0.4397    14.966   138.116     8.755
 2806.8056     9.457    2.1327    0.5012    13.886   124.919     7.952
 2806.9580    10.032    2.0397    0.2877     9.189   199.787     8.662
 2807.1104     6.756    2.1331    0.4174    34.459   136.248     9.029
 2807.2628    10.863    2.1740    0.2939    11.644   193.541     8.205
 2807.4152    17.215    2.0540    0.3593    15.148   150.940     8.108
 2807.5676     3.514    2.1069    0.3926    18.005   145.639     8.882
 2807.7200    12.568    2.0827    0.2051    16.549   200.000     9.372
 2807.8724     2.149    2.0966    0.4529    14.726   139.875     8.304
 2808.0248     8.549    2.1505    0.3693    14.478   155.516     8.752
 2808.1772     4.993    2.1537    0.3689     9.102   141.740     9.282
 2808.3296    13.437    2.1023    0.3325    31.066   161.428     7.636
 2808.4820     5.379    2.0783    0.4018    20.589   136.125     8.955
 2808.6344     9.425    2.1321    0.4058    25.112   140.067     8.467
 2808.7868     7.985    2.1166    0.3841    11.688   139.079     9.026
 2808.9392     6.878    2.1659    0.3697    11.735   144.916     8.290
 2809.0916     5.765    2.0598    0.3493    14.173   158.972     8.349
 2809.2440     9.613    2.0784    0.3958    23.583   139.343     8.170
