~VERSION INFORMATION
 VERS.                 2.0    : CWLS LOG ASCII STANDARD
 WRAP.                 NO     : ONE LINE PER DEPTH STEP
~WELL INFORMATION
 WELL.                 29/3-1    : Well name
 FLD .                 Forties         : Field
 CTRY.                 UK       : Country
 STRT.M                2000.0000 : START DEPTH
 STOP.M                3500.0000   : STOP DEPTH
 STEP.M                0.1524        : STEP
 NULL.                 -999.25          : NULL VALUE
 SRVC.                 SubsurfAI        : Service company
~CURVE INFORMATION
 DEPT.M                              : Depth
 GR  .GAPI                           : Gamma Ray
 RHOB.G/C3                           : Bulk Density
 NPHI.V/V                            : Neutron Porosity
 RT  .OHMM                           : True Resistivity
 DT  .US/F                           : Sonic
 CALI.IN                             : Caliper
~PARAMETER INFORMATION
 LAT .                 57.7341   : Latitude
 LON .                 0.5432   : Longitude
 DESC.                 Forties Fm — Paleocene submarine fan sandstone
~A  DEPT        GR        RHOB      NPHI      RT        DT        CALI
# ...
 3188.2628    24.455    2.3094    0.2185   114.943   200.000     8.984
 3188.4152    26.510    2.1591    0.1677   118.012   200.000     8.300
 3188.5676    23.166    2.1821    0.1901    82.376   200.000     8.668
 3188.7200    30.469    2.2174    0.2549    50.338   200.000     8.474
 3188.8724    23.637    2.2713    0.1223    32.012   200.000     8.490
 3189.0248    20.864    2.2524    0.2993   121.290   181.742     8.080
 3189.1772    29.506    2.1101    0.2620    61.889   200.000     8.409
 3189.3296    25.554    2.2803    0.2178   118.566   200.000     8.723
 3189.4820    34.146    2.2366    0.1917    43.975   200.000     8.780
 3189.6344    23.304    2.1903    0.2375    54.852   200.000     8.240
 3189.7868    36.728    2.1970    0.2173    74.651   200.000     8.446
 3189.9392    26.017    2.3104    0.2563   128.515   200.000     8.557
 3190.0916    28.388    2.2763    0.2782    59.135   200.000     8.723
 3190.2440    30.465    2.2273    0.2294   108.265   200.000     8.788
 3190.3964    22.467    2.1948    0.2124   147.222   200.000     8.577
 3190.5488    35.991    2.2228    0.1971    60.875   200.000     8.592
 3190.7012    31.398    2.3115    0.2161    34.752   200.000     7.811
 3190.8536    33.663    2.2886    0.1615   125.832   200.000     8.194
 3191.0060    28.998    2.2585    0.1568    78.306   200.000     7.611
 3191.1584    29.735    2.1704    0.1984    89.173   200.000     8.480
 3191.3108    33.664    2.1823    0.2124    28.153   200.000     8.894
 3191.4632    18.438    2.1560    0.1855    53.034   200.000     8.959
 3191.6156    30.778    2.2394    0.2155    66.386   200.000     8.314
 3191.7680    33.224    2.2178    0.1824    52.571   200.000     8.883
 3191.9204    33.536    2.3118    0.2152    32.903   200.000     8.485
 3192.0728    32.374    2.1909    0.2073   174.254   200.000     8.971
 3192.2252    23.240    2.2630    0.1956   101.266   200.000     8.807
 3192.3776    25.211    2.2598    0.1938   183.570   200.000     9.088
 3192.5300    37.562    2.1776    0.2417   241.746   200.000     8.669
 3192.6824    23.488    2.2188    0.2126    60.701   200.000     8.969
 3192.8348    28.249    2.1336    0.1693    35.267   200.000     8.128
 3192.9872    35.908    2.1828    0.2356   131.546   200.000     8.231
 3193.1396    27.368    2.1554    0.1830   109.085   200.000     8.347
 3193.2920    31.111    2.1984    0.2393   102.650   200.000     8.252
 3193.4444    29.317    2.3090    0.1977    96.611   200.000     8.678
 3193.5968    24.863    2.2458    0.1808    27.850   200.000     9.334
 3193.7492    29.704    2.1425    0.2485    60.715   200.000     9.147
 3193.9016    26.884    2.1942    0.2295    98.734   200.000     8.561
 3194.0540    29.151    2.2428    0.2389   149.244   200.000     8.725
 3194.2064    29.273    2.1931    0.2293    42.158   200.000     8.042
 3194.3588    30.705    2.2059    0.2210   143.148   200.000     8.639
 3194.5112    19.769    2.2560    0.2409   171.556   200.000     8.055
 3194.6636    26.042    2.1760    0.2484   126.676   200.000     7.494
 3194.8160    35.182    2.2977    0.1822   110.968   200.000     9.170
 3194.9684    29.593    2.2888    0.1820    55.026   200.000     8.830
 3195.1208    28.190    2.2760    0.2072   107.425   200.000     8.734
 3195.2732    35.538    2.1917    0.1851    57.318   200.000     8.206
 3195.4256    26.329    2.2799    0.1593    80.850   200.000     8.562
 3195.5780    25.460    2.2315    0.2415    96.169   200.000     8.325
 3195.7304    29.018    2.2820    0.2116    53.859   200.000     8.221
 3195.8828    23.185    2.2816    0.2074    90.991   200.000     8.244
 3196.0352    22.191    2.2208    0.2365    84.538   200.000     8.500
 3196.1876    21.824    2.1677    0.2476    70.112   200.000     7.932
 3196.3400    28.426    2.2196    0.1937   341.024   200.000     8.900
 3196.4924    39.929    2.2059    0.2477   156.166   200.000     8.122
 3196.6448    29.019    2.2091    0.2012   114.866   200.000     8.553
 3196.7972    26.337    2.2339    0.2227   126.365   200.000     8.591
 3196.9496    27.463    2.2131    0.2006   126.797   200.000     7.949
 3197.1020    22.858    2.2284    0.2179    80.233   200.000     8.070
 3197.2544    24.042    2.1875    0.2409    94.573   200.000     8.947
 3197.4068    28.304    2.2309    0.1699    87.965   200.000     8.657
 3197.5592    21.029    2.1368    0.1777    59.968   200.000     8.494
 3197.7116    25.113    2.1913    0.1778   117.320   200.000     8.294
 3197.8640    28.959    2.2335    0.2232    81.866   200.000     8.940
 3198.0164    27.831    2.1592    0.2235    34.350   200.000     8.008
 3198.1688    28.140    2.2139    0.1990   129.315   200.000     8.921
 3198.3212    34.946    2.1623    0.2268    79.793   200.000     8.766
 3198.4736    31.696    2.1588    0.2349   109.022   200.000     8.664
 3198.6260    32.040    2.2110    0.2103    63.440   200.000     8.677
 3198.7784    29.795    2.2927    0.2207    81.785   200.000     8.658
 3198.9308    26.560    2.1791    0.1804   116.121   200.000     8.613
 3199.0832    17.760    2.1601    0.1693   152.549   200.000     8.924
 3199.2356    27.202    2.2287    0.2063   114.368   200.000     8.912
 3199.3880    20.341    2.2299    0.2211    42.395   200.000     9.462
 3199.5404    31.556    2.2832    0.2189    80.347   200.000     8.319
 3199.6928    83.686    2.4578    0.2705     3.989   198.320     8.022
 3199.8452   100.990    2.4592    0.2745     1.307   197.542     7.804
 3199.9976    98.102    2.4943    0.2614     2.152   200.000     8.871
 3200.1500    82.703    2.3788    0.2796     1.741   195.413     8.456
 3200.3024   109.319    2.4291    0.3250     1.571   174.754     8.469
 3200.4548    98.914    2.4834    0.2364     2.066   200.000     8.379
 3200.6072    84.839    2.4253    0.3309     3.517   171.644     8.498
 3200.7596   106.788    2.5359    0.3147     4.442   179.204     8.748
 3200.9120    87.478    2.4147    0.3234     2.485   172.020     8.881
 3201.0644   111.716    2.4868    0.2765     3.308   199.916     9.128
 3201.2168    92.793    2.4260    0.2489     3.065   200.000     8.330
 3201.3692    88.554    2.4333    0.3474     1.169   165.982     8.337
 3201.5216    69.835    2.4559    0.2066     0.971   200.000     8.365
 3201.6740    91.534    2.4829    0.3033     1.297   187.466     7.813
 3201.8264    94.965    2.4639    0.3137     2.816   174.025     8.593
 3201.9788    83.516    2.5407    0.3058     0.908   183.736     8.234
 3202.1312   117.167    2.4857    0.2291     2.288   200.000     9.174
 3202.2836    93.079    2.3764    0.3272     2.717   170.577     8.401
 3202.4360   110.358    2.4805    0.3225     2.150   167.779     8.123
 3202.5884    91.605    2.4101    0.3609     2.224   157.238     8.157
 3202.7408    97.422    2.4628    0.2466     2.945   200.000     8.438
 3202.8932   121.009    2.4202    0.3038     3.638   178.905     7.884
 3203.0456   109.632    2.4885    0.4004     3.558   132.573     8.557
 3203.1980    94.478    2.4825    0.3068     0.983   181.604     8.316
 3203.3504   116.981    2.4977    0.2856     2.236   194.547     8.746
 3203.5028   101.139    2.4134    0.2724     2.229   200.000     8.607
 3203.6552    98.024    2.4922    0.2573     4.828   200.000     8.371
 3203.8076   101.840    2.3575    0.2272     1.617   200.000     8.885
 3203.9600    84.598    2.4944    0.2385     3.151   200.000     8.427
 3204.1124   106.501    2.4924    0.2584     2.830   200.000     8.769
 3204.2648   104.791    2.4260    0.2757     2.121   192.667     8.067
 3204.4172    69.250    2.4537    0.3557     3.530   159.768     8.471
 3204.5696    96.355    2.4363    0.2615     3.127   200.000     8.548
 3204.7220   107.283    2.5088    0.3014     1.411   194.710     8.528
 3204.8744    80.662    2.4845    0.3118     1.097   179.271     9.052
 3205.0268    96.057    2.4635    0.2181     2.604   200.000     9.478
 3205.1792    92.294    2.4405    0.2519     2.066   200.000     9.034
 3205.3316    99.320    2.5134    0.2581     0.635   200.000     8.666
