~VERSION INFORMATION
 VERS.                 2.0    : CWLS LOG ASCII STANDARD
 WRAP.                 NO     : ONE LINE PER DEPTH STEP
~WELL INFORMATION
 WELL.                 29/3-1    : Well name
 FLD .                 Forties         : Field
 CTRY.                 UK       : Country
 STRT.M                2000.0000 : START DEPTH
 STOP.M                3500.0000   : STOP DEPTH
 STEP.M                0.1524        : STEP
 NULL.                 -999.25          : NULL VALUE
 SRVC.                 SubsurfAI        : Service company
~CURVE INFORMATION
 DEPT.M                              : Depth
 GR  .GAPI                           : Gamma Ray
 RHOB.G/C3                           : Bulk Density
 NPHI.V/V                            : Neutron Porosity
 RT  .OHMM                           : True Resistivity
 DT  .US/F                           : Sonic
 CALI.IN                             : Caliper
~PARAMETER INFORMATION
 LAT .                 57.7341   : Latitude
 LON .                 0.5432   : Longitude
 DESC.                 Forties Fm — Paleocene submarine fan sandstone
~A  DEPT        GR        RHOB      NPHI      RT        DT        CALI
# ...
 2981.6084    31.795    2.2952    0.2107    56.498   200.000     8.263
 2981.7608    29.669    2.2182    0.1654   163.841   200.000     8.474
 2981.9132    40.594    2.2213    0.2092   146.724   200.000     8.202
 2982.0656    28.486    2.1487    0.1494    38.168   200.000     8.631
 2982.2180    22.446    2.2567    0.1645    69.725   200.000     8.231
 2982.3704    28.219    2.2731    0.2266   100.741   200.000     7.739
 2982.5228    24.276    2.2129    0.2396    84.322   200.000     8.309
 2982.6752    28.240    2.2136    0.2188    64.755   200.000     8.420
 2982.8276    25.841    2.2444    0.1950   108.155   200.000     8.183
 2982.9800    33.226    2.2070    0.2295    62.086   200.000     8.348
 2983.1324    25.353    2.2386    0.2946    48.881   178.753     8.906
 2983.2848    26.197    2.2453    0.2277   136.167   200.000     7.527
 2983.4372    31.985    2.1989    0.2260    60.669   200.000     8.379
 2983.5896    33.565    2.1960    0.1996   424.311   200.000     8.631
 2983.7420    34.112    2.2990    0.2748    73.933   200.000     8.012
 2983.8944    20.810    2.1305    0.1956    76.221   200.000     7.936
 2984.0468    31.628    2.2156    0.2151   101.195   200.000     8.228
 2984.1992    25.783    2.3200    0.1960    42.888   200.000     8.421
 2984.3516    27.522    2.2492    0.2329    52.716   200.000     8.498
 2984.5040    30.428    2.2574    0.2090    78.344   200.000     8.188
 2984.6564    32.834    2.2499    0.1519    65.113   200.000     7.732
 2984.8088    35.071    2.1733    0.2127    74.205   200.000     9.045
 2984.9612    29.411    2.2278    0.2345   109.380   200.000     8.493
 2985.1136    20.248    2.2227    0.2136   124.969   200.000     8.730
 2985.2660    21.465    2.1724    0.1624    35.759   200.000     8.594
 2985.4184    25.797    2.2508    0.1517    42.563   200.000     8.013
 2985.5708    24.754    2.1676    0.1957    82.941   200.000     7.808
 2985.7232    27.151    2.1962    0.2135   122.951   200.000     8.651
 2985.8756    29.674    2.2600    0.1860    30.722   200.000     8.861
 2986.0280    32.092    2.2476    0.2464   114.166   200.000     8.492
 2986.1804    35.535    2.2718    0.1609    52.963   200.000     8.154
 2986.3328    29.278    2.2707    0.2057    81.407   200.000     7.899
 2986.4852    29.748    2.3113    0.2418    89.286   200.000     8.404
 2986.6376    28.684    2.2334    0.2293   173.829   200.000     8.037
 2986.7900    27.718    2.2428    0.2285   115.345   200.000     8.048
 2986.9424    28.577    2.2475    0.2105    80.585   200.000     8.397
 2987.0948    23.037    2.2110    0.1822    56.502   200.000     8.210
 2987.2472    23.373    2.1463    0.2131   102.575   200.000     8.918
 2987.3996    30.873    2.1925    0.2390   124.395   200.000     8.508
 2987.5520    30.338    2.2194    0.2319    91.869   200.000     8.505
 2987.7044    15.968    2.3130    0.1548    31.147   200.000     7.668
 2987.8568    27.851    2.1890    0.1996   141.511   200.000     8.624
 2988.0092    29.247    2.2080    0.2064    99.372   200.000     8.602
 2988.1616    22.670    2.1755    0.2331    73.022   200.000     8.701
 2988.3140    36.482    2.2752    0.2064    54.095   200.000     9.191
 2988.4664    28.384    2.1404    0.1537    66.209   200.000     8.118
 2988.6188    32.563    2.1940    0.1914    34.561   200.000     8.636
 2988.7712    25.541    2.2309    0.2045   209.388   200.000     8.981
 2988.9236    26.926    2.2722    0.2874    88.765   197.623     8.434
 2989.0760    26.525    2.2125    0.1759    75.062   200.000     8.157
 2989.2284    25.006    2.1654    0.2095    59.495   200.000     8.811
 2989.3808    30.553    2.2230    0.1711    84.595   200.000     7.763
 2989.5332    25.074    2.2114    0.1906    35.423   200.000     8.556
 2989.6856    32.883    2.1794    0.2286    60.811   200.000     8.136
 2989.8380    32.824    2.2739    0.2013    80.653   200.000     8.035
 2989.9904    19.413    2.1745    0.2100   126.004   200.000     8.699
 2990.1428    24.174    2.2518    0.2790    53.937   200.000     8.165
 2990.2952    25.955    2.1699    0.1750    96.783   200.000     8.184
 2990.4476    31.123    2.1988    0.2319    86.937   200.000     8.529
 2990.6000    25.950    2.2648    0.2192    62.790   200.000     8.293
 2990.7524    25.525    2.2034    0.1738   142.308   200.000     8.636
 2990.9048    30.547    2.2596    0.2850    72.864   192.499     8.345
 2991.0572    34.365    2.2183    0.2023   104.403   200.000     8.550
 2991.2096    25.981    2.2911    0.2415    58.910   200.000     8.520
 2991.3620    28.640    2.2839    0.2505    72.690   200.000     8.639
 2991.5144    22.133    2.1971    0.2286    53.872   200.000     8.544
 2991.6668    18.403    2.2902    0.1748   101.512   200.000     8.900
 2991.8192    24.269    2.2745    0.1929    31.385   200.000     8.656
 2991.9716    27.745    2.2531    0.2316    23.747   200.000     8.477
 2992.1240    22.876    2.2842    0.2581    44.156   200.000     8.310
 2992.2764    21.540    2.2665    0.2683    50.817   200.000     8.372
 2992.4288    26.009    2.2048    0.2210    56.310   200.000     8.301
 2992.5812    29.991    2.2279    0.2320    76.528   200.000     8.133
 2992.7336    29.871    2.2346    0.2282   151.869   200.000     8.024
 2992.8860    26.046    2.2143    0.1958    83.643   200.000     8.611
 2993.0384    28.384    2.2104    0.2389    53.551   200.000     8.527
 2993.1908    35.967    2.2285    0.1952    93.756   200.000     8.562
 2993.3432    23.762    2.2320    0.1509    57.655   200.000     8.592
 2993.4956    28.385    2.2395    0.2290   119.838   200.000     8.460
 2993.6480    30.119    2.2165    0.2275    68.420   200.000     9.241
 2993.8004    27.513    2.2448    0.2418    52.116   200.000     8.433
 2993.9528    29.099    2.2450    0.2343   150.557   200.000     8.220
 2994.1052    21.193    2.2687    0.2359    40.838   200.000     8.143
 2994.2576    23.241    2.2618    0.2028    46.392   200.000     8.057
 2994.4100    26.703    2.2106    0.1663    58.843   200.000     7.883
 2994.5624    24.412    2.2157    0.2538    63.770   200.000     8.647
 2994.7148    22.552    2.2085    0.2753   121.333   195.315     8.018
 2994.8672    30.910    2.2455    0.1702    47.278   200.000     8.851
 2995.0196    29.389    2.1543    0.1645    64.855   200.000     8.276
 2995.1720    36.481    2.1942    0.2381    34.195   200.000     8.244
 2995.3244    32.093    2.2440    0.2301   130.705   200.000     8.624
 2995.4768    33.351    2.1212    0.2105   163.925   200.000     8.234
 2995.6292    32.895    2.1565    0.1627   155.205   200.000     8.408
 2995.7816    29.820    2.2028    0.2423    84.660   200.000     8.883
 2995.9340    24.312    2.2731    0.2011   118.352   200.000     7.859
 2996.0864    31.887    2.1937    0.1930    22.086   200.000     8.191
 2996.2388    30.224    2.2720    0.2156    64.556   200.000     8.629
 2996.3912    29.200    2.2753    0.2459   124.079   200.000     8.640
 2996.5436    32.861    2.1978    0.1798    94.238   200.000     7.996
 2996.6960    19.362    2.1899    0.1819   137.898   200.000     8.263
 2996.8484    29.279    2.2197    0.2379   110.861   200.000     7.756
 2997.0008    21.640    2.2963    0.1763    82.228   200.000     8.186
 2997.1532    25.374    2.2558    0.2683    67.007   200.000     7.543
 2997.3056    28.956    2.2836    0.1921    89.384   200.000     9.009
 2997.4580    31.845    2.2796    0.1814    34.435   200.000     8.810
 2997.6104    31.168    2.2555    0.2055   195.420   200.000     8.663
 2997.7628    30.108    2.2181    0.2443    38.905   200.000     8.588
 2997.9152    31.219    2.2381    0.1793   117.393   200.000     8.811
 2998.0676    21.412    2.1531    0.2390    89.633   200.000     8.835
 2998.2200    27.351    2.3149    0.2284    69.886   200.000     8.958
 2998.3724    21.456    2.2292    0.1970    47.528   200.000     7.763
 2998.5248    24.990    2.1790    0.2322   191.531   200.000     8.663
 2998.6772    37.550    2.2436    0.2291   120.488   200.000     8.518
