~VERSION INFORMATION
 VERS.                 2.0    : CWLS LOG ASCII STANDARD
 WRAP.                 NO     : ONE LINE PER DEPTH STEP
~WELL INFORMATION
 WELL.                 29/3-1    : Well name
 FLD .                 Forties         : Field
 CTRY.                 UK       : Country
 STRT.M                2000.0000 : START DEPTH
 STOP.M                3500.0000   : STOP DEPTH
 STEP.M                0.1524        : STEP
 NULL.                 -999.25          : NULL VALUE
 SRVC.                 SubsurfAI        : Service company
~CURVE INFORMATION
 DEPT.M                              : Depth
 GR  .GAPI                           : Gamma Ray
 RHOB.G/C3                           : Bulk Density
 NPHI.V/V                            : Neutron Porosity
 RT  .OHMM                           : True Resistivity
 DT  .US/F                           : Sonic
 CALI.IN                             : Caliper
~PARAMETER INFORMATION
 LAT .                 57.7341   : Latitude
 LON .                 0.5432   : Longitude
 DESC.                 Forties Fm — Paleocene submarine fan sandstone
~A  DEPT        GR        RHOB      NPHI      RT        DT        CALI
 2000.0000   105.407    2.5082    0.2978     2.114   182.990     7.964
 2000.1524    97.689    2.4559    0.3093     2.443   177.377     9.044
 2000.3048    90.994    2.4667    0.2530     1.572   200.000     8.766
 2000.4572    99.625    2.3715    0.2778     2.393   198.087     8.959
 2000.6096   104.247    2.5054    0.3775     3.294   155.150     8.390
 2000.7620   102.583    2.4469    0.3910     1.426   140.184     8.963
 2000.9144    86.343    2.4866    0.3336     2.539   165.455     8.906
 2001.0668   127.650    2.3865    0.3278     0.748   168.837     9.283
 2001.2192    84.848    2.4387    0.2741     0.718   200.000     8.869
 2001.3716    84.401    2.4866    0.3212     2.332   159.723     8.700
 2001.5240    85.671    2.5088    0.2399     1.062   200.000     7.826
 2001.6764   105.240    2.4398    0.2748     1.833   200.000     7.897
 2001.8288    90.671    2.3572    0.2587     1.187   200.000     7.992
 2001.9812   112.934    2.4329    0.2896     1.257   190.725     8.778
 2002.1336   102.812    2.4798    0.3333     2.598   163.046     8.809
 2002.2860   100.365    2.3855    0.3164     1.861   185.525     8.580
 2002.4384   114.129    2.5053    0.3233     2.723   175.774     9.002
 2002.5908    92.407    2.5183    0.3147     3.970   170.170     8.160
 2002.7432   116.800    2.5080    0.3005     3.441   184.651     8.655
 2002.8956   113.558    2.4720    0.2488     2.384   200.000     8.813
 2003.0480    98.403    2.5181    0.2283     3.542   200.000     8.274
 2003.2004   128.681    2.5149    0.3428     2.678   165.563     9.058
 2003.3528    76.246    2.4628    0.3088     6.051   179.385     8.390
 2003.5052    98.730    2.5084    0.2698     1.699   200.000     7.832
 2003.6576   104.381    2.6153    0.2921     1.574   192.169     7.903
 2003.8100   101.655    2.4265    0.3278     1.435   172.149     8.498
 2003.9624   121.193    2.4694    0.2927     1.899   188.806     9.058
 2004.1148   128.599    2.4127    0.2783     2.140   191.938     9.360
 2004.2672    97.391    2.5095    0.3971     1.738   131.142     9.013
 2004.4196   119.533    2.5103    0.3350     2.172   155.595     8.926
 2004.5720   132.130    2.5010    0.2675     1.819   200.000     8.253
 2004.7244   111.611    2.4669    0.2468     1.140   200.000     8.754
 2004.8768   113.354    2.4339    0.3295     1.244   158.811     8.682
 2005.0292   112.681    2.5013    0.3125     2.376   176.867     8.790
 2005.1816   124.860    2.4208    0.2636     1.095   200.000     8.907
 2005.3340   104.696    2.4905    0.3676     2.641   158.182     8.343
 2005.4864   121.079    2.4012    0.3028     1.016   181.525     8.438
 2005.6388    97.193    2.4360    0.3374     2.200   167.851     8.277
 2005.7912    77.767    2.4619    0.4091     3.614   137.618     8.422
 2005.9436    84.853    2.4934    0.2989     2.188   181.076     8.687
 2006.0960    92.893    2.4983    0.3229     1.253   180.258     8.328
 2006.2484   102.099    2.3732    0.3713     2.254   144.005     8.459
 2006.4008   104.036    2.5609    0.3240     3.573   173.567     9.253
 2006.5532   124.994    2.5241    0.3593     3.754   144.828     9.416
 2006.7056   128.636    2.3978    0.3183     4.464   174.186     8.453
 2006.8580    90.687    2.4617    0.2996     3.544   180.177     8.835
 2007.0104    84.363    2.4756    0.3332     0.748   167.192     7.977
 2007.1628   105.134    2.4473    0.3677     5.241   145.110     8.857
 2007.3152   132.650    2.4887    0.2713     2.388   200.000     9.291
 2007.4676   133.354    2.4381    0.2965     0.926   192.349     8.991
 2007.6200   100.586    2.5648    0.2445     3.734   200.000     9.002
 2007.7724   106.831    2.5511    0.3185     2.337   170.959     8.549
 2007.9248   105.684    2.4420    0.3274     3.795   162.955     8.275
 2008.0772    81.449    2.4496    0.3162     4.380   178.044     9.065
 2008.2296   117.200    2.4387    0.3206     1.890   165.454     8.357
 2008.3820   112.673    2.5127    0.2832     2.304   183.951     8.096
 2008.5344    99.029    2.4129    0.3017     4.024   189.122     8.105
 2008.6868   146.303    2.4081    0.3359     1.760   168.561     7.745
 2008.8392   110.725    2.4269    0.3185     1.500   175.552     9.353
 2008.9916    81.323    2.4275    0.2963     1.178   192.616     7.951
 2009.1440   113.765    2.4825    0.3085     2.612   173.249     9.204
 2009.2964   120.080    2.4694    0.2407     1.149   200.000     8.556
 2009.4488   133.862    2.4882    0.3352     1.632   163.784     9.243
 2009.6012    93.920    2.4458    0.2402     0.755   200.000     8.412
 2009.7536   131.729    2.5548    0.3022     1.674   178.736     8.688
 2009.9060   106.439    2.5612    0.2120     0.861   200.000     8.594
 2010.0584    79.010    2.4639    0.3472     4.969   154.427     8.927
 2010.2108   101.439    2.4495    0.3250     1.150   169.097     8.255
 2010.3632   119.676    2.4514    0.3210     3.692   175.728     8.305
 2010.5156    96.386    2.4735    0.4081     1.607   133.187     8.355
 2010.6680   116.169    2.4647    0.2504     3.337   200.000     9.181
 2010.8204   123.604    2.4902    0.2698     1.930   197.067     8.477
 2010.9728    82.724    2.4877    0.2846     3.416   194.596     9.512
 2011.1252   117.955    2.5478    0.3026     2.760   170.911     8.175
 2011.2776   106.771    2.5097    0.2955     1.663   187.092     8.779
 2011.4300    98.335    2.4517    0.3217     0.630   164.781     8.659
 2011.5824    73.363    2.4638    0.3236     1.963   171.115     8.194
 2011.7348    84.308    2.4647    0.3077     3.855   180.851     7.959
 2011.8872   122.680    2.5500    0.3178     2.304   174.863     8.617
 2012.0396    95.714    2.4338    0.3365     1.356   161.674     8.557
 2012.1920    88.949    2.4832    0.3727     1.210   144.222     8.258
 2012.3444    85.708    2.4283    0.2740     2.005   200.000     8.279
 2012.4968    94.183    2.5265    0.2739     1.421   200.000     8.280
 2012.6492   113.644    2.4962    0.2765     1.788   198.856     8.324
 2012.8016    98.592    2.4143    0.2392     0.872   200.000     8.338
 2012.9540   125.150    2.5243    0.2454     3.817   200.000     9.009
 2013.1064   138.371    2.3954    0.2944     3.703   188.726     8.327
 2013.2588    98.601    2.5754    0.3511     1.913   156.050     8.488
 2013.4112    93.724    2.4187    0.3157     1.436   167.788     8.263
 2013.5636    97.480    2.5039    0.3662     0.986   150.273     7.594
 2013.7160   122.431    2.4325    0.3410     3.483   165.356     8.737
 2013.8684   110.045    2.5109    0.2337     1.360   200.000     8.414
 2014.0208    87.882    2.4281    0.3373     2.063   167.654     8.223
 2014.1732    92.104    2.3737    0.3938     3.902   146.653     8.352
 2014.3256   101.556    2.3740    0.3477     4.281   167.639     8.466
 2014.4780    85.969    2.4076    0.3389     2.065   160.134     8.338
 2014.6304    91.547    2.4816    0.2917     1.518   191.323     8.670
 2014.7828   116.590    2.4937    0.2812     1.437   188.166     8.689
 2014.9352   100.187    2.4694    0.3146     3.512   177.133     8.556
 2015.0876    98.966    2.4953    0.2759     1.053   192.855     7.987
 2015.2400   103.533    2.4158    0.3869     4.540   140.976     9.194
 2015.3924   117.514    2.4479    0.3213     1.530   174.664     7.973
 2015.5448   115.229    2.3856    0.3867     3.450   153.162     9.397
 2015.6972   115.560    2.5325    0.3668     1.272   149.167     8.342
 2015.8496   103.946    2.4795    0.3041     2.428   183.604     7.838
 2016.0020   125.446    2.4991    0.3590     3.063   162.513     8.887
 2016.1544    94.864    2.4219    0.2660     2.766   200.000     8.334
 2016.3068   137.667    2.4738    0.2767     2.578   200.000     8.808
 2016.4592    81.248    2.3813    0.2626     2.650   200.000     8.551
 2016.6116    91.841    2.5424    0.2915     3.494   187.699     7.828
 2016.7640   112.441    2.4569    0.2286     4.350   200.000     8.870
 2016.9164   117.077    2.4146    0.3338     1.152   164.004     8.615
 2017.0688    92.245    2.5095    0.3429     6.034   156.590     8.065
