~VERSION INFORMATION
 VERS.                 2.0    : CWLS LOG ASCII STANDARD
 WRAP.                 NO     : ONE LINE PER DEPTH STEP
~WELL INFORMATION
 WELL.                 29/3-1    : Well name
 FLD .                 Forties         : Field
 CTRY.                 UK       : Country
 STRT.M                2000.0000 : START DEPTH
 STOP.M                3500.0000   : STOP DEPTH
 STEP.M                0.1524        : STEP
 NULL.                 -999.25          : NULL VALUE
 SRVC.                 SubsurfAI        : Service company
~CURVE INFORMATION
 DEPT.M                              : Depth
 GR  .GAPI                           : Gamma Ray
 RHOB.G/C3                           : Bulk Density
 NPHI.V/V                            : Neutron Porosity
 RT  .OHMM                           : True Resistivity
 DT  .US/F                           : Sonic
 CALI.IN                             : Caliper
~PARAMETER INFORMATION
 LAT .                 57.7341   : Latitude
 LON .                 0.5432   : Longitude
 DESC.                 Forties Fm — Paleocene submarine fan sandstone
~A  DEPT        GR        RHOB      NPHI      RT        DT        CALI
# ...
 3084.9356    32.310    2.3004    0.2255    90.272   200.000     9.487
 3085.0880    28.319    2.2288    0.1752    52.772   200.000     8.702
 3085.2404    30.631    2.2258    0.2422   113.944   200.000     9.220
 3085.3928    35.425    2.2062    0.2338    76.704   200.000     8.000
 3085.5452    25.938    2.2148    0.2703    62.155   200.000     8.468
 3085.6976    34.438    2.1981    0.2230   161.854   200.000     8.358
 3085.8500    28.231    2.2903    0.2114    57.837   200.000     8.762
 3086.0024    27.526    2.2700    0.1881    49.570   200.000     9.200
 3086.1548    23.160    2.3126    0.2436    38.271   200.000     8.555
 3086.3072    37.040    2.2696    0.2649    75.815   200.000     8.385
 3086.4596    29.829    2.2255    0.2342    68.859   200.000     8.596
 3086.6120    21.555    2.2365    0.2608   130.403   200.000     8.306
 3086.7644    26.970    2.2593    0.1882    90.641   200.000     8.534
 3086.9168    19.727    2.1727    0.2146   106.049   200.000     8.513
 3087.0692    21.172    2.2212    0.2342   117.543   200.000     8.329
 3087.2216    14.685    2.1874    0.1905    52.698   200.000     8.531
 3087.3740    24.254    2.1844    0.2142    44.723   200.000     8.717
 3087.5264    32.884    2.2449    0.2653    61.917   200.000     8.373
 3087.6788    25.379    2.2479    0.1606   183.689   200.000     8.134
 3087.8312    35.124    2.2872    0.2203   165.234   200.000     8.680
 3087.9836    34.697    2.2455    0.2444    89.007   200.000     7.845
 3088.1360    24.302    2.2423    0.2252    53.710   200.000     8.405
 3088.2884    24.524    2.2259    0.1940   200.253   200.000     8.056
 3088.4408    23.782    2.2690    0.2566    77.215   200.000     8.886
 3088.5932    33.605    2.2588    0.1592   116.938   200.000     8.541
 3088.7456    28.539    2.2695    0.2107   116.824   200.000     8.794
 3088.8980    28.674    2.2913    0.2363    66.865   200.000     7.681
 3089.0504    30.389    2.3190    0.2335    64.900   200.000     8.769
 3089.2028    32.782    2.1857    0.2307   162.606   200.000     8.458
 3089.3552    18.531    2.3032    0.1981   101.248   200.000     8.812
 3089.5076    32.033    2.2378    0.2024    47.815   200.000     8.779
 3089.6600    32.518    2.2452    0.2224   107.688   200.000     7.961
 3089.8124    28.896    2.1644    0.1566    39.660   200.000     8.471
 3089.9648    24.939    2.2375    0.2068    79.498   200.000     8.414
 3090.1172    27.861    2.1893    0.2731    63.085   198.479     8.707
 3090.2696    28.525    2.2196    0.2538    76.991   200.000     8.439
 3090.4220    28.589    2.2203    0.2236    86.753   200.000     7.728
 3090.5744    22.881    2.1813    0.2737    41.878   200.000     9.642
 3090.7268    28.336    2.1969    0.2628    71.800   200.000     8.185
 3090.8792    24.336    2.2189    0.1362    81.824   200.000     8.800
 3091.0316    26.007    2.1690    0.3117    80.804   185.759     8.693
 3091.1840    24.588    2.2526    0.2327    57.032   200.000     8.225
 3091.3364    29.922    2.2302    0.1943    61.583   200.000     8.428
 3091.4888    29.858    2.2496    0.1974    82.445   200.000     8.579
 3091.6412    18.256    2.2529    0.1800    34.449   200.000     8.094
 3091.7936    27.231    2.2671    0.1978   139.940   200.000     8.205
 3091.9460    29.866    2.3384    0.1965   205.477   200.000     8.694
 3092.0984    36.375    2.1903    0.2045    77.474   200.000     8.266
 3092.2508    24.317    2.2382    0.1995    81.552   200.000     8.517
 3092.4032    23.053    2.1975    0.2617    32.006   200.000     8.867
 3092.5556    29.016    2.2677    0.2414    98.614   200.000     7.921
 3092.7080    22.231    2.2585    0.1902   109.989   200.000     8.725
 3092.8604    27.285    2.2542    0.2197   103.736   200.000     8.771
 3093.0128    35.092    2.2355    0.2341    60.787   200.000     8.391
 3093.1652    22.218    2.1842    0.2468    82.102   200.000     8.534
 3093.3176    28.126    2.2419    0.2397    42.684   200.000     9.020
 3093.4700    21.951    2.2237    0.2059    90.383   200.000     9.185
 3093.6224    27.979    2.2309    0.1876    95.840   200.000     8.599
 3093.7748    26.312    2.2613    0.2049    48.147   200.000     8.639
 3093.9272    29.978    2.2486    0.2448   177.037   200.000     8.068
 3094.0796    21.822    2.2591    0.1792   119.094   200.000     8.708
 3094.2320    30.860    2.2403    0.2168    43.643   200.000     8.015
 3094.3844    30.862    2.2746    0.1717    62.556   200.000     8.263
 3094.5368    26.003    2.2335    0.2075    37.548   200.000     8.411
 3094.6892    27.441    2.2223    0.2184    43.613   200.000     8.187
 3094.8416    33.545    2.2577    0.2734    65.948   200.000     8.083
 3094.9940    23.506    2.1628    0.1793    39.362   200.000     8.313
 3095.1464    27.060    2.2224    0.1780    75.826   200.000     8.649
 3095.2988    25.027    2.2723    0.2180    54.577   200.000     8.439
 3095.4512    23.158    2.1973    0.2151    93.315   200.000     8.950
 3095.6036    27.137    2.1871    0.1810    67.328   200.000     8.151
 3095.7560    15.361    2.2589    0.1684    60.190   200.000     8.816
 3095.9084    27.175    2.1839    0.2365    19.291   200.000     9.254
 3096.0608    23.033    2.1782    0.1743   148.939   200.000     8.348
 3096.2132    25.018    2.2411    0.1772   123.932   200.000     8.971
 3096.3656    27.925    2.2842    0.2137    38.342   200.000     8.382
 3096.5180    23.108    2.2023    0.2352    69.877   200.000     9.064
 3096.6704    24.615    2.1678    0.1986    77.229   200.000     7.985
 3096.8228    23.191    2.1574    0.2376    91.099   200.000     8.226
 3096.9752    25.171    2.2016    0.1863   116.919   200.000     8.656
 3097.1276    21.998    2.1856    0.1679    29.936   200.000     7.972
 3097.2800    23.743    2.2423    0.3020   114.034   187.299     8.353
 3097.4324    24.063    2.2774    0.1987    61.147   200.000     9.042
 3097.5848    31.765    2.2571    0.2416   144.185   200.000     8.656
 3097.7372    29.252    2.2633    0.2113    69.065   200.000     9.309
 3097.8896    25.813    2.2664    0.1567    60.964   200.000     8.706
 3098.0420    32.097    2.1951    0.1827    87.994   200.000     8.881
 3098.1944    23.809    2.3115    0.2193   291.036   200.000     8.823
 3098.3468    31.741    2.1816    0.2010   145.469   200.000     8.763
 3098.4992    45.010    2.2308    0.2124    72.378   200.000     9.174
 3098.6516    28.608    2.2328    0.2063   154.631   200.000     8.256
 3098.8040    21.963    2.1385    0.2070    54.870   200.000     8.433
 3098.9564    32.968    2.2369    0.2014    65.100   200.000     8.476
 3099.1088    21.278    2.2538    0.2126    46.577   200.000     8.707
 3099.2612    31.783    2.2271    0.1609    58.707   200.000     8.670
 3099.4136    29.264    2.1868    0.2513    30.707   200.000     8.982
 3099.5660    32.148    2.2190    0.2242   107.342   200.000     8.889
 3099.7184    24.254    2.3111    0.2439    85.022   200.000     8.586
 3099.8708    32.128    2.2407    0.1619    59.946   200.000     8.223
 3100.0232    28.222    2.2677    0.2033    70.476   200.000     8.929
 3100.1756    30.978    2.2439    0.1822    54.645   200.000     8.174
 3100.3280    31.489    2.2069    0.1779    68.107   200.000     8.738
 3100.4804    25.127    2.2726    0.2248    83.376   200.000     8.397
 3100.6328    38.286    2.1896    0.2885    75.914   188.885     8.394
 3100.7852    31.728    2.1942    0.2339    57.796   200.000     7.946
 3100.9376    25.339    2.2230    0.1948    44.186   200.000     7.850
 3101.0900    18.611    2.3307    0.1984   129.160   200.000     8.438
 3101.2424    30.996    2.1823    0.2251    62.315   200.000     8.149
 3101.3948    24.260    2.1597    0.2415   183.476   200.000     8.647
 3101.5472    30.441    2.1930    0.2045    74.361   200.000     8.053
 3101.6996    23.122    2.2322    0.2337    60.804   200.000     7.936
 3101.8520    28.872    2.2050    0.2790    77.336   197.683     8.530
 3102.0044    26.932    2.2179    0.2060    59.387   200.000     9.029
