~VERSION INFORMATION
 VERS.                 2.0    : CWLS LOG ASCII STANDARD
 WRAP.                 NO     : ONE LINE PER DEPTH STEP
~WELL INFORMATION
 WELL.                 29/3-1    : Well name
 FLD .                 Forties         : Field
 CTRY.                 UK       : Country
 STRT.M                2000.0000 : START DEPTH
 STOP.M                3500.0000   : STOP DEPTH
 STEP.M                0.1524        : STEP
 NULL.                 -999.25          : NULL VALUE
 SRVC.                 SubsurfAI        : Service company
~CURVE INFORMATION
 DEPT.M                              : Depth
 GR  .GAPI                           : Gamma Ray
 RHOB.G/C3                           : Bulk Density
 NPHI.V/V                            : Neutron Porosity
 RT  .OHMM                           : True Resistivity
 DT  .US/F                           : Sonic
 CALI.IN                             : Caliper
~PARAMETER INFORMATION
 LAT .                 57.7341   : Latitude
 LON .                 0.5432   : Longitude
 DESC.                 Forties Fm — Paleocene submarine fan sandstone
~A  DEPT        GR        RHOB      NPHI      RT        DT        CALI
# ...
 2396.0876    31.985    2.2285    0.1931    42.251   200.000     9.594
 2396.2400    32.936    2.2927    0.1808    39.583   200.000     8.119
 2396.3924    38.653    2.2301    0.1655   141.087   200.000     8.872
 2396.5448    39.376    2.2498    0.1659    20.736   200.000     8.616
 2396.6972    36.536    2.2494    0.2416    52.077   200.000     8.108
 2396.8496    24.779    2.2754    0.1876    64.420   200.000     8.535
 2397.0020    30.760    2.2296    0.2084    78.078   200.000     8.569
 2397.1544    35.984    2.1858    0.1740    35.465   200.000     8.495
 2397.3068    27.360    2.2259    0.2259   105.949   200.000     8.385
 2397.4592    30.957    2.3089    0.1954    79.511   200.000     7.909
 2397.6116    32.941    2.2303    0.2203    46.444   200.000     8.268
 2397.7640    38.096    2.2818    0.1736    87.995   200.000     7.564
 2397.9164    22.012    2.2702    0.1861   169.213   200.000     8.534
 2398.0688    28.347    2.2342    0.1990    25.153   200.000     8.843
 2398.2212    29.760    2.2808    0.1652    53.215   200.000     8.637
 2398.3736    32.028    2.1918    0.1605    81.301   200.000     8.399
 2398.5260    39.219    2.1868    0.1753    24.126   200.000     8.122
 2398.6784    41.789    2.2758    0.2410    40.981   200.000     8.626
 2398.8308    41.763    2.1983    0.2017    43.218   200.000     9.004
 2398.9832    30.071    2.2190    0.1461    70.799   200.000     8.437
 2399.1356    31.623    2.2044    0.1744    29.776   200.000     8.607
 2399.2880    27.530    2.2534    0.2001    28.256   200.000     8.668
 2399.4404    28.700    2.2394    0.1946    88.208   200.000     8.350
 2399.5928    26.958    2.1824    0.1793    51.395   200.000     8.394
 2399.7452    34.153    2.2807    0.2258    40.193   200.000     8.334
 2399.8976    31.690    2.2634    0.1884    73.640   200.000     9.055
 2400.0500    26.786    2.2473    0.2095    58.219   200.000     7.789
 2400.2024    32.514    2.2893    0.1681    29.724   200.000     8.446
 2400.3548    27.384    2.3039    0.2221    29.370   200.000     8.124
 2400.5072    30.899    2.2495    0.1522    63.071   200.000     8.655
 2400.6596    36.381    2.2771    0.1685    49.707   200.000     9.015
 2400.8120    35.055    2.3169    0.1836    36.206   200.000     8.491
 2400.9644    28.736    2.2478    0.1926    60.738   200.000     8.294
 2401.1168    35.909    2.2767    0.1553    64.558   200.000     8.689
 2401.2692    33.146    2.2620    0.1624    88.121   200.000     8.689
 2401.4216    34.774    2.1857    0.2014    19.350   200.000     8.498
 2401.5740    32.136    2.2206    0.1534    30.789   200.000     8.461
 2401.7264    37.893    2.2528    0.1842    96.270   200.000     8.490
 2401.8788    32.681    2.3044    0.1689    38.060   200.000     8.036
 2402.0312    33.979    2.2837    0.1782    28.703   200.000     8.653
 2402.1836    30.055    2.3533    0.2263    25.642   200.000     8.146
 2402.3360    29.683    2.2529    0.2121    40.723   200.000     8.596
 2402.4884    26.485    2.3077    0.2095    47.405   200.000     8.110
 2402.6408    35.507    2.3076    0.1673    71.213   200.000     8.595
 2402.7932    35.105    2.1929    0.1923    32.137   200.000     8.331
 2402.9456    30.419    2.1521    0.2192    98.274   200.000     8.030
 2403.0980    35.125    2.2405    0.1688    35.136   200.000     8.623
 2403.2504    30.439    2.2275    0.2087    25.984   200.000     8.683
 2403.4028    29.561    2.2948    0.1754    32.723   200.000     8.664
 2403.5552    37.776    2.2911    0.1784    39.798   200.000     8.422
 2403.7076    33.764    2.2786    0.1959    34.742   200.000     8.552
 2403.8600    38.572    2.2889    0.1780    36.728   200.000     8.661
 2404.0124    36.285    2.2484    0.2030    53.496   200.000     9.127
 2404.1648    36.369    2.3409    0.2423    56.672   200.000     8.765
 2404.3172    28.822    2.2401    0.1227    23.368   200.000     8.172
 2404.4696    28.782    2.3373    0.1598    42.251   200.000     8.091
 2404.6220    36.689    2.2596    0.1944    44.963   200.000     8.281
 2404.7744    36.470    2.2690    0.2186    34.410   200.000     8.692
 2404.9268    32.225    2.3425    0.1791    63.413   200.000     7.969
 2405.0792    36.425    2.2925    0.1618    44.485   200.000     8.923
 2405.2316    29.264    2.2600    0.1533    49.414   200.000     8.628
 2405.3840    34.645    2.2164    0.1686    76.417   200.000     8.995
 2405.5364    35.344    2.2996    0.1720    48.647   200.000     7.590
 2405.6888    28.358    2.1964    0.1735    31.070   200.000     8.455
 2405.8412    35.118    2.2695    0.1769    48.894   200.000     8.789
 2405.9936    30.642    2.2720    0.1851    65.025   200.000     8.209
 2406.1460    29.431    2.2654    0.1800    51.363   200.000     8.604
 2406.2984    25.773    2.3423    0.1654    43.608   200.000     8.356
 2406.4508    30.540    2.2014    0.2154    80.542   200.000     8.517
 2406.6032    34.804    2.3286    0.1874    25.800   200.000     8.499
 2406.7556    42.204    2.2621    0.2093   118.231   200.000     8.797
 2406.9080    24.407    2.3500    0.1880    35.832   200.000     9.137
 2407.0604    39.002    2.3049    0.1826    65.798   200.000     8.045
 2407.2128    31.684    2.2971    0.1737    23.266   200.000     8.268
 2407.3652    27.324    2.2469    0.1576   110.311   200.000     8.528
 2407.5176    38.221    2.2430    0.2318    79.340   200.000     8.861
 2407.6700    29.739    2.3085    0.1976    55.838   200.000     8.828
 2407.8224    28.606    2.2802    0.2312    52.847   200.000     8.607
 2407.9748    32.924    2.3884    0.2303    41.648   200.000     8.530
 2408.1272    30.496    2.2907    0.1389   111.243   200.000     9.207
 2408.2796    30.025    2.2578    0.1623    46.937   200.000     8.907
 2408.4320    32.208    2.2109    0.1927    45.194   200.000     8.787
 2408.5844    31.936    2.2707    0.1578    74.297   200.000     8.402
 2408.7368    33.767    2.3107    0.1916   137.331   200.000     8.246
 2408.8892    33.854    2.2608    0.1810    45.616   200.000     8.079
 2409.0416    30.428    2.2707    0.1948    39.802   200.000     9.122
 2409.1940    30.945    2.1898    0.1431    53.315   200.000     8.573
 2409.3464    35.511    2.2895    0.2091    17.385   200.000     8.988
 2409.4988    31.888    2.2485    0.1526    34.531   200.000     8.827
 2409.6512    41.467    2.3180    0.1894    40.165   200.000     9.022
 2409.8036    27.761    2.2464    0.2214    23.417   200.000     8.624
 2409.9560    30.445    2.2873    0.2496    67.079   200.000     8.935
 2410.1084    25.951    2.2686    0.2034    58.054   200.000     8.450
 2410.2608    32.295    2.3333    0.2003    33.171   200.000     8.494
 2410.4132    26.500    2.2860    0.2055    77.086   200.000     8.524
 2410.5656    24.793    2.3237    0.1623   125.145   200.000     9.062
 2410.7180    24.689    2.3663    0.1859    25.648   200.000     8.567
 2410.8704    29.729    2.2597    0.1703   317.237   200.000     8.522
 2411.0228    38.457    2.3186    0.1744    47.700   200.000     8.746
 2411.1752    33.747    2.2571    0.1944    90.597   200.000     8.124
 2411.3276    33.442    2.1178    0.1606    43.921   200.000     7.989
 2411.4800    33.791    2.2973    0.1931    24.134   200.000     8.678
 2411.6324    26.468    2.3197    0.2227    58.787   200.000     8.410
 2411.7848    27.869    2.2365    0.2138   125.477   200.000     9.249
 2411.9372    31.973    2.2051    0.1737    63.917   200.000     8.736
 2412.0896    27.677    2.2341    0.2186   138.384   200.000     9.020
 2412.2420    28.649    2.2183    0.1669    53.635   200.000     8.961
 2412.3944    28.831    2.2560    0.1521    29.664   200.000     8.129
 2412.5468    20.311    2.1982    0.2332    97.287   200.000     8.378
 2412.6992    45.682    2.2632    0.1833    39.110   200.000     8.379
 2412.8516    36.112    2.2485    0.1643    85.914   200.000     8.783
 2413.0040    36.388    2.3138    0.1618    43.733   200.000     8.877
 2413.1564    27.938    2.1942    0.1688    20.313   200.000     9.066
