~VERSION INFORMATION
 VERS.                 2.0    : CWLS LOG ASCII STANDARD
 WRAP.                 NO     : ONE LINE PER DEPTH STEP
~WELL INFORMATION
 WELL.                 21/2-4    : Well name
 FLD .                 Brent         : Field
 CTRY.                 UK       : Country
 STRT.M                2800.0000 : START DEPTH
 STOP.M                4000.0000   : STOP DEPTH
 STEP.M                0.1524        : STEP
 NULL.                 -999.25          : NULL VALUE
 SRVC.                 SubsurfAI        : Service company
~CURVE INFORMATION
 DEPT.M                              : Depth
 GR  .GAPI                           : Gamma Ray
 RHOB.G/C3                           : Bulk Density
 NPHI.V/V                            : Neutron Porosity
 RT  .OHMM                           : True Resistivity
 DT  .US/F                           : Sonic
 CALI.IN                             : Caliper
~PARAMETER INFORMATION
 LAT .                 61.0521   : Latitude
 LON .                 1.7234   : Longitude
 DESC.                 Brent Group — Etive/Rannoch sandstone, oil rim
~A  DEPT        GR        RHOB      NPHI      RT        DT        CALI
# ...
 3506.0692    13.433    1.5433    0.5009   240.802   137.884     8.682
 3506.2216    16.129    1.5716    0.4927  1283.263   140.240     8.490
 3506.3740    22.998    1.5612    0.5825   648.484   141.323     9.646
 3506.5264    20.575    1.5730    0.5639   505.698   143.303     7.877
 3506.6788    20.288    1.5952    0.4835   595.123   139.668     8.394
 3506.8312    16.487    1.5579    0.5931   463.726   141.450     9.216
 3506.9836    22.287    1.5530    0.4810   499.170   142.426     8.673
 3507.1360    17.777    1.5719    0.5505   988.970   130.209     8.037
 3507.2884    16.927    1.5456    0.5364   329.122   140.907     8.363
 3507.4408    18.361    1.5674    0.3681   319.701   144.341     8.556
 3507.5932    14.846    1.5941    0.6000   324.743   137.957     8.721
 3507.7456    13.490    1.5287    0.5953   640.051   143.099     8.898
 3507.8980    19.256    1.5207    0.5831   609.568   134.921     8.826
 3508.0504    17.256    1.5338    0.5717   355.689   136.535     9.021
 3508.2028    20.142    1.5511    0.6000   950.938   138.618     8.375
 3508.3552    17.917    1.5339    0.4555   328.296   128.184     8.435
 3508.5076    14.674    1.5374    0.6000   401.501   131.580     7.842
 3508.6600    20.021    1.5446    0.6000   243.826   137.681     8.454
 3508.8124    14.532    1.5438    0.6000  1466.556   144.352     8.661
 3508.9648    15.347    1.5000    0.5871   423.454   132.101     8.618
 3509.1172    16.798    1.5394    0.6000  1467.968   142.497     8.365
 3509.2696    12.075    1.5348    0.6000   215.618   137.340     8.122
 3509.4220    19.198    1.5730    0.6000   454.533   133.037     8.206
 3509.5744    21.784    1.5676    0.6000   842.700   134.787     8.546
 3509.7268    16.295    1.5925    0.6000   461.249   133.150     8.277
 3509.8792    13.109    1.5295    0.6000   405.771   132.229     8.318
 3510.0316    21.281    1.5863    0.5393   194.590   134.980     8.881
 3510.1840    11.522    1.5586    0.5305   565.762   133.985     8.552
 3510.3364    14.082    1.5879    0.6000  1241.419   137.441     8.180
 3510.4888    21.559    1.5404    0.6000   638.707   135.249     8.498
 3510.6412    12.368    1.5966    0.5393   756.129   137.643     8.676
 3510.7936    25.786    1.5524    0.5069  1268.703   132.220     8.609
 3510.9460    16.706    1.5000    0.6000   762.364   147.885     8.747
 3511.0984    20.037    1.5655    0.5776   185.606   143.356     8.504
 3511.2508    18.579    1.6056    0.4447  1058.188   127.066     8.014
 3511.4032    22.194    1.5808    0.5177   590.460   140.756     8.190
 3511.5556    18.677    1.5166    0.5485   813.453   142.633     7.974
 3511.7080    18.656    1.5609    0.6000   482.812   144.551     8.713
 3511.8604    21.019    1.5196    0.6000   364.108   138.111     8.875
 3512.0128    17.115    1.5406    0.5807   243.523   142.641     8.281
 3512.1652    24.198    1.5006    0.5450   575.436   144.182     8.746
 3512.3176    13.427    1.5674    0.6000   385.877   146.263     7.873
 3512.4700    12.079    1.5361    0.5969  1152.691   128.710     8.796
 3512.6224    16.362    1.5347    0.4733   508.142   141.417     8.581
 3512.7748    18.345    1.5796    0.5055   900.707   145.071     8.518
 3512.9272    15.948    1.5337    0.6000   434.980   137.228     8.277
 3513.0796    14.868    1.5392    0.6000   551.885   140.646     8.197
 3513.2320    17.396    1.5440    0.6000   441.387   139.885     8.682
 3513.3844    17.136    1.5148    0.5523  1239.185   134.643     8.236
 3513.5368    15.537    1.5574    0.5855   393.281   137.445     8.354
 3513.6892    18.989    1.5759    0.4721   862.856   142.298     7.517
 3513.8416    20.765    1.5006    0.5616   405.918   138.817     8.482
 3513.9940    19.202    1.5592    0.5709  1128.374   140.217     8.335
 3514.1464    22.051    1.5645    0.6000   968.105   134.251     8.342
 3514.2988    22.699    1.5239    0.6000   287.922   132.433     8.799
 3514.4512    18.531    1.5195    0.6000  1125.494   138.053     8.577
 3514.6036    17.341    1.5670    0.6000   953.348   130.284     7.987
 3514.7560    17.294    1.5923    0.5260   839.355   137.778     8.640
 3514.9084    18.264    1.5000    0.6000   913.874   137.046     8.818
 3515.0608    21.256    1.5572    0.6000   642.806   140.638     8.476
 3515.2132    16.082    1.5353    0.5563   744.891   135.631     9.303
 3515.3656    18.765    1.5443    0.5883  1333.042   140.787     8.712
 3515.5180    19.858    1.5710    0.5946   549.180   136.174     8.196
 3515.6704    21.849    1.5000    0.5242   190.060   135.917     8.881
 3515.8228    19.258    1.5003    0.6000  2318.390   137.955     8.698
 3515.9752    14.021    1.5217    0.4930   320.673   134.140     8.808
 3516.1276    20.310    1.5193    0.6000   313.641   131.220     8.404
 3516.2800    21.342    1.5763    0.6000   350.176   131.285     8.394
 3516.4324    17.687    1.5421    0.6000   919.197   134.391     9.401
 3516.5848    18.208    1.5163    0.6000   892.206   145.073     7.984
 3516.7372    10.326    1.5701    0.6000   668.180   138.031     8.224
 3516.8896    19.002    1.5293    0.5791   280.164   134.688     8.814
 3517.0420    11.764    1.6108    0.5740  1309.698   131.148     7.909
 3517.1944    23.186    1.5422    0.6000   427.765   143.016     8.317
 3517.3468    24.906    1.5584    0.4539  1060.419   134.479     8.909
 3517.4992    24.192    1.5011    0.4807   951.774   133.464     8.061
 3517.6516    22.037    1.5841    0.4942   825.892   137.393     8.760
 3517.8040    17.365    1.5777    0.6000   423.926   132.784     8.349
 3517.9564    17.089    1.5735    0.6000  1084.396   136.544     8.713
 3518.1088    17.836    1.5410    0.5422   479.139   138.558     8.425
 3518.2612    19.734    1.5759    0.5290   317.920   147.114     8.318
 3518.4136    15.993    1.5221    0.6000   571.379   144.599     8.550
 3518.5660    16.592    1.5341    0.4838   726.854   138.118     8.382
 3518.7184    19.740    1.5000    0.5351   405.329   141.927     8.701
 3518.8708    19.505    1.5355    0.6000   689.375   124.924     8.127
 3519.0232    20.528    1.5623    0.5444   483.294   141.199     8.456
 3519.1756    19.722    1.5600    0.5305   791.117   135.510     9.189
 3519.3280    18.986    1.5369    0.6000   564.841   141.199     8.283
 3519.4804    22.262    1.5256    0.4947   601.171   125.891     8.484
 3519.6328    23.633    1.5979    0.6000   341.405   140.117     8.458
 3519.7852    16.106    1.5515    0.4978   423.092   139.633     8.287
 3519.9376    19.194    1.5280    0.5257   712.990   135.780     9.546
 3520.0900    35.704    2.3107    0.2417   158.864   200.000     8.468
 3520.2424    38.092    2.3348    0.1811    47.659   200.000     7.819
 3520.3948    35.607    2.3070    0.1663    34.251   200.000     8.358
 3520.5472    44.988    2.2740    0.1991    25.063   200.000     8.448
 3520.6996    27.315    2.2370    0.2494    52.861   200.000     8.210
 3520.8520    34.156    2.2845    0.2231    32.429   200.000     7.857
 3521.0044    35.759    2.2969    0.1892    62.948   200.000     8.929
 3521.1568    38.387    2.2160    0.1984    87.722   200.000     8.278
 3521.3092    37.547    2.3204    0.1796    84.427   200.000     8.753
 3521.4616    28.653    2.2648    0.2167    35.838   200.000     8.980
 3521.6140    31.110    2.3217    0.1571    33.969   200.000     8.272
 3521.7664    36.860    2.2449    0.2031    37.987   200.000     8.409
 3521.9188    34.241    2.2963    0.2478    74.379   200.000     8.487
 3522.0712    40.126    2.2802    0.1762    25.702   200.000     8.374
 3522.2236    42.380    2.2699    0.2016    48.624   200.000     8.898
 3522.3760    43.285    2.3118    0.2019    21.271   200.000     8.232
 3522.5284    34.008    2.2955    0.1854    72.067   200.000     8.392
 3522.6808    40.008    2.1625    0.1892    63.012   200.000     8.646
 3522.8332    27.675    2.3772    0.2156    82.266   200.000     8.251
 3522.9856    31.835    2.2798    0.1689    81.744   200.000     8.759
 3523.1380    38.644    2.3198    0.2189    96.311   200.000     8.675
