~VERSION INFORMATION
 VERS.                 2.0    : CWLS LOG ASCII STANDARD
 WRAP.                 NO     : ONE LINE PER DEPTH STEP
~WELL INFORMATION
 WELL.                 21/2-4    : Well name
 FLD .                 Brent         : Field
 CTRY.                 UK       : Country
 STRT.M                2800.0000 : START DEPTH
 STOP.M                4000.0000   : STOP DEPTH
 STEP.M                0.1524        : STEP
 NULL.                 -999.25          : NULL VALUE
 SRVC.                 SubsurfAI        : Service company
~CURVE INFORMATION
 DEPT.M                              : Depth
 GR  .GAPI                           : Gamma Ray
 RHOB.G/C3                           : Bulk Density
 NPHI.V/V                            : Neutron Porosity
 RT  .OHMM                           : True Resistivity
 DT  .US/F                           : Sonic
 CALI.IN                             : Caliper
~PARAMETER INFORMATION
 LAT .                 61.0521   : Latitude
 LON .                 1.7234   : Longitude
 DESC.                 Brent Group — Etive/Rannoch sandstone, oil rim
~A  DEPT        GR        RHOB      NPHI      RT        DT        CALI
# ...
 3747.1660    41.152    2.2701    0.2193    84.394   200.000     8.155
 3747.3184    37.672    2.3499    0.2418    34.950   200.000     8.412
 3747.4708    35.972    2.3189    0.1647    55.136   200.000     8.786
 3747.6232    31.300    2.1974    0.1933    44.570   200.000     8.621
 3747.7756    34.466    2.2068    0.1986    10.055   200.000     8.344
 3747.9280    38.794    2.2263    0.2321    73.481   200.000     8.843
 3748.0804    28.974    2.2845    0.2216    30.257   200.000     8.308
 3748.2328    33.648    2.2493    0.2005    47.137   200.000     8.456
 3748.3852    35.335    2.2632    0.1921    93.290   200.000     8.332
 3748.5376    21.699    2.2559    0.1874    79.481   200.000     9.099
 3748.6900    33.267    2.3055    0.1462    96.205   200.000     8.803
 3748.8424    36.976    2.2843    0.2225    77.692   200.000     8.523
 3748.9948    32.715    2.2456    0.1985    26.121   200.000     8.855
 3749.1472    38.691    2.2884    0.2058    50.924   200.000     8.072
 3749.2996    30.478    2.3382    0.2301    78.188   200.000     9.186
 3749.4520    30.429    2.2271    0.1708   108.813   200.000     8.667
 3749.6044    35.436    2.2649    0.1613    80.477   200.000     8.523
 3749.7568    31.154    2.2275    0.2019    86.287   200.000     8.741
 3749.9092    37.625    2.3002    0.1663    82.820   200.000     7.951
 3750.0616    34.043    2.2987    0.2407    26.898   200.000     8.599
 3750.2140    33.250    2.3268    0.2647    68.548   200.000     8.244
 3750.3664    35.713    2.2569    0.2100    41.012   200.000     8.303
 3750.5188    32.697    2.3703    0.1690    44.456   200.000     8.615
 3750.6712    23.109    2.2017    0.2322   100.830   200.000     8.340
 3750.8236    32.991    2.3703    0.2283    71.380   200.000     8.635
 3750.9760    19.789    2.2765    0.1717    31.955   200.000     8.500
 3751.1284    39.186    2.2213    0.1592    36.561   200.000     8.582
 3751.2808    40.223    2.3002    0.2098    36.807   200.000     8.266
 3751.4332    37.207    2.2470    0.1486    72.640   200.000     8.812
 3751.5856    28.713    2.3737    0.2232    54.320   200.000     8.155
 3751.7380    39.514    2.2915    0.1913   118.609   200.000     7.774
 3751.8904    27.657    2.3450    0.2425    18.988   200.000     8.566
 3752.0428    33.477    2.2207    0.1745    59.733   200.000     8.545
 3752.1952    38.832    2.3434    0.2129    52.391   200.000     9.162
 3752.3476    27.847    2.3284    0.2373    49.853   200.000     8.354
 3752.5000    29.666    2.3019    0.1772    72.922   200.000     8.573
 3752.6524    38.327    2.2930    0.2104    76.551   200.000     8.403
 3752.8048    35.428    2.2518    0.2448    30.266   200.000     8.214
 3752.9572    27.876    2.2015    0.1644    67.998   200.000     8.674
 3753.1096    43.671    2.3042    0.1621    41.274   200.000     8.937
 3753.2620    38.456    2.3017    0.1894    33.381   200.000     8.597
 3753.4144    34.193    2.2471    0.1761    75.757   200.000     8.188
 3753.5668    38.886    2.2612    0.2303    82.500   200.000     8.394
 3753.7192    39.241    2.3101    0.2063    61.382   200.000     9.064
 3753.8716    37.464    2.2025    0.2245    53.400   200.000     7.986
 3754.0240    38.685    2.1865    0.2243    93.592   200.000     8.650
 3754.1764    43.279    2.2189    0.1811    20.812   200.000     8.543
 3754.3288    36.345    2.3579    0.1753    29.833   200.000     8.643
 3754.4812    28.441    2.2514    0.1521    34.773   200.000     8.476
 3754.6336    30.415    2.3111    0.1909    76.226   200.000     8.656
 3754.7860    24.054    2.2710    0.2027   102.341   200.000     8.476
 3754.9384    26.943    2.2729    0.2210    44.555   200.000     9.173
 3755.0908    37.638    2.2642    0.1737   101.704   200.000     8.761
 3755.2432    33.358    2.2869    0.2275    62.094   200.000     9.240
 3755.3956    38.534    2.3444    0.2118    34.625   200.000     8.501
 3755.5480    35.042    2.3056    0.2188    60.038   200.000     7.781
 3755.7004    47.226    2.2314    0.1936    19.254   200.000     8.518
 3755.8528    35.988    2.2573    0.2240    31.475   200.000     8.293
 3756.0052    41.584    2.3177    0.2181    34.349   200.000     8.021
 3756.1576    30.311    2.3274    0.1966    21.989   200.000     8.564
 3756.3100    31.645    2.3185    0.1654    38.789   200.000     8.156
 3756.4624    31.661    2.3436    0.1835    45.125   200.000     8.796
 3756.6148    30.580    2.3494    0.2123   105.511   200.000     9.133
 3756.7672    36.766    2.3031    0.1611    22.772   200.000     7.972
 3756.9196    37.077    2.2472    0.1931    33.143   200.000     8.217
 3757.0720    26.947    2.2583    0.2288    63.430   200.000     8.916
 3757.2244    34.722    2.2640    0.2630    26.988   200.000     8.129
 3757.3768    29.149    2.2899    0.1615    87.381   200.000     8.779
 3757.5292    41.778    2.2865    0.2036    42.885   200.000     8.680
 3757.6816    32.430    2.2809    0.2318   258.970   200.000     9.664
 3757.8340    45.398    2.2614    0.2448    47.949   200.000     8.512
 3757.9864    33.686    2.2678    0.1843    40.567   200.000     7.818
 3758.1388    28.181    2.2710    0.1519    36.666   200.000     7.976
 3758.2912    32.699    2.2314    0.2287    65.534   200.000     8.472
 3758.4436    36.860    2.2659    0.1851    48.380   200.000     7.970
 3758.5960    23.038    2.2909    0.2170    38.695   200.000     7.771
 3758.7484    38.120    2.2557    0.2260    52.314   200.000     8.776
 3758.9008    30.828    2.3125    0.1747    39.373   200.000     8.437
 3759.0532    39.873    2.2573    0.2515    84.903   200.000     8.636
 3759.2056    35.008    2.3027    0.2121    28.291   200.000     7.958
 3759.3580    31.507    2.3168    0.1458    58.226   200.000     7.969
 3759.5104    33.418    2.2020    0.2080    54.775   200.000     8.181
 3759.6628    32.514    2.2531    0.1776    41.164   200.000     8.888
 3759.8152    29.893    2.2470    0.2375    52.574   200.000     8.363
 3759.9676    29.378    2.2940    0.2025    27.702   200.000     8.578
 3760.1200    10.717    2.7187    0.0813   130.533   200.000     9.026
 3760.2724     8.631    2.6356    0.0829    85.893   200.000     8.125
 3760.4248    16.310    2.7340    0.0734   146.781   200.000     8.360
 3760.5772    15.239    2.6455    0.0716    58.955   200.000     8.121
 3760.7296    11.749    2.6532    0.0770    79.597   200.000     8.410
 3760.8820    16.145    2.7281    0.0885   203.210   200.000     9.194
 3761.0344    14.413    2.6358    0.0736   127.364   200.000     9.058
 3761.1868    11.242    2.6113    0.0683   115.720   200.000     8.671
 3761.3392    15.664    2.6598    0.0556   323.598   200.000     8.527
 3761.4916    14.800    2.6709    0.0518   191.416   200.000     9.197
 3761.6440    15.323    2.7604    0.0700   158.208   200.000     8.344
 3761.7964    11.649    2.6454    0.0820   379.873   200.000     9.254
 3761.9488    15.832    2.6235    0.0489    75.002   200.000     8.648
 3762.1012    15.157    2.6905    0.0742   118.659   200.000     8.827
 3762.2536    21.911    2.6217    0.0811   102.972   200.000     8.588
 3762.4060    12.501    2.6400    0.0575   112.712   200.000     8.687
 3762.5584    19.355    2.6244    0.0897    67.608   200.000     8.483
 3762.7108    16.041    2.7125    0.0696   195.012   200.000     8.484
 3762.8632    16.788    2.6170    0.0754   202.069   200.000     8.131
 3763.0156    14.004    2.5949    0.0635   320.212   200.000     8.893
 3763.1680    12.627    2.7146    0.0880    61.028   200.000     8.075
 3763.3204    13.335    2.7373    0.0798    80.122   200.000     9.219
 3763.4728    14.936    2.6257    0.0657   155.955   200.000     8.872
 3763.6252    22.632    2.6580    0.0784   413.821   200.000     9.308
 3763.7776    15.667    2.6812    0.0638   435.193   200.000     8.236
 3763.9300    16.344    2.6573    0.0765   374.875   200.000     9.073
 3764.0824    17.829    2.6325    0.0816   164.610   200.000     8.315
 3764.2348    15.895    2.7471    0.0492   203.373   200.000     9.048
