~VERSION INFORMATION
 VERS.                 2.0    : CWLS LOG ASCII STANDARD
 WRAP.                 NO     : ONE LINE PER DEPTH STEP
~WELL INFORMATION
 WELL.                 29/3-1    : Well name
 FLD .                 Forties         : Field
 CTRY.                 UK       : Country
 STRT.M                2000.0000 : START DEPTH
 STOP.M                3500.0000   : STOP DEPTH
 STEP.M                0.1524        : STEP
 NULL.                 -999.25          : NULL VALUE
 SRVC.                 SubsurfAI        : Service company
~CURVE INFORMATION
 DEPT.M                              : Depth
 GR  .GAPI                           : Gamma Ray
 RHOB.G/C3                           : Bulk Density
 NPHI.V/V                            : Neutron Porosity
 RT  .OHMM                           : True Resistivity
 DT  .US/F                           : Sonic
 CALI.IN                             : Caliper
~PARAMETER INFORMATION
 LAT .                 57.7341   : Latitude
 LON .                 0.5432   : Longitude
 DESC.                 Forties Fm — Paleocene submarine fan sandstone
~A  DEPT        GR        RHOB      NPHI      RT        DT        CALI
# ...
 2103.3272   107.505    2.4715    0.2705     3.125   197.022     8.593
 2103.4796    88.120    2.4976    0.2801     2.082   200.000     8.524
 2103.6320   106.916    2.4679    0.2322     1.391   200.000     8.834
 2103.7844    96.551    2.4845    0.2461     0.722   200.000     9.050
 2103.9368   111.277    2.4491    0.3667     3.202   146.021     8.938
 2104.0892   116.479    2.4302    0.3776     2.502   149.276     8.312
 2104.2416    95.914    2.4828    0.1916     4.581   200.000     8.224
 2104.3940    93.489    2.4109    0.2457     3.013   200.000     8.632
 2104.5464   101.415    2.5798    0.2979     3.224   181.720     8.180
 2104.6988   115.896    2.5050    0.3020     2.523   183.866     8.407
 2104.8512   106.518    2.5036    0.2516     2.592   200.000     9.487
 2105.0036   125.029    2.5235    0.3952     0.844   144.968     8.175
 2105.1560    71.488    2.4515    0.3081     3.071   176.544     8.332
 2105.3084    90.202    2.5055    0.3427     1.559   156.346     7.642
 2105.4608   112.385    2.4883    0.3184     1.370   176.200     8.803
 2105.6132    89.480    2.5216    0.3233     3.633   162.134     8.911
 2105.7656    82.622    2.4823    0.2988     4.791   187.988     8.432
 2105.9180   123.702    2.5053    0.3370     1.717   155.007     8.916
 2106.0704   102.403    2.4624    0.2052     1.368   200.000     8.022
 2106.2228   109.592    2.5815    0.2714     3.295   200.000     8.602
 2106.3752    96.639    2.4903    0.2965     0.914   180.907     8.848
 2106.5276    83.671    2.4695    0.2687     1.314   200.000     8.131
 2106.6800   114.846    2.4104    0.2862     1.093   191.305     8.809
 2106.8324   112.148    2.4405    0.2936     1.585   190.715     9.385
 2106.9848   101.100    2.4527    0.3847     2.776   141.517     8.339
 2107.1372   102.406    2.4765    0.2399     3.294   200.000     8.637
 2107.2896   113.820    2.4121    0.2960     2.054   188.561     8.770
 2107.4420   101.296    2.4808    0.2711     2.197   200.000     8.943
 2107.5944   114.542    2.4101    0.3408     2.587   166.300     8.270
 2107.7468    95.654    2.4562    0.3566     1.802   148.518     8.799
 2107.8992   122.267    2.4005    0.3023     2.304   170.469     7.699
 2108.0516   115.010    2.3266    0.3307     2.132   170.281     8.498
 2108.2040   117.062    2.4844    0.3461     4.427   165.716     8.448
 2108.3564   127.966    2.5171    0.2965     2.032   185.967     9.152
 2108.5088   147.317    2.5191    0.3188     1.687   172.171     8.202
 2108.6612   105.168    2.4934    0.3138     2.596   172.917     9.056
 2108.8136    75.667    2.4553    0.3003     2.328   187.131     8.429
 2108.9660   114.946    2.5191    0.3520     1.136   150.867     9.280
 2109.1184   117.679    2.5123    0.3897     3.869   138.258     7.752
 2109.2708   110.031    2.4270    0.2853     3.453   198.915     7.829
 2109.4232   107.538    2.4895    0.2971     2.058   189.131     8.965
 2109.5756    99.971    2.4463    0.2404     0.624   200.000     8.756
 2109.7280   125.845    2.4245    0.2907     3.041   191.705     8.528
 2109.8804   104.123    2.3869    0.3974     0.899   142.089     8.683
 2110.0328   125.410    2.5395    0.2837     3.289   192.978     8.308
 2110.1852    99.452    2.4504    0.3239     3.387   171.706     8.416
 2110.3376    90.734    2.4017    0.2986     2.802   171.197     8.746
 2110.4900   104.334    2.4644    0.3355     2.040   161.877     8.832
 2110.6424   129.541    2.5189    0.2136     2.370   200.000     8.433
 2110.7948   117.725    2.5366    0.2771     7.939   200.000     9.007
 2110.9472   134.060    2.4668    0.2734     0.891   192.949     8.605
 2111.0996   117.160    2.4735    0.4001     2.717   134.955     7.878
 2111.2520   104.454    2.4294    0.3797     2.506   154.818     8.227
 2111.4044   118.817    2.4473    0.3793     3.582   146.706     8.044
 2111.5568   117.788    2.4987    0.3133     2.393   173.286     8.263
 2111.7092    94.307    2.4706    0.3411     1.120   160.243     8.018
 2111.8616    98.750    2.4930    0.2863     1.709   197.796     7.469
 2112.0140   106.027    2.4394    0.1982     4.983   200.000     8.698
 2112.1664   104.757    2.3856    0.2814     2.155   198.374     8.977
 2112.3188    95.437    2.4501    0.3432     1.644   164.375     8.612
 2112.4712    89.840    2.4828    0.3421     2.189   167.107     8.350
 2112.6236   121.827    2.4595    0.3282     2.732   160.578     8.793
 2112.7760   118.223    2.3869    0.2254     2.307   200.000     9.142
 2112.9284    98.577    2.4234    0.3828     2.936   141.950     9.174
 2113.0808   100.174    2.4535    0.3068     1.882   178.319     8.578
 2113.2332   108.419    2.4222    0.3183     2.739   178.561     9.210
 2113.3856   101.855    2.4657    0.3163     2.581   176.433     8.119
 2113.5380    92.724    2.4450    0.2987     2.935   181.043     8.244
 2113.6904    89.887    2.3910    0.3728     2.871   147.549     8.314
 2113.8428    97.517    2.4771    0.2553     1.079   200.000     8.763
 2113.9952   132.691    2.4759    0.3365     4.596   167.641     8.791
 2114.1476    98.208    2.3962    0.3133     4.188   179.751     8.608
 2114.3000   107.272    2.4379    0.3554     4.245   148.777     8.402
 2114.4524   134.681    2.5166    0.2945     1.154   185.797     9.138
 2114.6048   133.154    2.4405    0.2711     2.447   197.823     8.039
 2114.7572   102.312    2.4590    0.3908     2.422   137.777     8.556
 2114.9096   101.374    2.4869    0.3407     3.329   172.468     8.607
 2115.0620    92.910    2.4665    0.3527     1.251   160.658     8.511
 2115.2144    92.303    2.4840    0.3386     3.277   157.721     7.905
 2115.3668    87.338    2.5697    0.2540     2.001   200.000     8.376
 2115.5192   101.263    2.4071    0.2937     4.463   191.007     8.611
 2115.6716   103.267    2.5457    0.2693     2.525   200.000     9.130
 2115.8240   104.136    2.5419    0.3541     1.437   152.234     8.652
 2115.9764    88.035    2.4880    0.2622     3.162   200.000     8.578
 2116.1288    90.477    2.4245    0.2838     3.742   194.650     8.724
 2116.2812    79.478    2.4350    0.3157     1.382   172.501     8.820
 2116.4336   103.652    2.5619    0.2896     0.807   187.611     8.180
 2116.5860   102.008    2.5000    0.3755     2.387   147.448     8.098
 2116.7384   105.267    2.4558    0.3843     2.053   142.707     8.042
 2116.8908    83.148    2.4634    0.2983     1.758   187.793     8.499
 2117.0432   120.196    2.5107    0.3252     1.407   176.614     8.348
 2117.1956    95.910    2.5573    0.2979     4.357   185.928     8.597
 2117.3480   125.055    2.3987    0.2829     2.656   196.417     8.927
 2117.5004    91.019    2.4668    0.3106     1.529   180.747     8.196
 2117.6528    89.871    2.4583    0.2864     4.338   192.299     8.504
 2117.8052    90.684    2.5055    0.3751     1.451   144.444     8.506
 2117.9576    93.551    2.4496    0.3086     2.649   181.979     8.706
 2118.1100   118.888    2.4469    0.2826     3.395   192.639     8.246
 2118.2624   108.328    2.4678    0.3088     3.542   182.964     9.031
 2118.4148   118.956    2.3850    0.3079     0.574   180.370     8.090
 2118.5672   118.149    2.4421    0.3569     3.066   152.132     8.629
 2118.7196   100.892    2.5773    0.2131     1.170   200.000     8.527
 2118.8720   102.139    2.5295    0.2679     1.468   200.000     7.987
 2119.0244   102.744    2.5671    0.2276     2.908   200.000     8.751
 2119.1768   119.911    2.4736    0.2579     5.118   200.000     8.182
 2119.3292   114.281    2.5270    0.3674     1.064   141.906     8.434
 2119.4816    90.224    2.4641    0.2750     1.424   196.300     8.613
 2119.6340   112.014    2.4722    0.3361     2.598   169.783     8.679
 2119.7864    72.184    2.4514    0.2823     1.208   193.100     8.354
 2119.9388   108.224    2.5029    0.3233     0.603   164.319     8.719
 2120.0912   110.217    2.4606    0.3700     1.902   151.981     8.289
 2120.2436   116.355    2.4205    0.3567     2.745   152.042     8.887
 2120.3960   108.726    2.3776    0.3229     3.345   168.333     8.203
