~VERSION INFORMATION
 VERS.                 2.0    : CWLS LOG ASCII STANDARD
 WRAP.                 NO     : ONE LINE PER DEPTH STEP
~WELL INFORMATION
 WELL.                 21/2-4    : Well name
 FLD .                 Brent         : Field
 CTRY.                 UK       : Country
 STRT.M                2800.0000 : START DEPTH
 STOP.M                4000.0000   : STOP DEPTH
 STEP.M                0.1524        : STEP
 NULL.                 -999.25          : NULL VALUE
 SRVC.                 SubsurfAI        : Service company
~CURVE INFORMATION
 DEPT.M                              : Depth
 GR  .GAPI                           : Gamma Ray
 RHOB.G/C3                           : Bulk Density
 NPHI.V/V                            : Neutron Porosity
 RT  .OHMM                           : True Resistivity
 DT  .US/F                           : Sonic
 CALI.IN                             : Caliper
~PARAMETER INFORMATION
 LAT .                 61.0521   : Latitude
 LON .                 1.7234   : Longitude
 DESC.                 Brent Group — Etive/Rannoch sandstone, oil rim
~A  DEPT        GR        RHOB      NPHI      RT        DT        CALI
# ...
 3592.1752    33.877    2.3292    0.2422    25.932   200.000     8.386
 3592.3276    40.098    2.2830    0.2087    54.511   200.000     8.960
 3592.4800    34.302    2.3757    0.1575    76.476   200.000     8.467
 3592.6324    36.342    2.2455    0.1929    48.637   200.000     8.651
 3592.7848    34.251    2.2595    0.1886    68.492   200.000     8.847
 3592.9372    34.843    2.3268    0.2050    45.984   200.000     8.987
 3593.0896    34.244    2.2705    0.1640   103.488   200.000     8.449
 3593.2420    28.731    2.3237    0.1776    32.878   200.000     8.265
 3593.3944    40.613    2.2916    0.1964    52.635   200.000     8.302
 3593.5468    36.673    2.3128    0.1648    31.030   200.000     8.371
 3593.6992    41.495    2.2530    0.2185    22.673   200.000     9.310
 3593.8516    28.532    2.3591    0.1769    50.739   200.000     8.297
 3594.0040    25.026    2.2656    0.2021    21.693   200.000     8.332
 3594.1564    49.137    2.4048    0.2258    54.263   200.000     9.134
 3594.3088    32.709    2.2531    0.2104    53.074   200.000     8.384
 3594.4612    34.428    2.3464    0.2448    55.407   200.000     8.794
 3594.6136    28.912    2.2914    0.2027    35.464   200.000     8.553
 3594.7660    24.656    2.3141    0.1489    31.893   200.000     8.247
 3594.9184    31.853    2.2563    0.1659   115.158   200.000     8.876
 3595.0708    32.880    2.2504    0.1666    67.181   200.000     8.674
 3595.2232    33.878    2.2407    0.2340    63.453   200.000     9.416
 3595.3756    40.103    2.2628    0.1906    40.497   200.000     8.520
 3595.5280    40.291    2.2581    0.2296    25.983   200.000     8.659
 3595.6804    32.973    2.2662    0.2273    54.409   200.000     8.449
 3595.8328    37.401    2.2296    0.1878    33.555   200.000     8.128
 3595.9852    37.139    2.2618    0.1997    34.231   200.000     9.109
 3596.1376    38.120    2.2390    0.2582    33.476   200.000     8.911
 3596.2900    37.274    2.2718    0.2807    32.312   187.251     9.091
 3596.4424    22.750    2.2714    0.2138    70.757   200.000     8.606
 3596.5948    33.001    2.3479    0.1996    43.558   200.000     7.525
 3596.7472    35.731    2.2741    0.2286    47.260   200.000     8.505
 3596.8996    41.319    2.2107    0.1991    31.895   200.000     8.288
 3597.0520    28.267    2.2636    0.1977    52.035   200.000     8.717
 3597.2044    23.678    2.2363    0.1816    11.084   200.000     8.655
 3597.3568    39.673    2.3078    0.2504    42.324   200.000     8.497
 3597.5092    36.310    2.1933    0.1914    31.997   200.000     8.283
 3597.6616    29.769    2.3441    0.1976   149.464   200.000     8.704
 3597.8140    35.378    2.2786    0.2005    31.019   200.000     8.668
 3597.9664    40.466    2.2737    0.1635    56.948   200.000     8.484
 3598.1188    35.378    2.3187    0.2280    62.988   200.000     7.799
 3598.2712    24.473    2.3235    0.2305    65.199   200.000     8.710
 3598.4236    26.539    2.3163    0.2393    42.160   200.000     9.487
 3598.5760    38.952    2.3025    0.1947    87.926   200.000     7.912
 3598.7284    37.433    2.3410    0.1708   117.711   200.000     8.613
 3598.8808    32.209    2.3185    0.1680    76.760   200.000     8.248
 3599.0332    34.825    2.2733    0.1895    34.899   200.000     8.303
 3599.1856    35.169    2.2890    0.1667    57.167   200.000     8.615
 3599.3380    29.219    2.2823    0.2680    31.029   200.000     9.010
 3599.4904    42.180    2.1996    0.1845    42.712   200.000     8.218
 3599.6428    33.243    2.3197    0.2330    54.408   200.000     8.432
 3599.7952    24.246    2.2555    0.2192    32.279   200.000     8.146
 3599.9476    28.786    2.3292    0.1798    83.723   200.000     8.725
 3600.1000    32.110    2.2888    0.2285    52.748   200.000     8.440
 3600.2524    35.637    2.2561    0.1926    23.049   200.000     7.897
 3600.4048    29.473    2.3615    0.2124    55.241   200.000     9.026
 3600.5572    28.156    2.2294    0.2085   174.691   200.000     8.803
 3600.7096    35.896    2.3337    0.2480    36.212   200.000     8.632
 3600.8620    33.089    2.3313    0.2089    42.207   200.000     7.651
 3601.0144    41.603    2.2483    0.2041    28.893   200.000     8.599
 3601.1668    39.892    2.3614    0.1188    26.914   200.000     8.205
 3601.3192    31.847    2.2003    0.2106    31.896   200.000     9.174
 3601.4716    35.734    2.3176    0.1896    14.735   200.000     8.592
 3601.6240    46.557    2.3201    0.2312    17.808   200.000     7.834
 3601.7764    45.059    2.3101    0.2446    31.246   200.000     8.962
 3601.9288    30.642    2.3108    0.1889    53.561   200.000     8.570
 3602.0812    36.995    2.3903    0.2047    36.164   200.000     7.999
 3602.2336    40.068    2.2949    0.2454    37.150   200.000     7.949
 3602.3860    29.049    2.3742    0.2159    26.865   200.000     8.690
 3602.5384    37.405    2.3720    0.2203    80.099   200.000     8.283
 3602.6908    32.568    2.3735    0.1565    48.647   200.000     7.481
 3602.8432    36.357    2.3000    0.1600    71.899   200.000     8.448
 3602.9956    33.397    2.2748    0.1322    60.072   200.000     9.093
 3603.1480    40.812    2.3127    0.1954    25.236   200.000     8.478
 3603.3004    37.761    2.2791    0.2111    53.007   200.000     8.524
 3603.4528    34.383    2.3222    0.2409    53.226   200.000     7.747
 3603.6052    37.612    2.2711    0.2011    98.098   200.000     8.477
 3603.7576    39.866    2.2864    0.1662    40.702   200.000     8.533
 3603.9100    27.667    2.2895    0.2446    69.790   200.000     8.354
 3604.0624    35.030    2.2706    0.1542    60.453   200.000     7.479
 3604.2148    34.646    2.2664    0.1459   112.703   200.000     8.405
 3604.3672    42.610    2.2905    0.2266    30.267   200.000     8.869
 3604.5196    37.789    2.3173    0.1896    32.634   200.000     7.769
 3604.6720    45.428    2.3057    0.1947    53.577   200.000     8.121
 3604.8244    33.205    2.3370    0.2278    27.307   200.000     8.407
 3604.9768    37.297    2.2486    0.1951    30.133   200.000     8.682
 3605.1292    29.020    2.3136    0.2067    23.277   200.000     8.518
 3605.2816    38.569    2.3445    0.1964   121.697   200.000     8.497
 3605.4340    29.682    2.2457    0.2218    32.643   200.000     8.180
 3605.5864    38.390    2.3438    0.1768    50.626   200.000     8.846
 3605.7388    39.041    2.3067    0.2373    20.759   200.000     8.555
 3605.8912    41.589    2.2587    0.2051    82.039   200.000     8.708
 3606.0436    37.595    2.2427    0.2356    12.710   200.000     8.829
 3606.1960    30.319    2.2477    0.1465    15.681   200.000     8.614
 3606.3484    31.535    2.2750    0.2328    16.761   200.000     8.358
 3606.5008    42.186    2.2698    0.1797    43.557   200.000     9.073
 3606.6532    35.173    2.3555    0.1987    38.416   200.000     8.237
 3606.8056    37.004    2.2418    0.2231    26.468   200.000     8.980
 3606.9580    25.173    2.3356    0.1819   131.469   200.000     7.386
 3607.1104    28.801    2.2824    0.1867    46.919   200.000     8.924
 3607.2628    40.171    2.1977    0.1976    50.392   200.000     9.041
 3607.4152    34.618    2.2699    0.1980    38.002   200.000     8.515
 3607.5676    39.780    2.2909    0.1675    75.630   200.000     8.888
 3607.7200    36.749    2.2362    0.1986    34.376   200.000     8.330
 3607.8724    32.820    2.3004    0.1716    84.962   200.000     8.205
 3608.0248    45.437    2.3100    0.2164    28.719   200.000     8.252
 3608.1772    32.563    2.1992    0.1639    90.282   200.000     8.667
 3608.3296    39.945    2.2363    0.2038    56.355   200.000     8.538
 3608.4820    32.374    2.2834    0.2210    34.211   200.000     8.115
 3608.6344    35.552    2.2603    0.1885   105.606   200.000     8.518
 3608.7868    33.929    2.2516    0.2282   216.463   200.000     8.622
 3608.9392    35.813    2.3519    0.1962    67.945   200.000     8.638
 3609.0916    30.754    2.3049    0.2180    58.655   200.000     8.159
 3609.2440    29.440    2.2514    0.2670    49.421   200.000     8.643
