~VERSION INFORMATION
 VERS.                 2.0    : CWLS LOG ASCII STANDARD
 WRAP.                 NO     : ONE LINE PER DEPTH STEP
~WELL INFORMATION
 WELL.                 21/2-4    : Well name
 FLD .                 Brent         : Field
 CTRY.                 UK       : Country
 STRT.M                2800.0000 : START DEPTH
 STOP.M                4000.0000   : STOP DEPTH
 STEP.M                0.1524        : STEP
 NULL.                 -999.25          : NULL VALUE
 SRVC.                 SubsurfAI        : Service company
~CURVE INFORMATION
 DEPT.M                              : Depth
 GR  .GAPI                           : Gamma Ray
 RHOB.G/C3                           : Bulk Density
 NPHI.V/V                            : Neutron Porosity
 RT  .OHMM                           : True Resistivity
 DT  .US/F                           : Sonic
 CALI.IN                             : Caliper
~PARAMETER INFORMATION
 LAT .                 61.0521   : Latitude
 LON .                 1.7234   : Longitude
 DESC.                 Brent Group — Etive/Rannoch sandstone, oil rim
~A  DEPT        GR        RHOB      NPHI      RT        DT        CALI
# ...
 3678.2812    34.453    2.2844    0.2351    55.122   200.000     8.401
 3678.4336    33.647    2.2996    0.2360    23.485   200.000     8.581
 3678.5860    26.775    2.2329    0.2182    67.672   200.000     8.998
 3678.7384    31.496    2.3024    0.1887    29.088   200.000     8.726
 3678.8908    33.866    2.2954    0.1836    40.889   200.000     8.456
 3679.0432    45.090    2.1998    0.1890    88.459   200.000     8.863
 3679.1956    42.878    2.2751    0.1869    50.886   200.000     9.122
 3679.3480    40.052    2.2817    0.1881    22.408   200.000     7.849
 3679.5004    38.442    2.2916    0.2585    38.364   200.000     8.532
 3679.6528    45.515    2.3237    0.2075    40.438   200.000     8.552
 3679.8052    41.240    2.3240    0.2104    26.358   200.000     9.325
 3679.9576    27.809    2.3514    0.1752    18.486   200.000     7.686
 3680.1100    36.339    2.2302    0.1990    25.756   200.000     8.212
 3680.2624    43.161    2.2390    0.1701    79.341   200.000     8.418
 3680.4148    31.255    2.3665    0.1883    47.481   200.000     8.602
 3680.5672    33.425    2.2213    0.1792    77.533   200.000     8.525
 3680.7196    31.693    2.3155    0.2002    25.249   200.000     8.870
 3680.8720    28.875    2.2605    0.2328    58.711   200.000     8.488
 3681.0244    39.990    2.2618    0.2087    43.501   200.000     8.118
 3681.1768    38.218    2.2078    0.2016    30.205   200.000     8.628
 3681.3292    36.683    2.2383    0.2036    58.092   200.000     7.714
 3681.4816    18.440    2.3340    0.1636   176.442   200.000     8.082
 3681.6340    38.973    2.2309    0.1680    60.113   200.000     7.970
 3681.7864    29.917    2.2723    0.2305    35.879   200.000     8.421
 3681.9388    42.363    2.2527    0.2204    44.896   200.000     8.419
 3682.0912    34.741    2.2183    0.1915    49.961   200.000     8.044
 3682.2436    28.067    2.2569    0.2217    29.484   200.000     8.426
 3682.3960    36.172    2.2758    0.2034    42.090   200.000     7.912
 3682.5484    23.733    2.2447    0.2545    58.908   200.000     8.409
 3682.7008    26.274    2.3081    0.1874    29.029   200.000     8.759
 3682.8532    30.544    2.2775    0.1815    51.955   200.000     8.441
 3683.0056    31.050    2.3830    0.1980    76.594   200.000     8.139
 3683.1580    34.486    2.3653    0.2332    52.225   200.000     8.465
 3683.3104    31.847    2.2615    0.2022    40.915   200.000     8.482
 3683.4628    36.986    2.3224    0.1956    94.349   200.000     8.843
 3683.6152    34.070    2.2571    0.2290    56.354   200.000     8.869
 3683.7676    34.012    2.3327    0.2176    35.642   200.000     8.716
 3683.9200    35.387    2.3432    0.1609    28.052   200.000     8.987
 3684.0724    42.152    2.2658    0.1241    61.084   200.000     8.047
 3684.2248    32.918    2.3206    0.2279   128.435   200.000     9.004
 3684.3772    26.059    2.2892    0.1800    43.521   200.000     8.285
 3684.5296    38.419    2.2702    0.2431   120.095   200.000     8.244
 3684.6820    39.650    2.2509    0.1735    69.317   200.000     8.867
 3684.8344    20.991    2.3936    0.2349    13.422   200.000     8.637
 3684.9868    41.407    2.3580    0.2179    30.668   200.000     8.367
 3685.1392    30.581    2.3537    0.1745    78.795   200.000     8.505
 3685.2916    42.748    2.3070    0.1670    46.645   200.000     8.655
 3685.4440    34.835    2.2312    0.2022    33.611   200.000     8.897
 3685.5964    43.211    2.2696    0.1737    52.109   200.000     8.082
 3685.7488    31.290    2.2614    0.1788    30.726   200.000     8.620
 3685.9012    31.276    2.3346    0.1426   128.774   200.000     8.366
 3686.0536    39.548    2.2753    0.1845    21.875   200.000     8.282
 3686.2060    36.905    2.2022    0.2099    41.994   200.000     8.570
 3686.3584    35.366    2.3437    0.1907    29.841   200.000     8.130
 3686.5108    32.520    2.2233    0.2423    79.457   200.000     8.620
 3686.6632    43.689    2.2409    0.2109    25.726   200.000     7.946
 3686.8156    33.142    2.2735    0.1534    36.048   200.000     9.172
 3686.9680    37.331    2.3446    0.2372    15.685   200.000     8.326
 3687.1204    37.381    2.1807    0.1966    58.439   200.000     8.729
 3687.2728    32.829    2.2524    0.2431    42.960   200.000     8.545
 3687.4252    36.277    2.3058    0.1681    42.384   200.000     8.563
 3687.5776    36.538    2.2631    0.1995    32.392   200.000     8.536
 3687.7300    34.861    2.2528    0.1925    24.965   200.000     8.587
 3687.8824    38.035    2.3267    0.1824    28.213   200.000     8.951
 3688.0348    34.627    2.2131    0.1810    43.138   200.000     8.225
 3688.1872    22.245    2.2149    0.2250    53.296   200.000     8.637
 3688.3396    39.975    2.3670    0.2293    44.201   200.000     8.299
 3688.4920    33.379    2.2177    0.1673    45.446   200.000     8.600
 3688.6444    26.589    2.2924    0.2053    50.191   200.000     8.952
 3688.7968    34.438    2.2272    0.2205    56.760   200.000     8.593
 3688.9492    28.377    2.2814    0.2036   115.373   200.000     8.955
 3689.1016    34.773    2.2637    0.1780    28.499   200.000     8.084
 3689.2540    37.397    2.2846    0.2003    34.955   200.000     8.279
 3689.4064    23.836    2.2507    0.2250    38.986   200.000     8.477
 3689.5588    41.077    2.2033    0.1969    58.293   200.000     9.276
 3689.7112    28.531    2.2711    0.2499    37.909   200.000     7.995
 3689.8636    34.507    2.3331    0.1880    34.328   200.000     8.226
 3690.0160    40.281    2.2590    0.1644    40.434   200.000     9.001
 3690.1684    41.818    2.3024    0.1504    41.348   200.000     8.870
 3690.3208    34.453    2.3234    0.2386    76.522   200.000     8.627
 3690.4732    33.384    2.2376    0.2496    36.134   200.000     8.765
 3690.6256    41.624    2.1969    0.1639    84.631   200.000     8.885
 3690.7780    33.263    2.3599    0.2940    46.772   189.490     8.496
 3690.9304    23.061    2.2397    0.1811    83.670   200.000     9.015
 3691.0828    33.059    2.2409    0.2000   121.451   200.000     8.498
 3691.2352    31.610    2.2776    0.1606    48.824   200.000     8.622
 3691.3876    32.205    2.3196    0.1839   104.390   200.000     8.877
 3691.5400    41.922    2.2242    0.2441    22.328   200.000     8.286
 3691.6924    35.242    2.2859    0.2064    24.237   200.000     8.337
 3691.8448    39.069    2.3141    0.1649    35.221   200.000     8.713
 3691.9972    49.043    2.3145    0.1833    25.170   200.000     8.252
 3692.1496    38.078    2.2826    0.2206    97.074   200.000     8.509
 3692.3020    31.459    2.1980    0.1529    43.846   200.000     8.883
 3692.4544    27.755    2.2175    0.2300    33.566   200.000     8.629
 3692.6068    29.794    2.2718    0.2087    22.140   200.000     8.601
 3692.7592    34.269    2.2815    0.2233    79.108   200.000     7.680
 3692.9116    28.723    2.2811    0.1610    55.934   200.000     8.241
 3693.0640    36.656    2.2383    0.1614   164.684   200.000     8.029
 3693.2164    38.286    2.3411    0.2048    39.276   200.000     8.171
 3693.3688    37.770    2.2223    0.2156    50.194   200.000     9.005
 3693.5212    29.915    2.2875    0.2110    44.470   200.000     7.837
 3693.6736    33.571    2.2099    0.1651    20.331   200.000     8.804
 3693.8260    28.009    2.3074    0.2189    30.064   200.000     8.892
 3693.9784    30.650    2.2180    0.2131   103.322   200.000     7.732
 3694.1308    29.251    2.2590    0.1747    57.259   200.000     8.578
 3694.2832    36.665    2.2880    0.1952    44.664   200.000     8.789
 3694.4356    37.200    2.2969    0.1379    74.896   200.000     8.825
 3694.5880    32.391    2.2987    0.1817    30.625   200.000     8.885
 3694.7404    33.178    2.3119    0.2205    90.927   200.000     8.135
 3694.8928    32.352    2.2702    0.1541    85.911   200.000     8.039
 3695.0452    34.986    2.2843    0.2155    32.443   200.000     8.467
 3695.1976    32.142    2.2243    0.2575    25.544   200.000     8.593
 3695.3500    27.856    2.2652    0.2261    70.735   200.000     8.413
