~VERSION INFORMATION
 VERS.                 2.0    : CWLS LOG ASCII STANDARD
 WRAP.                 NO     : ONE LINE PER DEPTH STEP
~WELL INFORMATION
 WELL.                 21/2-4    : Well name
 FLD .                 Brent         : Field
 CTRY.                 UK       : Country
 STRT.M                2800.0000 : START DEPTH
 STOP.M                4000.0000   : STOP DEPTH
 STEP.M                0.1524        : STEP
 NULL.                 -999.25          : NULL VALUE
 SRVC.                 SubsurfAI        : Service company
~CURVE INFORMATION
 DEPT.M                              : Depth
 GR  .GAPI                           : Gamma Ray
 RHOB.G/C3                           : Bulk Density
 NPHI.V/V                            : Neutron Porosity
 RT  .OHMM                           : True Resistivity
 DT  .US/F                           : Sonic
 CALI.IN                             : Caliper
~PARAMETER INFORMATION
 LAT .                 61.0521   : Latitude
 LON .                 1.7234   : Longitude
 DESC.                 Brent Group — Etive/Rannoch sandstone, oil rim
~A  DEPT        GR        RHOB      NPHI      RT        DT        CALI
 2800.0000   101.832    2.4185    0.2014     2.060   200.000     8.670
 2800.1524    95.391    2.4875    0.3545     2.960   151.574     8.296
 2800.3048   105.048    2.4450    0.3452     1.905   154.510     8.644
 2800.4572   133.324    2.4646    0.3160     1.413   183.584     8.415
 2800.6096   114.059    2.4645    0.4059     6.279   142.403     9.214
 2800.7620    94.264    2.4767    0.3459     0.861   164.503     8.712
 2800.9144   126.893    2.4597    0.2615     3.179   200.000     8.733
 2801.0668    89.259    2.4608    0.4040     1.435   130.770     8.849
 2801.2192   123.459    2.4810    0.3997     3.352   130.373     8.567
 2801.3716    98.639    2.3536    0.2870     1.462   185.834     7.625
 2801.5240    90.909    2.4420    0.3322     1.145   157.132     9.133
 2801.6764   106.850    2.4794    0.3851     3.616   145.309     8.823
 2801.8288    89.498    2.5264    0.2670     2.139   200.000     8.663
 2801.9812   102.541    2.5513    0.2781     1.822   190.321     9.378
 2802.1336   120.793    2.4667    0.3446     1.670   167.298     9.274
 2802.2860   118.512    2.4015    0.3494     1.308   151.388     8.653
 2802.4384   110.443    2.4851    0.3585     1.233   152.379     8.755
 2802.5908    87.445    2.4755    0.3535     1.848   159.246     8.516
 2802.7432   113.616    2.4647    0.4089     2.386   137.165     8.533
 2802.8956   111.842    2.5292    0.2790     0.561   200.000     8.761
 2803.0480   111.524    2.4498    0.2299     2.955   200.000     8.620
 2803.2004   102.018    2.4814    0.3100     2.161   185.670     8.674
 2803.3528   103.357    2.5032    0.3305     1.473   164.035     8.042
 2803.5052    90.338    2.4546    0.3111     2.639   163.138     9.174
 2803.6576    99.303    2.5199    0.2934     1.581   186.786     8.538
 2803.8100   106.652    2.5409    0.3208     3.962   180.814     8.593
 2803.9624   111.102    2.4907    0.3406     0.962   155.469     8.160
 2804.1148    92.950    2.5574    0.2933     2.374   188.392     8.344
 2804.2672   104.986    2.5120    0.3440     1.973   161.747     8.037
 2804.4196   119.428    2.5188    0.3238     1.838   173.246     8.423
 2804.5720   117.815    2.5235    0.2594     3.440   200.000     7.907
 2804.7244   104.690    2.4371    0.3655     2.125   149.191     8.670
 2804.8768    97.729    2.4885    0.1720     2.388   200.000     8.099
 2805.0292    99.974    2.4141    0.3626     2.487   152.937     8.548
 2805.1816    93.501    2.5423    0.3970     0.839   135.476     8.713
 2805.3340   124.934    2.4774    0.3865     0.736   142.445     7.901
 2805.4864   116.479    2.5562    0.2847     2.883   186.311     8.964
 2805.6388   103.488    2.4642    0.2655     3.443   200.000     9.040
 2805.7912    96.422    2.4765    0.2670     3.038   200.000     8.807
 2805.9436   123.761    2.6610    0.3698     3.777   155.869     7.753
 2806.0960   101.497    2.3757    0.2999     2.655   185.128     9.059
 2806.2484   135.078    2.4223    0.3906     2.447   138.286     7.543
 2806.4008    85.158    2.4247    0.3843     2.434   138.610     8.406
 2806.5532    96.164    2.4305    0.2599     0.915   200.000     8.100
 2806.7056   110.661    2.5372    0.3623     1.288   160.250     8.045
 2806.8580   105.412    2.4987    0.3408     0.972   155.015     8.629
 2807.0104   111.505    2.4719    0.3239     1.791   169.091     7.848
 2807.1628   106.589    2.4278    0.3738     2.659   139.511     7.609
 2807.3152   121.261    2.4522    0.3544     0.836   154.843     8.168
 2807.4676   145.397    2.4561    0.3429     1.713   160.400     9.069
 2807.6200   116.113    2.4642    0.2957     1.281   185.498     8.167
 2807.7724   116.012    2.5016    0.3306     3.986   163.629     8.207
 2807.9248   103.073    2.5191    0.3707     1.597   145.914     8.548
 2808.0772   111.910    2.4833    0.3953     2.206   138.378     8.786
 2808.2296    83.558    2.5078    0.2620     2.722   200.000     7.821
 2808.3820    85.353    2.6365    0.2622     0.393   200.000     8.259
 2808.5344   109.480    2.4795    0.2911     2.323   187.940     8.589
 2808.6868   124.920    2.4726    0.3729     2.514   159.185     8.346
 2808.8392   105.273    2.5174    0.3580     4.022   148.019     8.286
 2808.9916    89.160    2.4697    0.2697     2.068   200.000     8.543
 2809.1440   127.810    2.4553    0.2516     1.308   200.000     8.236
 2809.2964   121.449    2.4507    0.2986     2.714   190.086     8.567
 2809.4488    89.362    2.6427    0.3104     4.454   178.851     8.001
 2809.6012   113.189    2.3921    0.3870     1.419   149.840     8.342
 2809.7536   113.807    2.5298    0.2962     1.924   185.645     8.718
 2809.9060   100.752    2.4853    0.3705     1.104   150.442     8.573
 2810.0584    97.381    2.4882    0.3299     2.211   172.072     8.223
 2810.2108   104.630    2.4419    0.3609     2.226   150.944     8.548
 2810.3632   124.799    2.4756    0.2587     1.283   200.000     7.978
 2810.5156   114.239    2.4721    0.3624     3.251   138.895     8.703
 2810.6680    99.213    2.5170    0.3166     0.888   176.019     8.811
 2810.8204   112.398    2.5092    0.3052     1.172   186.550     8.313
 2810.9728   103.920    2.5875    0.3129     2.009   181.305     8.874
 2811.1252   119.145    2.5429    0.2768     0.816   197.359     8.509
 2811.2776   125.200    2.5136    0.2998     0.665   175.164     8.289
 2811.4300   103.149    2.4592    0.3197     2.078   178.372     8.271
 2811.5824    81.766    2.5137    0.3315     1.060   164.005     9.204
 2811.7348   125.307    2.4457    0.2993     3.210   180.858     7.767
 2811.8872   129.696    2.4508    0.2785     1.550   200.000     8.567
 2812.0396    92.157    2.4559    0.1811     3.576   200.000     7.896
 2812.1920   117.608    2.5190    0.2266     2.171   200.000     7.778
 2812.3444   115.686    2.4919    0.3068     1.079   179.567     9.105
 2812.4968   114.049    2.5399    0.3599     1.160   156.154     8.691
 2812.6492    97.573    2.4220    0.3515     1.066   156.447     8.120
 2812.8016    98.199    2.5123    0.3493     1.543   152.432     8.811
 2812.9540   117.481    2.4371    0.3385     1.103   164.785     8.259
 2813.1064   126.398    2.5155    0.2923     0.608   183.928     8.478
 2813.2588    90.334    2.4976    0.2530     1.532   200.000     7.775
 2813.4112    89.015    2.4769    0.2531     1.323   200.000     7.437
 2813.5636    91.852    2.5562    0.2943     1.715   180.015     8.853
 2813.7160    91.840    2.4689    0.2687     3.779   200.000     7.897
 2813.8684   116.430    2.5355    0.2739     2.035   200.000     8.370
 2814.0208   121.166    2.4492    0.3649     1.202   146.978     7.854
 2814.1732   107.215    2.3984    0.2281     3.670   200.000     8.460
 2814.3256   113.414    2.4818    0.2670     1.377   200.000     8.673
 2814.4780   113.445    2.6012    0.2928     1.043   190.578     8.232
 2814.6304   130.435    2.4889    0.2673     3.724   200.000     8.344
 2814.7828   102.663    2.4491    0.3492     1.918   148.951     8.228
 2814.9352   110.600    2.4576    0.3847     4.046   138.803     8.113
 2815.0876   141.481    2.4900    0.3446     1.446   152.529     8.913
 2815.2400   122.966    2.5056    0.3723     3.532   155.360     8.978
 2815.3924   102.427    2.4647    0.3141     3.760   177.299     8.346
 2815.5448   113.816    2.4056    0.3354     1.217   170.285     8.322
 2815.6972   105.272    2.4693    0.2933     2.223   186.923     8.056
 2815.8496   105.655    2.5237    0.3229     2.152   165.041     8.772
 2816.0020    98.677    2.5113    0.3181     3.039   177.510     8.643
 2816.1544    95.285    2.5765    0.3411     2.018   161.566     8.123
 2816.3068   127.134    2.5383    0.3728     0.686   139.236     8.199
 2816.4592   101.411    2.4683    0.3485     2.415   162.987     8.280
 2816.6116   105.902    2.4705    0.2827     2.122   191.589     8.781
 2816.7640   115.475    2.4637    0.2706     3.944   199.711     8.983
 2816.9164   105.968    2.6304    0.2759     0.820   196.204     8.812
 2817.0688   114.871    2.4891    0.2377     2.621   200.000     8.717
