~VERSION INFORMATION
 VERS.                 2.0    : CWLS LOG ASCII STANDARD
 WRAP.                 NO     : ONE LINE PER DEPTH STEP
~WELL INFORMATION
 WELL.                 21/2-4    : Well name
 FLD .                 Brent         : Field
 CTRY.                 UK       : Country
 STRT.M                2800.0000 : START DEPTH
 STOP.M                4000.0000   : STOP DEPTH
 STEP.M                0.1524        : STEP
 NULL.                 -999.25          : NULL VALUE
 SRVC.                 SubsurfAI        : Service company
~CURVE INFORMATION
 DEPT.M                              : Depth
 GR  .GAPI                           : Gamma Ray
 RHOB.G/C3                           : Bulk Density
 NPHI.V/V                            : Neutron Porosity
 RT  .OHMM                           : True Resistivity
 DT  .US/F                           : Sonic
 CALI.IN                             : Caliper
~PARAMETER INFORMATION
 LAT .                 61.0521   : Latitude
 LON .                 1.7234   : Longitude
 DESC.                 Brent Group — Etive/Rannoch sandstone, oil rim
~A  DEPT        GR        RHOB      NPHI      RT        DT        CALI
# ...
 3041.0968    31.582    2.2301    0.1640    33.494   200.000     9.140
 3041.2492    33.374    2.1925    0.1852    20.829   200.000     9.030
 3041.4016    36.538    2.3128    0.1785    42.880   200.000     9.029
 3041.5540    29.812    2.2714    0.1928    51.389   200.000     9.194
 3041.7064    34.777    2.1980    0.1921    62.827   200.000     8.782
 3041.8588    31.745    2.3066    0.1621    69.978   200.000     8.193
 3042.0112    37.033    2.2259    0.2482    57.524   200.000     8.206
 3042.1636    31.776    2.2552    0.2063    48.267   200.000     8.020
 3042.3160    37.156    2.2010    0.1301    70.687   200.000     8.126
 3042.4684    23.841    2.2864    0.1623    68.685   200.000     8.420
 3042.6208    28.591    2.2002    0.2294   111.719   200.000     8.736
 3042.7732    37.047    2.2800    0.1497    56.171   200.000     8.291
 3042.9256    23.301    2.2138    0.2039    73.986   200.000     8.691
 3043.0780    33.245    2.2256    0.1760   138.052   200.000     8.775
 3043.2304    26.699    2.2584    0.1793    55.847   200.000     8.289
 3043.3828    27.318    2.1777    0.2217    95.632   200.000     8.522
 3043.5352    26.103    2.2172    0.1717    50.682   200.000     8.730
 3043.6876    24.987    2.1598    0.2258    33.507   200.000     8.277
 3043.8400    31.761    2.2381    0.1861    35.118   200.000     9.076
 3043.9924    34.248    2.2617    0.1714    66.717   200.000     8.813
 3044.1448    34.050    2.2071    0.1613    82.939   200.000     8.560
 3044.2972    29.968    2.2931    0.1994    28.656   200.000     8.625
 3044.4496    28.409    2.1924    0.1143    34.943   200.000     8.708
 3044.6020    31.481    2.2496    0.2118    88.482   200.000     8.034
 3044.7544    31.725    2.2545    0.2207    81.100   200.000     8.740
 3044.9068    38.043    2.2651    0.1796    47.577   200.000     8.703
 3045.0592    14.754    2.2839    0.1537    69.499   200.000     8.750
 3045.2116    30.824    2.3154    0.1962   122.223   200.000     8.827
 3045.3640    37.557    2.2165    0.1939    98.349   200.000     7.779
 3045.5164    40.629    2.2377    0.1466    39.423   200.000     8.742
 3045.6688    34.577    2.2800    0.1336    40.402   200.000     8.649
 3045.8212    27.331    2.2777    0.1251    84.005   200.000     8.336
 3045.9736    28.871    2.2391    0.1657   102.687   200.000     8.660
 3046.1260    30.236    2.1417    0.1090    88.236   200.000     8.740
 3046.2784    31.589    2.1696    0.1822    99.454   200.000     9.035
 3046.4308    26.684    2.1960    0.2023   101.032   200.000     8.503
 3046.5832    30.146    2.2415    0.1538    51.906   200.000     8.572
 3046.7356    31.813    2.3015    0.1725    74.327   200.000     8.975
 3046.8880    23.848    2.2410    0.1907    70.254   200.000     8.263
 3047.0404    30.510    2.2576    0.2459    48.682   200.000     7.798
 3047.1928    34.377    2.2117    0.1869    86.119   200.000     8.316
 3047.3452    27.766    2.2466    0.1942    63.987   200.000     8.337
 3047.4976    28.088    2.2554    0.1751   157.830   200.000     8.705
 3047.6500    31.562    2.3099    0.1846    48.695   200.000     8.647
 3047.8024    33.504    2.2149    0.1845    44.612   200.000     8.536
 3047.9548    26.884    2.2445    0.1690    42.582   200.000     8.436
 3048.1072    23.685    2.1914    0.1393    38.379   200.000     8.521
 3048.2596    24.671    2.2430    0.1976    78.231   200.000     8.343
 3048.4120    33.467    2.2636    0.1955    82.693   200.000     8.854
 3048.5644    32.670    2.2425    0.2185    37.231   200.000     8.167
 3048.7168    31.117    2.2286    0.1878    53.770   200.000     8.473
 3048.8692    32.770    2.2601    0.2017    45.335   200.000     8.427
 3049.0216    26.372    2.1854    0.2354   169.348   200.000     8.286
 3049.1740    33.063    2.4046    0.1883    91.481   200.000     7.813
 3049.3264    34.264    2.2354    0.1524    40.773   200.000     8.262
 3049.4788    25.453    2.2628    0.1544    55.510   200.000     8.712
 3049.6312    33.682    2.2370    0.1655    56.990   200.000     8.059
 3049.7836    34.131    2.1949    0.2056    74.376   200.000     8.166
 3049.9360    30.751    2.2573    0.1460   124.466   200.000     8.867
 3050.0884    27.957    2.3001    0.1623    32.157   200.000     8.288
 3050.2408    38.478    2.3650    0.1862    43.599   200.000     8.389
 3050.3932    24.040    2.2483    0.1799    38.220   200.000     8.524
 3050.5456    34.751    2.2684    0.1874   133.401   200.000     9.287
 3050.6980    38.725    2.2328    0.1824    71.391   200.000     8.216
 3050.8504    25.914    2.2380    0.1702    82.940   200.000     8.413
 3051.0028    32.086    2.2812    0.1895    76.250   200.000     8.162
 3051.1552    31.688    2.3045    0.1227    35.881   200.000     7.694
 3051.3076    22.722    2.2118    0.1491    42.231   200.000     8.048
 3051.4600    23.697    2.2957    0.2214   211.380   200.000     8.495
 3051.6124    32.784    2.1564    0.2109    36.572   200.000     8.679
 3051.7648    29.855    2.2670    0.1805    87.418   200.000     8.110
 3051.9172    21.653    2.2396    0.1985    66.971   200.000     8.718
 3052.0696    29.688    2.3427    0.1395   104.829   200.000     7.884
 3052.2220    31.208    2.2537    0.1735    65.177   200.000     8.538
 3052.3744    28.086    2.2871    0.1900    44.584   200.000     8.502
 3052.5268    25.029    2.2550    0.1901   189.479   200.000     8.054
 3052.6792    30.619    2.1765    0.1726   155.557   200.000     8.681
 3052.8316    27.347    2.2793    0.1634    34.857   200.000     8.319
 3052.9840    29.825    2.2113    0.1796    68.083   200.000     8.768
 3053.1364    27.099    2.1654    0.1221    84.498   200.000     8.764
 3053.2888    35.684    2.2709    0.2101    28.511   200.000     8.830
 3053.4412    31.256    2.2344    0.1781    34.712   200.000     7.961
 3053.5936    26.604    2.2163    0.2092    39.721   200.000     8.934
 3053.7460    33.295    2.2028    0.2510    68.453   200.000     9.276
 3053.8984    28.466    2.2658    0.1556    85.232   200.000     9.268
 3054.0508    34.794    2.1929    0.2288    64.745   200.000     8.027
 3054.2032    33.600    2.1855    0.1729   156.551   200.000     8.139
 3054.3556    30.938    2.2721    0.1552    24.892   200.000     8.450
 3054.5080    25.937    2.2276    0.2314    40.198   200.000     8.151
 3054.6604    26.189    2.2677    0.1315    62.214   200.000     9.183
 3054.8128    32.654    2.3036    0.1407   203.949   200.000     9.020
 3054.9652    31.985    2.2742    0.1716    42.734   200.000     7.987
 3055.1176    36.818    2.2693    0.2141    63.271   200.000     8.718
 3055.2700    32.154    2.2608    0.1641   135.132   200.000     8.278
 3055.4224    35.708    2.2533    0.1982    93.598   200.000     8.949
 3055.5748    30.057    2.2546    0.2092   153.041   200.000     8.435
 3055.7272    28.290    2.1514    0.1798    70.949   200.000     8.092
 3055.8796    32.260    2.2400    0.2190   101.597   200.000     8.708
 3056.0320    26.836    2.2248    0.1715    42.480   200.000     8.585
 3056.1844    28.437    2.3509    0.1804    40.862   200.000     8.682
 3056.3368    25.442    2.2645    0.1367    41.261   200.000     8.326
 3056.4892    29.516    2.2401    0.1802    41.334   200.000     7.854
 3056.6416    29.954    2.2612    0.1855    63.333   200.000     8.214
 3056.7940    23.798    2.2627    0.1685    73.103   200.000     8.352
 3056.9464    32.576    2.3006    0.1284    60.491   200.000     8.225
 3057.0988    28.630    2.2264    0.1976    32.773   200.000     8.319
 3057.2512    19.568    2.2995    0.1260    70.145   200.000     9.004
 3057.4036    32.896    2.1590    0.1787    65.246   200.000     9.137
 3057.5560    28.671    2.1936    0.1859    95.811   200.000     9.157
 3057.7084    26.041    2.2151    0.1792   104.964   200.000     8.454
 3057.8608    32.356    2.3428    0.1699    48.861   200.000     8.978
 3058.0132    33.079    2.2702    0.0974    41.592   200.000     8.088
 3058.1656    26.705    2.1584    0.2259    47.752   200.000     9.026
