~VERSION INFORMATION
 VERS.                 2.0    : CWLS LOG ASCII STANDARD
 WRAP.                 NO     : ONE LINE PER DEPTH STEP
~WELL INFORMATION
 WELL.                 21/2-4    : Well name
 FLD .                 Brent         : Field
 CTRY.                 UK       : Country
 STRT.M                2800.0000 : START DEPTH
 STOP.M                4000.0000   : STOP DEPTH
 STEP.M                0.1524        : STEP
 NULL.                 -999.25          : NULL VALUE
 SRVC.                 SubsurfAI        : Service company
~CURVE INFORMATION
 DEPT.M                              : Depth
 GR  .GAPI                           : Gamma Ray
 RHOB.G/C3                           : Bulk Density
 NPHI.V/V                            : Neutron Porosity
 RT  .OHMM                           : True Resistivity
 DT  .US/F                           : Sonic
 CALI.IN                             : Caliper
~PARAMETER INFORMATION
 LAT .                 61.0521   : Latitude
 LON .                 1.7234   : Longitude
 DESC.                 Brent Group — Etive/Rannoch sandstone, oil rim
~A  DEPT        GR        RHOB      NPHI      RT        DT        CALI
# ...
 3988.2628    18.279    2.7584    0.0832   111.460   200.000     8.484
 3988.4152    14.113    2.6095    0.0996   891.330   200.000     8.614
 3988.5676    16.063    2.6733    0.0862   123.476   200.000     8.393
 3988.7200    13.918    2.6963    0.0617   191.479   200.000     8.509
 3988.8724    11.972    2.6451    0.0769   141.505   200.000     9.098
 3989.0248     5.563    2.7118    0.0639   149.600   200.000     8.388
 3989.1772     9.422    2.6803    0.0843   176.616   200.000     8.207
 3989.3296    13.456    2.6592    0.0762   193.691   200.000     8.306
 3989.4820    14.352    2.6882    0.0819   147.232   200.000     8.385
 3989.6344    12.145    2.5752    0.0824   261.676   200.000     8.823
 3989.7868    18.779    2.5869    0.0561   166.960   200.000     8.967
 3989.9392    10.921    2.5969    0.0539   139.962   200.000     8.793
 3990.0916    14.200    2.7647    0.0652   228.441   200.000     8.821
 3990.2440    19.388    2.6044    0.0756    95.986   200.000     8.572
 3990.3964     9.766    2.6950    0.0893   166.306   200.000     8.256
 3990.5488    20.241    2.7754    0.0449   163.900   200.000     9.206
 3990.7012    11.271    2.6464    0.0678   290.814   200.000     8.837
 3990.8536     9.425    2.7034    0.0702    70.593   200.000     8.487
 3991.0060    20.781    2.7209    0.0778   140.851   200.000     8.567
 3991.1584    14.235    2.5692    0.0540    62.971   200.000     8.825
 3991.3108    19.123    2.6931    0.0630   154.088   200.000     9.247
 3991.4632    15.262    2.6806    0.0668   279.251   200.000     8.239
 3991.6156    15.329    2.5751    0.0571   473.220   200.000     7.887
 3991.7680    18.270    2.6745    0.0740    40.624   200.000     8.557
 3991.9204    20.078    2.6835    0.0781   263.612   200.000     7.772
 3992.0728    17.027    2.5637    0.0658   177.116   200.000     8.587
 3992.2252    12.152    2.7023    0.0795   181.621   200.000     8.124
 3992.3776     8.739    2.6568    0.0806   121.157   200.000     7.982
 3992.5300    17.516    2.7172    0.0757   174.717   200.000     7.993
 3992.6824    18.257    2.6289    0.0620    62.701   200.000     8.032
 3992.8348    11.836    2.6339    0.0831   124.474   200.000     8.834
 3992.9872    23.594    2.7415    0.0669   128.841   200.000     7.935
 3993.1396    12.715    2.7130    0.0544   219.536   200.000     8.634
 3993.2920    11.756    2.6429    0.0884   353.961   200.000     9.107
 3993.4444    13.859    2.6045    0.0553   274.532   200.000     8.223
 3993.5968    15.883    2.6547    0.0610   161.133   200.000     8.160
 3993.7492     8.876    2.6773    0.0556   206.183   200.000     9.374
 3993.9016    12.593    2.6013    0.0689   272.436   200.000     8.773
 3994.0540     6.760    2.7158    0.0592   154.878   200.000     8.832
 3994.2064    18.739    2.5527    0.0597   114.973   200.000     8.705
 3994.3588    22.452    2.6800    0.0536    77.258   200.000     8.785
 3994.5112    15.101    2.7576    0.0692   152.912   200.000     9.138
 3994.6636    15.567    2.6309    0.0767   217.898   200.000     9.088
 3994.8160    15.369    2.6487    0.0668    87.335   200.000     8.467
 3994.9684    13.822    2.5823    0.0500   224.192   200.000     8.496
 3995.1208     5.744    2.6343    0.0778    65.917   200.000     8.603
 3995.2732    16.397    2.7018    0.0644   104.294   200.000     7.486
 3995.4256    21.853    2.6672    0.0761   124.200   200.000     8.431
 3995.5780    10.431    2.7115    0.0508   345.641   200.000     8.290
 3995.7304    16.671    2.7074    0.0638   120.455   200.000     8.103
 3995.8828    12.855    2.6849    0.0767   162.849   200.000     8.041
 3996.0352    10.025    2.6577    0.0696   108.709   200.000     8.539
 3996.1876    16.504    2.6738    0.0735    89.037   200.000     8.478
 3996.3400    11.773    2.6133    0.0582    82.180   200.000     8.303
 3996.4924    14.688    2.6804    0.0587    53.811   200.000     8.674
 3996.6448     8.321    2.6104    0.0644   114.260   200.000     8.639
 3996.7972    18.933    2.6988    0.0818   252.140   200.000     8.619
 3996.9496    19.649    2.6163    0.0718    67.031   200.000     7.990
 3997.1020    18.886    2.6617    0.0697   113.166   200.000     9.482
 3997.2544    15.329    2.6062    0.0677   128.647   200.000     9.164
 3997.4068    11.301    2.6909    0.0387    84.576   200.000     7.853
 3997.5592    21.037    2.6617    0.0598   140.107   200.000     8.830
 3997.7116    17.331    2.7409    0.0732   310.069   200.000     8.383
 3997.8640    17.859    2.6870    0.0763    87.998   200.000     8.533
 3998.0164    14.683    2.6736    0.0674    71.924   200.000     8.449
 3998.1688    20.307    2.6151    0.0733   267.218   200.000     8.534
 3998.3212    18.964    2.7147    0.0701   176.821   200.000     8.642
 3998.4736    15.156    2.7010    0.0586    97.747   200.000     8.931
 3998.6260    20.717    2.6069    0.0694    71.159   200.000     8.726
 3998.7784    15.375    2.6171    0.0673   139.673   200.000     8.548
 3998.9308    12.420    2.6386    0.0814   111.760   200.000     8.466
 3999.0832    18.598    2.6332    0.0625   176.544   200.000     8.059
 3999.2356    15.468    2.6325    0.0684   134.309   200.000     8.912
 3999.3880    14.092    2.7052    0.0675   138.144   200.000     9.199
 3999.5404    20.446    2.7173    0.0578   252.385   200.000     8.593
 3999.6928    10.712    2.6755    0.0612   130.840   200.000     9.000
 3999.8452    17.679    2.6944    0.0589   198.320   200.000     8.450
 3999.9976    22.352    2.6934    0.0673    93.958   200.000     8.151
