~VERSION INFORMATION
 VERS.                 2.0    : CWLS LOG ASCII STANDARD
 WRAP.                 NO     : ONE LINE PER DEPTH STEP
~WELL INFORMATION
 WELL.                 Anadarko-B7    : Well name
 FLD .                 Anadarko Basin         : Field
 CTRY.                 USA       : Country
 STRT.M                900.0000 : START DEPTH
 STOP.M                3500.0000   : STOP DEPTH
 STEP.M                0.1524        : STEP
 NULL.                 -999.25          : NULL VALUE
 SRVC.                 SubsurfAI        : Service company
~CURVE INFORMATION
 DEPT.M                              : Depth
 GR  .GAPI                           : Gamma Ray
 RHOB.G/C3                           : Bulk Density
 NPHI.V/V                            : Neutron Porosity
 RT  .OHMM                           : True Resistivity
 DT  .US/F                           : Sonic
 CALI.IN                             : Caliper
~PARAMETER INFORMATION
 LAT .                 35.4676   : Latitude
 LON .                 -98.6784   : Longitude
 DESC.                 Anadarko Basin — Springer/Morrow sandstone gas
~A  DEPT        GR        RHOB      NPHI      RT        DT        CALI
# ...
 2622.1200    94.957    2.5330    0.1546     5.600   200.000     8.070
 2622.2724   115.788    2.5305    0.1607     2.829   200.000     8.740
 2622.4248   122.246    2.5217    0.1659     5.346   200.000     7.988
 2622.5772    83.592    2.5890    0.2376     7.620   200.000     8.849
 2622.7296   112.048    2.4891    0.1812     3.884   200.000     8.908
 2622.8820   113.010    2.5395    0.1418     2.586   200.000     9.243
 2623.0344   102.626    2.5967    0.2341     6.612   200.000     8.523
 2623.1868   108.208    2.4990    0.1655     9.723   200.000     8.292
 2623.3392   116.795    2.5387    0.2261     7.895   200.000     8.529
 2623.4916   109.870    2.4865    0.1829     6.195   200.000     8.216
 2623.6440    94.429    2.5609    0.1807     6.899   200.000     8.590
 2623.7964   119.005    2.5782    0.2427     2.111   200.000     8.109
 2623.9488   101.983    2.5819    0.2511     4.305   200.000     8.772
 2624.1012    98.402    2.6484    0.1831     7.494   200.000     9.002
 2624.2536   121.667    2.5344    0.1713     4.660   200.000     8.712
 2624.4060    91.219    2.6269    0.1462     1.375   200.000     8.609
 2624.5584   105.965    2.5571    0.2161     4.975   200.000     8.801
 2624.7108   106.668    2.5370    0.1767     3.587   200.000     8.054
 2624.8632   110.851    2.5514    0.1790     5.394   200.000     9.223
 2625.0156    96.672    2.6141    0.1585     3.970   200.000     9.368
 2625.1680   117.091    2.5670    0.1780     5.270   200.000     8.664
 2625.3204   112.124    2.5066    0.1723     4.133   200.000     8.934
 2625.4728   121.896    2.5378    0.1520     3.480   200.000     8.813
 2625.6252   156.157    2.6665    0.1575     3.060   200.000     7.822
 2625.7776    97.676    2.5504    0.1594     6.777   200.000     8.023
 2625.9300   108.141    2.6044    0.2226     3.902   200.000     9.648
 2626.0824   102.362    2.5397    0.1963     6.781   200.000     8.120
 2626.2348   108.996    2.5478    0.1431     7.593   200.000     8.585
 2626.3872   115.601    2.5509    0.2162     3.342   200.000     8.824
 2626.5396    94.965    2.5339    0.1843     7.643   200.000     8.380
 2626.6920   102.889    2.5062    0.2113    10.560   200.000     8.478
 2626.8444   123.086    2.5612    0.2034     3.117   200.000     8.100
 2626.9968   111.663    2.4733    0.1706     4.647   200.000     9.058
 2627.1492   114.105    2.5580    0.2112     4.278   200.000     8.543
 2627.3016   131.144    2.6323    0.2294     7.650   200.000     8.270
 2627.4540   119.923    2.5756    0.1945     8.671   200.000     7.670
 2627.6064   115.723    2.5583    0.1964     8.490   200.000     8.400
 2627.7588   146.097    2.5322    0.1914     7.595   200.000     9.924
 2627.9112   111.112    2.5650    0.1950     4.077   200.000     8.162
 2628.0636   116.572    2.5542    0.1487     6.919   200.000     8.467
 2628.2160   114.883    2.6057    0.1238     5.266   200.000     8.455
 2628.3684   108.055    2.5485    0.1742     5.289   200.000     8.848
 2628.5208   127.387    2.4797    0.1649     3.584   200.000     8.957
 2628.6732   117.887    2.5256    0.1878     3.606   200.000     8.911
 2628.8256    88.498    2.5699    0.2012     5.999   200.000     8.426
 2628.9780   141.724    2.5474    0.2476     4.713   200.000     8.147
 2629.1304   129.991    2.5510    0.2301    10.878   200.000     8.482
 2629.2828    98.225    2.5293    0.1967     8.563   200.000     8.259
 2629.4352   111.155    2.5139    0.1668     3.041   200.000     8.063
 2629.5876   123.023    2.4922    0.1465     7.757   200.000     8.494
 2629.7400   149.183    2.6210    0.2097     4.649   200.000     7.912
 2629.8924   105.708    2.5193    0.2301     6.550   200.000     8.604
 2630.0448   111.050    2.5661    0.1847    14.448   200.000     8.437
 2630.1972   123.893    2.6156    0.2092     9.013   200.000     9.202
 2630.3496   117.838    2.4181    0.1289     6.158   200.000     8.704
 2630.5020   139.575    2.4326    0.2603     8.588   200.000     8.162
 2630.6544   104.432    2.5296    0.1837     5.350   200.000     8.665
 2630.8068   103.340    2.5121    0.1896     4.126   200.000     8.631
 2630.9592   153.850    2.5900    0.2254     4.598   200.000     8.922
 2631.1116   109.497    2.6996    0.2075     2.455   200.000     8.789
 2631.2640   114.709    2.5391    0.2118     3.707   200.000     8.521
 2631.4164    82.508    2.6660    0.1712     5.513   200.000     8.251
 2631.5688   123.915    2.6217    0.2101     3.747   200.000     9.224
 2631.7212   143.809    2.5783    0.1765     5.788   200.000     8.836
 2631.8736   119.544    2.5607    0.2082     6.381   200.000     7.925
 2632.0260    99.926    2.5457    0.2044     8.405   200.000     8.563
 2632.1784   138.917    2.5248    0.1883     4.887   200.000     8.814
 2632.3308   118.983    2.6029    0.1613     3.856   200.000     8.188
 2632.4832   109.997    2.4971    0.2245     6.255   200.000     8.686
 2632.6356   118.022    2.6349    0.1752     4.282   200.000     8.235
 2632.7880   126.717    2.5628    0.1408    10.326   200.000     8.194
 2632.9404    83.513    2.5043    0.1705     1.965   200.000     8.909
 2633.0928   133.139    2.5574    0.1910     3.273   200.000     8.553
 2633.2452   126.083    2.5764    0.2215     5.157   200.000     8.308
 2633.3976    93.442    2.6054    0.1706     5.447   200.000     8.193
 2633.5500   140.945    2.5091    0.2258    17.412   200.000     8.735
 2633.7024   140.473    2.5083    0.1768     4.933   200.000     9.092
 2633.8548   117.710    2.6114    0.1831     4.137   200.000     8.731
 2634.0072   126.142    2.5988    0.2171     8.217   200.000     8.384
 2634.1596   101.440    2.4968    0.2108     3.671   200.000     8.455
 2634.3120   126.340    2.5777    0.1879     5.825   200.000     8.823
 2634.4644   109.370    2.5218    0.1711     5.456   200.000     9.383
 2634.6168   114.642    2.5855    0.1587     4.106   200.000     8.426
 2634.7692   131.262    2.6484    0.1531     6.856   200.000     8.119
 2634.9216   122.573    2.5895    0.2000     6.233   200.000     8.921
 2635.0740   131.216    2.6271    0.1890     3.717   200.000     8.258
 2635.2264   115.174    2.6235    0.1552    10.081   200.000     8.791
 2635.3788   132.066    2.5395    0.1900     5.210   200.000     8.504
 2635.5312   124.560    2.4855    0.1632     9.689   200.000     8.819
 2635.6836   106.518    2.5730    0.1958     6.570   200.000     8.086
 2635.8360   133.735    2.5891    0.1781     7.173   200.000     8.406
 2635.9884   147.122    2.5174    0.2027     3.933   200.000     8.289
 2636.1408   111.529    2.5541    0.2184    10.489   200.000     8.041
 2636.2932   123.467    2.5729    0.1961     6.269   200.000     8.532
 2636.4456   144.462    2.5948    0.2111     5.221   200.000     8.847
 2636.5980   116.467    2.5979    0.2285     4.897   200.000     8.969
 2636.7504    87.174    2.5825    0.2312     4.856   200.000     7.893
 2636.9028   138.894    2.4979    0.1507     4.357   200.000     8.206
 2637.0552   108.773    2.4859    0.2415     4.739   200.000     9.152
 2637.2076   133.168    2.6067    0.2471     3.309   200.000     7.851
 2637.3600   122.852    2.5393    0.1499     3.460   200.000     8.207
 2637.5124   130.406    2.5742    0.1976    11.414   200.000     8.354
 2637.6648   113.335    2.5749    0.1931     4.911   200.000     8.375
 2637.8172   114.304    2.6553    0.2375     4.242   200.000     7.633
 2637.9696    89.162    2.5698    0.1592     4.806   200.000     8.427
 2638.1220    96.559    2.5987    0.1966     6.711   200.000     7.649
 2638.2744   144.958    2.6205    0.2007     4.608   200.000     8.329
 2638.4268   128.145    2.6237    0.1647    16.359   200.000     7.932
 2638.5792   138.177    2.4706    0.1406     6.758   200.000     9.258
 2638.7316   122.857    2.6171    0.1963     5.774   200.000     8.000
 2638.8840   121.894    2.6695    0.2111     8.721   200.000     9.041
 2639.0364   125.768    2.4803    0.1928     8.661   200.000     8.804
 2639.1888   119.482    2.5366    0.2141    15.000   200.000     8.584
