~VERSION INFORMATION
 VERS.                 2.0    : CWLS LOG ASCII STANDARD
 WRAP.                 NO     : ONE LINE PER DEPTH STEP
~WELL INFORMATION
 WELL.                 Anadarko-B7    : Well name
 FLD .                 Anadarko Basin         : Field
 CTRY.                 USA       : Country
 STRT.M                900.0000 : START DEPTH
 STOP.M                3500.0000   : STOP DEPTH
 STEP.M                0.1524        : STEP
 NULL.                 -999.25          : NULL VALUE
 SRVC.                 SubsurfAI        : Service company
~CURVE INFORMATION
 DEPT.M                              : Depth
 GR  .GAPI                           : Gamma Ray
 RHOB.G/C3                           : Bulk Density
 NPHI.V/V                            : Neutron Porosity
 RT  .OHMM                           : True Resistivity
 DT  .US/F                           : Sonic
 CALI.IN                             : Caliper
~PARAMETER INFORMATION
 LAT .                 35.4676   : Latitude
 LON .                 -98.6784   : Longitude
 DESC.                 Anadarko Basin — Springer/Morrow sandstone gas
~A  DEPT        GR        RHOB      NPHI      RT        DT        CALI
# ...
 2277.6960    13.679    2.6226    0.0623   140.007   200.000     8.037
 2277.8484    10.372    2.7002    0.0475   124.090   200.000     8.511
 2278.0008    16.447    2.6529    0.0590   494.606   200.000     8.838
 2278.1532     9.283    2.7517    0.0904   621.319   200.000     8.596
 2278.3056    18.165    2.7817    0.0574   237.958   200.000     8.579
 2278.4580    16.509    2.7078    0.0564   291.739   200.000     8.837
 2278.6104    14.837    2.7563    0.0755   123.993   200.000     8.166
 2278.7628    16.530    2.6864    0.0593   444.566   200.000     8.477
 2278.9152     5.952    2.6909    0.0619   291.091   200.000     9.036
 2279.0676    16.461    2.7670    0.0573   233.805   200.000     8.396
 2279.2200    19.621    2.6273    0.0588   215.841   200.000     8.640
 2279.3724    15.318    2.6267    0.0578   260.542   200.000     8.603
 2279.5248    11.497    2.7610    0.0658   261.796   200.000     8.313
 2279.6772    13.422    2.6327    0.0620   210.261   200.000     7.554
 2279.8296    18.153    2.6205    0.0563   331.056   200.000     8.438
 2279.9820     8.613    2.6834    0.0476   337.336   200.000     8.559
 2280.1344    15.314    2.7391    0.0553   533.490   200.000     9.110
 2280.2868    18.356    2.6714    0.0600   326.274   200.000     8.485
 2280.4392    13.769    2.7116    0.0465   256.758   200.000     8.057
 2280.5916    12.210    2.7093    0.0414   979.265   200.000     8.594
 2280.7440    14.316    2.7237    0.0769   275.769   200.000     8.593
 2280.8964    16.751    2.7212    0.0686   595.754   200.000     7.703
 2281.0488    18.086    2.5708    0.0490   910.760   200.000     8.343
 2281.2012    15.398    2.7575    0.0625   347.475   200.000     8.444
 2281.3536     7.827    2.7240    0.0684   470.671   200.000     7.946
 2281.5060    11.499    2.6632    0.0624   258.794   200.000     8.689
 2281.6584    13.786    2.7069    0.0456   224.557   200.000     8.438
 2281.8108    19.475    2.6852    0.0659   216.899   200.000     9.129
 2281.9632    13.790    2.7314    0.0611   389.868   200.000     8.423
 2282.1156    14.279    2.6188    0.0697   157.656   200.000     8.795
 2282.2680    12.166    2.6310    0.0537   270.742   200.000     8.903
 2282.4204    18.514    2.6405    0.0724   196.871   200.000     8.042
 2282.5728    13.414    2.6352    0.0556    88.880   200.000     8.201
 2282.7252    22.136    2.7331    0.0646   303.096   200.000     8.566
 2282.8776    11.205    2.6930    0.0634   220.105   200.000     7.581
 2283.0300     5.916    2.6988    0.0677   411.346   200.000     7.998
 2283.1824    19.022    2.6541    0.0531   100.673   200.000     8.159
 2283.3348    16.001    2.6992    0.0504   232.678   200.000     8.369
 2283.4872    10.987    2.6567    0.0607   266.789   200.000     8.129
 2283.6396    15.966    2.6615    0.0641   196.755   200.000     8.355
 2283.7920     7.607    2.6103    0.0586   370.266   200.000     8.469
 2283.9444    19.247    2.5519    0.0420   422.556   200.000     8.587
 2284.0968    15.092    2.6579    0.0640   331.089   200.000     8.984
 2284.2492    18.702    2.6179    0.0686   286.442   200.000     8.683
 2284.4016    13.278    2.6626    0.0622   206.263   200.000     8.743
 2284.5540     7.191    2.6706    0.0711   186.758   200.000     8.412
 2284.7064    13.881    2.5323    0.0641   151.985   200.000     8.786
 2284.8588     4.567    2.7033    0.0577   135.520   200.000     7.398
 2285.0112    18.400    2.6284    0.0595   388.911   200.000     8.451
 2285.1636    12.878    2.5585    0.0819   159.449   200.000     8.782
 2285.3160     5.991    2.7197    0.0583   162.510   200.000     8.948
 2285.4684    10.420    2.6436    0.0706   150.532   200.000     8.526
 2285.6208    15.762    2.7070    0.0680   337.946   200.000     9.113
 2285.7732    12.161    2.7089    0.0566   226.904   200.000     8.440
 2285.9256    10.623    2.6870    0.0623   186.824   200.000     8.305
 2286.0780    10.122    2.6480    0.0631   342.327   200.000     9.374
 2286.2304    11.625    2.6319    0.0483   224.016   200.000     8.270
 2286.3828    14.849    2.6606    0.0655   272.043   200.000     8.222
 2286.5352    14.265    2.6980    0.0667   588.410   200.000     8.623
 2286.6876    16.934    2.7221    0.0614   204.526   200.000     8.341
 2286.8400    18.430    2.6734    0.0721   399.254   200.000     9.142
 2286.9924    20.595    2.6478    0.0586   725.103   200.000     8.679
 2287.1448    15.671    2.6164    0.0706   403.040   200.000     8.356
 2287.2972    10.456    2.6699    0.0654   234.617   200.000     9.818
 2287.4496    13.846    2.6520    0.0508   191.639   200.000     8.215
 2287.6020    17.942    2.7444    0.0631   253.818   200.000     7.605
 2287.7544    15.629    2.5798    0.0657   183.410   200.000     8.512
 2287.9068    12.536    2.7095    0.0496   239.518   200.000     8.851
 2288.0592    13.377    2.7538    0.0578   333.618   200.000     8.883
 2288.2116    12.316    2.7030    0.0534   334.637   200.000     8.605
 2288.3640    19.480    2.7334    0.0696   278.874   200.000     7.813
 2288.5164    12.868    2.6814    0.0678   310.244   200.000     9.011
 2288.6688    16.701    2.8459    0.0442   490.721   200.000     8.593
 2288.8212    12.809    2.6124    0.0611   176.557   200.000     9.079
 2288.9736    13.843    2.8015    0.0490   304.702   200.000     8.529
 2289.1260    16.738    2.6923    0.0515   392.005   200.000     8.081
 2289.2784    14.574    2.7275    0.0578   292.298   200.000     8.980
 2289.4308    17.994    2.6485    0.0681   327.530   200.000     8.175
 2289.5832    12.621    2.6603    0.0630   317.110   200.000     8.688
 2289.7356     7.403    2.7383    0.0609   318.571   200.000     8.671
 2289.8880    14.256    2.7325    0.0691   536.996   200.000     8.554
 2290.0404    12.102    2.7881    0.0558   383.921   200.000     9.462
 2290.1928    14.077    2.5963    0.0557   306.928   200.000     8.928
 2290.3452    10.417    2.6563    0.0426   189.057   200.000     8.387
 2290.4976    22.104    2.6857    0.0720   210.983   200.000     9.134
 2290.6500    14.818    2.6863    0.0653   395.258   200.000     8.844
 2290.8024    11.449    2.7232    0.0575   155.083   200.000     8.641
 2290.9548    15.425    2.6435    0.0624   179.566   200.000     7.901
 2291.1072    14.912    2.6571    0.0631   728.397   200.000     7.938
 2291.2596    15.001    2.7097    0.0531   235.864   200.000     8.740
 2291.4120    11.303    2.6960    0.0485   263.203   200.000     8.203
 2291.5644    10.982    2.7883    0.0579   465.637   200.000     8.185
 2291.7168     9.572    2.6679    0.0657   252.452   200.000     7.680
 2291.8692    12.333    2.6156    0.0581   400.952   200.000     8.193
 2292.0216    14.519    2.6400    0.0760   120.433   200.000     8.182
 2292.1740    13.155    2.7262    0.0555   509.128   200.000     8.126
 2292.3264     7.794    2.6948    0.0598   283.773   200.000     8.723
 2292.4788    17.262    2.8212    0.0625   163.112   200.000     9.093
 2292.6312    12.740    2.6367    0.0631   372.492   200.000     8.564
 2292.7836     8.093    2.7210    0.0563   333.182   200.000     8.711
 2292.9360     9.747    2.7071    0.0629   568.495   200.000     8.204
 2293.0884     7.304    2.7982    0.0536   268.407   200.000     8.354
 2293.2408    16.032    2.6600    0.0624   598.090   200.000     8.462
 2293.3932    15.770    2.7334    0.0539   264.298   200.000     9.101
 2293.5456    16.010    2.7273    0.0540   482.116   200.000     8.677
 2293.6980    11.522    2.7391    0.0596   375.158   200.000     8.977
 2293.8504     9.724    2.7510    0.0631   589.217   200.000     7.943
 2294.0028    11.239    2.6434    0.0384   164.173   200.000     9.313
 2294.1552    19.735    2.7417    0.0533   147.104   200.000     8.578
 2294.3076    14.091    2.7106    0.0514   241.265   200.000     8.451
 2294.4600    18.442    2.7486    0.0695   178.596   200.000     8.347
 2294.6124     9.950    2.7083    0.0553   204.448   200.000     8.272
 2294.7648    15.208    2.5654    0.0531   313.220   200.000     8.752
