~VERSION INFORMATION
 VERS.                 2.0    : CWLS LOG ASCII STANDARD
 WRAP.                 NO     : ONE LINE PER DEPTH STEP
~WELL INFORMATION
 WELL.                 Anadarko-B7    : Well name
 FLD .                 Anadarko Basin         : Field
 CTRY.                 USA       : Country
 STRT.M                900.0000 : START DEPTH
 STOP.M                3500.0000   : STOP DEPTH
 STEP.M                0.1524        : STEP
 NULL.                 -999.25          : NULL VALUE
 SRVC.                 SubsurfAI        : Service company
~CURVE INFORMATION
 DEPT.M                              : Depth
 GR  .GAPI                           : Gamma Ray
 RHOB.G/C3                           : Bulk Density
 NPHI.V/V                            : Neutron Porosity
 RT  .OHMM                           : True Resistivity
 DT  .US/F                           : Sonic
 CALI.IN                             : Caliper
~PARAMETER INFORMATION
 LAT .                 35.4676   : Latitude
 LON .                 -98.6784   : Longitude
 DESC.                 Anadarko Basin — Springer/Morrow sandstone gas
~A  DEPT        GR        RHOB      NPHI      RT        DT        CALI
# ...
 1588.8480    50.634    2.3842    0.1530    18.101   200.000     8.804
 1589.0004    50.860    2.4664    0.1639    17.867   200.000     8.544
 1589.1528    42.618    2.4355    0.2059    15.476   200.000     8.352
 1589.3052    47.830    2.3860    0.1273    18.342   200.000     8.555
 1589.4576    44.139    2.4454    0.1438    26.198   200.000     8.465
 1589.6100    49.447    2.3345    0.1467    30.356   200.000     7.687
 1589.7624    48.777    2.3938    0.1678    13.528   200.000     8.084
 1589.9148    45.913    2.3580    0.1574    11.364   200.000     8.616
 1590.0672    56.713    2.4651    0.1532    28.028   200.000     8.493
 1590.2196    44.953    2.4187    0.1266    10.636   200.000     8.502
 1590.3720    57.354    2.3580    0.1788    11.597   200.000     8.335
 1590.5244    54.788    2.3946    0.1346    19.341   200.000     8.150
 1590.6768    49.704    2.3584    0.1572    45.826   200.000     7.918
 1590.8292    40.197    2.4786    0.1483    30.578   200.000     7.607
 1590.9816    48.938    2.3843    0.1797    10.289   200.000     8.841
 1591.1340    49.121    2.3480    0.1449     6.008   200.000     8.446
 1591.2864    45.255    2.3302    0.1683    13.680   200.000     9.084
 1591.4388    35.264    2.4129    0.1711    23.823   200.000     7.918
 1591.5912    52.722    2.3172    0.1710    11.903   200.000     8.379
 1591.7436    40.890    2.4154    0.1385     9.875   200.000     8.419
 1591.8960    45.653    2.3272    0.1765    13.144   200.000     8.074
 1592.0484    49.708    2.3427    0.1891    21.913   200.000     8.206
 1592.2008    49.584    2.4585    0.1534    86.490   200.000     8.516
 1592.3532    46.194    2.2904    0.1804    27.441   200.000     8.173
 1592.5056    52.109    2.3846    0.1727    12.645   200.000     8.597
 1592.6580    45.243    2.4251    0.1410    11.549   200.000     8.509
 1592.8104    55.427    2.3359    0.1425    14.901   200.000     8.348
 1592.9628    49.879    2.2967    0.1494    24.603   200.000     7.547
 1593.1152    58.574    2.4280    0.1289    50.074   200.000     8.252
 1593.2676    38.523    2.3211    0.1479    19.122   200.000     8.673
 1593.4200    46.517    2.4836    0.1383    16.505   200.000     8.044
 1593.5724    47.802    2.3409    0.1702    23.691   200.000     8.101
 1593.7248    52.299    2.3902    0.1472     9.650   200.000     8.035
 1593.8772    41.161    2.4112    0.1805    15.653   200.000     8.760
 1594.0296    50.128    2.3979    0.1497    19.906   200.000     8.357
 1594.1820    52.132    2.4140    0.1547    26.361   200.000     8.911
 1594.3344    42.185    2.4300    0.1895    30.448   200.000     8.089
 1594.4868    48.493    2.3365    0.1765    20.750   200.000     9.013
 1594.6392    47.395    2.3479    0.1656    18.122   200.000     8.366
 1594.7916    52.883    2.3564    0.1917    43.334   200.000     7.998
 1594.9440    48.340    2.3726    0.1284    11.760   200.000     8.376
 1595.0964    49.196    2.3900    0.1852    21.542   200.000     8.902
 1595.2488    38.625    2.4471    0.1626    22.421   200.000     9.014
 1595.4012    43.228    2.2567    0.1720    30.442   200.000     9.153
 1595.5536    47.318    2.3400    0.1567    26.984   200.000     8.781
 1595.7060    42.473    2.3966    0.2164    12.139   200.000     8.522
 1595.8584    35.918    2.3082    0.1449     8.456   200.000     8.419
 1596.0108    34.901    2.3746    0.1383    11.864   200.000     8.353
 1596.1632    53.820    2.3090    0.1509     6.519   200.000     8.994
 1596.3156    40.688    2.3950    0.1832    12.637   200.000     7.864
 1596.4680    28.703    2.3356    0.1464    14.532   200.000     9.151
 1596.6204    48.435    2.3933    0.1873    27.155   200.000     9.123
 1596.7728    52.844    2.3428    0.1740    58.029   200.000     8.346
 1596.9252    32.880    2.3258    0.1301    13.178   200.000     9.344
 1597.0776    49.694    2.3056    0.1302     9.859   200.000     8.729
 1597.2300    41.998    2.2887    0.1760    20.636   200.000     9.062
 1597.3824    56.803    2.4223    0.2059    21.003   200.000     8.003
 1597.5348    41.557    2.4002    0.1796    11.843   200.000     8.896
 1597.6872    43.629    2.4059    0.1505    14.753   200.000     8.214
 1597.8396    38.691    2.3151    0.1865     8.340   200.000     8.697
 1597.9920    34.300    2.2986    0.1553    16.521   200.000     8.829
 1598.1444    58.077    2.3209    0.1367    28.380   200.000     8.271
 1598.2968    52.027    2.4058    0.1636    30.383   200.000     9.031
 1598.4492    35.381    2.4341    0.1581    20.404   200.000     8.826
 1598.6016    38.629    2.2689    0.1746    17.562   200.000     8.956
 1598.7540    39.175    2.3069    0.1416    10.398   200.000     8.470
 1598.9064    49.049    2.3535    0.1580    12.050   200.000     8.791
 1599.0588    41.595    2.4321    0.1583    22.199   200.000     8.997
 1599.2112    52.145    2.4794    0.1653    22.223   200.000     8.304
 1599.3636    51.588    2.4061    0.1643    15.283   200.000     7.862
 1599.5160    45.005    2.3247    0.1434    27.062   200.000     8.500
 1599.6684    41.733    2.4109    0.1616    12.577   200.000     9.336
 1599.8208    38.602    2.3869    0.1627    29.343   200.000     8.371
 1599.9732    47.369    2.4209    0.2064    29.600   200.000     9.155
 1600.1256    41.580    2.4476    0.1834    11.214   200.000     8.477
 1600.2780    49.390    2.3425    0.1860    28.102   200.000     8.266
 1600.4304    56.255    2.4209    0.1862    14.435   200.000     8.581
 1600.5828    49.045    2.2966    0.1931    15.701   200.000     8.992
 1600.7352    36.041    2.4314    0.1412    15.002   200.000     8.447
 1600.8876    51.847    2.3325    0.1673    18.916   200.000     8.034
 1601.0400    42.224    2.3545    0.1798    11.516   200.000     7.969
 1601.1924    46.133    2.4345    0.1276    16.200   200.000     8.523
 1601.3448    57.472    2.3870    0.1492    22.481   200.000     8.228
 1601.4972    52.026    2.3567    0.1278    18.580   200.000     8.597
 1601.6496    39.589    2.3266    0.1390    61.784   200.000     8.272
 1601.8020    42.885    2.3060    0.1399    15.966   200.000     8.197
 1601.9544    30.527    2.3881    0.1410    37.178   200.000     8.524
 1602.1068    45.555    2.3915    0.1577    29.204   200.000     8.500
 1602.2592    39.649    2.3668    0.1795    15.719   200.000     8.855
 1602.4116    46.986    2.3704    0.1395    14.555   200.000     8.425
 1602.5640    44.086    2.3663    0.2155    10.931   200.000     8.604
 1602.7164    44.387    2.3814    0.1681     8.737   200.000     8.470
 1602.8688    41.904    2.3466    0.1608    16.998   200.000     8.101
 1603.0212    35.284    2.3464    0.2114    14.878   200.000     8.528
 1603.1736    50.012    2.4293    0.1439     7.553   200.000     7.798
 1603.3260    41.773    2.3198    0.1535     7.585   200.000     7.885
 1603.4784    38.936    2.3391    0.1647    11.127   200.000     8.303
 1603.6308    43.539    2.3322    0.1663     9.911   200.000     8.263
 1603.7832    47.771    2.4429    0.1744    12.282   200.000     8.593
 1603.9356    52.107    2.4424    0.1248    11.632   200.000     8.225
 1604.0880    39.141    2.3725    0.1491    10.657   200.000     9.030
 1604.2404    49.740    2.3124    0.2051    19.561   200.000     8.694
 1604.3928    36.216    2.3837    0.1689    13.639   200.000     8.390
 1604.5452    43.234    2.4221    0.1499    34.726   200.000     8.742
 1604.6976    39.047    2.3420    0.1710    12.955   200.000     8.371
 1604.8500    41.186    2.4238    0.1510    34.651   200.000     8.669
 1605.0024    35.175    2.3646    0.1343    24.938   200.000     8.356
 1605.1548    40.039    2.3918    0.1768    25.292   200.000     8.807
 1605.3072    52.801    2.4677    0.2088     7.631   200.000     8.649
 1605.4596    55.023    2.3885    0.1562    17.010   200.000     8.851
 1605.6120    38.143    2.4546    0.1550    17.003   200.000     8.512
 1605.7644    36.962    2.3132    0.1519    12.630   200.000     9.103
 1605.9168    32.932    2.3693    0.1793    21.615   200.000     9.117
