~VERSION INFORMATION
 VERS.                 2.0    : CWLS LOG ASCII STANDARD
 WRAP.                 NO     : ONE LINE PER DEPTH STEP
~WELL INFORMATION
 WELL.                 Anadarko-B7    : Well name
 FLD .                 Anadarko Basin         : Field
 CTRY.                 USA       : Country
 STRT.M                900.0000 : START DEPTH
 STOP.M                3500.0000   : STOP DEPTH
 STEP.M                0.1524        : STEP
 NULL.                 -999.25          : NULL VALUE
 SRVC.                 SubsurfAI        : Service company
~CURVE INFORMATION
 DEPT.M                              : Depth
 GR  .GAPI                           : Gamma Ray
 RHOB.G/C3                           : Bulk Density
 NPHI.V/V                            : Neutron Porosity
 RT  .OHMM                           : True Resistivity
 DT  .US/F                           : Sonic
 CALI.IN                             : Caliper
~PARAMETER INFORMATION
 LAT .                 35.4676   : Latitude
 LON .                 -98.6784   : Longitude
 DESC.                 Anadarko Basin — Springer/Morrow sandstone gas
~A  DEPT        GR        RHOB      NPHI      RT        DT        CALI
  900.0000   142.784    2.6006    0.2289     7.349   200.000     8.768
  900.1524   112.237    2.7131    0.1584     8.730   200.000     7.978
  900.3048   134.324    2.6576    0.1792     7.028   200.000     8.136
  900.4572   133.676    2.6418    0.1994     4.085   200.000     8.203
  900.6096   129.242    2.5614    0.1572     6.006   200.000     8.431
  900.7620   124.019    2.6469    0.2337     5.184   200.000     8.453
  900.9144   132.338    2.5169    0.1929     2.260   200.000     8.208
  901.0668   143.520    2.5483    0.2253     4.743   200.000     9.074
  901.2192   122.873    2.5902    0.2174     7.139   200.000     8.997
  901.3716   140.081    2.6228    0.1956     7.778   200.000     8.228
  901.5240   131.221    2.6737    0.1887     6.055   200.000     8.833
  901.6764   117.664    2.6293    0.2011     5.694   200.000     8.910
  901.8288   103.278    2.5512    0.2051     3.889   200.000     9.056
  901.9812   128.359    2.5124    0.1765     4.224   200.000     8.278
  902.1336   118.689    2.5849    0.1987     2.576   200.000     8.809
  902.2860   132.517    2.5887    0.2301     6.174   200.000     8.710
  902.4384   122.816    2.6179    0.2236     7.087   200.000     9.012
  902.5908   118.298    2.6212    0.1618     6.712   200.000     7.754
  902.7432   108.981    2.6491    0.1887    10.361   200.000     8.334
  902.8956   138.282    2.6251    0.2505     1.954   200.000     8.490
  903.0480   108.640    2.5120    0.1896     4.027   200.000     8.134
  903.2004   125.764    2.6197    0.1492     2.464   200.000     8.291
  903.3528   123.616    2.5700    0.2328     3.401   200.000     8.714
  903.5052   112.634    2.6413    0.1585     8.482   200.000     8.299
  903.6576   103.942    2.6107    0.2049     6.859   200.000     8.044
  903.8100   147.381    2.5507    0.2035    10.243   200.000     8.836
  903.9624   119.858    2.6548    0.1802     3.983   200.000     8.439
  904.1148   124.404    2.5896    0.1916     7.281   200.000     8.626
  904.2672   125.412    2.5727    0.1869     2.200   200.000     7.597
  904.4196   139.532    2.5614    0.1948     8.200   200.000     8.199
  904.5720   126.858    2.6061    0.1914     7.244   200.000     8.773
  904.7244   125.636    2.6622    0.2395     4.420   200.000     7.888
  904.8768   128.007    2.5682    0.2046     6.082   200.000     8.588
  905.0292   135.049    2.6235    0.1668     2.856   200.000     8.693
  905.1816   119.914    2.5253    0.2219     2.978   200.000     8.325
  905.3340   120.103    2.5646    0.2623     6.813   200.000     8.153
  905.4864   110.354    2.5817    0.2457     5.202   200.000     7.642
  905.6388   128.316    2.5386    0.2558     7.302   200.000     8.300
  905.7912   149.294    2.5392    0.1366     5.086   200.000     8.261
  905.9436   127.313    2.5735    0.1974     9.135   200.000     7.665
  906.0960   101.383    2.6817    0.1754    10.406   200.000     8.773
  906.2484   160.887    2.5004    0.2418    14.626   200.000     8.471
  906.4008    95.787    2.6636    0.1644    11.440   200.000     9.866
  906.5532   121.092    2.5289    0.2262     7.152   200.000     8.654
  906.7056   140.686    2.6182    0.2144    17.474   200.000     8.337
  906.8580   125.348    2.5808    0.2049     6.782   200.000     8.989
  907.0104   132.825    2.5779    0.2728     5.318   198.652     8.277
  907.1628    98.846    2.5754    0.2199     2.662   200.000     8.518
  907.3152   129.043    2.6174    0.2724     6.753   198.896     8.790
  907.4676   116.134    2.6912    0.1855     6.972   200.000     8.372
  907.6200   104.730    2.5892    0.2217    10.427   200.000     8.396
  907.7724   141.943    2.6971    0.1838     6.817   200.000     8.173
  907.9248   109.731    2.6421    0.1668     8.457   200.000     8.139
  908.0772   115.734    2.5241    0.2099     7.116   200.000     8.842
  908.2296   120.679    2.5863    0.2090     8.203   200.000     9.192
  908.3820   132.443    2.4878    0.2186     7.493   200.000     8.633
  908.5344   142.945    2.6219    0.2518     2.871   200.000     8.324
  908.6868   131.071    2.5502    0.2453    12.734   200.000     8.849
  908.8392   130.178    2.5360    0.2152     4.207   200.000     8.384
  908.9916    92.336    2.5639    0.2034     9.303   200.000     8.886
  909.1440   107.732    2.5567    0.1303     2.762   200.000     8.999
  909.2964   132.779    2.5848    0.1834     2.777   200.000     7.998
  909.4488   143.733    2.5857    0.2029     4.314   200.000     9.322
  909.6012   145.142    2.5411    0.2230     3.019   200.000     8.970
  909.7536   140.536    2.5959    0.1835     3.330   200.000     8.957
  909.9060   137.094    2.5710    0.2096     6.248   200.000     8.009
  910.0584   120.627    2.6008    0.2249     3.294   200.000     8.533
  910.2108   154.708    2.6058    0.2192     4.540   200.000     7.537
  910.3632   109.639    2.6480    0.1712     4.835   200.000     8.780
  910.5156   144.887    2.6084    0.1785     4.496   200.000     8.808
  910.6680   120.218    2.5932    0.2074     8.552   200.000     9.062
  910.8204   112.485    2.5866    0.1938     7.657   200.000     8.726
  910.9728   119.080    2.5948    0.2089     7.452   200.000     8.659
  911.1252   135.105    2.4743    0.2238     5.920   200.000     8.568
  911.2776   116.648    2.4999    0.1551     3.883   200.000     8.444
  911.4300   149.837    2.5842    0.2191     3.113   200.000     7.904
  911.5824   104.874    2.5455    0.1665     3.968   200.000     8.912
  911.7348   104.979    2.4998    0.2154     6.600   200.000     7.880
  911.8872   130.123    2.4911    0.2406     3.372   200.000     8.841
  912.0396   123.218    2.5516    0.1956     6.808   200.000     8.422
  912.1920   146.971    2.5424    0.1511     5.594   200.000     8.844
  912.3444   110.762    2.5485    0.2064     7.528   200.000     9.070
  912.4968   145.683    2.5659    0.2154     2.565   200.000     9.652
  912.6492   120.213    2.5100    0.1411     8.655   200.000     8.323
  912.8016   115.799    2.5860    0.1919     3.035   200.000     7.887
  912.9540   131.788    2.5274    0.2133     7.062   200.000     8.453
  913.1064   151.910    2.5315    0.1763     3.642   200.000     8.615
  913.2588   140.626    2.6203    0.1550     7.852   200.000     8.564
  913.4112    99.156    2.5456    0.1861     2.949   200.000     7.654
  913.5636   123.501    2.6092    0.1370     6.894   200.000     8.603
  913.7160   129.368    2.5637    0.2276    12.919   200.000     8.440
  913.8684   118.375    2.5235    0.1857     7.447   200.000     8.571
  914.0208   101.364    2.6180    0.1859     3.985   200.000     8.190
  914.1732   104.430    2.5916    0.2034     8.109   200.000     8.864
  914.3256   128.726    2.6864    0.2171     5.349   200.000     7.898
  914.4780   112.582    2.5971    0.1859     6.247   200.000     8.673
  914.6304   111.314    2.5879    0.1649     8.981   200.000     8.614
  914.7828   126.971    2.6379    0.1620     9.585   200.000     8.653
  914.9352   108.310    2.6190    0.2201     3.377   200.000     9.347
  915.0876   103.373    2.5643    0.1861     3.246   200.000     9.207
  915.2400   117.329    2.6110    0.2010     2.891   200.000     8.596
  915.3924   133.657    2.6561    0.1866     4.467   200.000     7.817
  915.5448   127.862    2.5417    0.2175     3.241   200.000     9.567
  915.6972    97.702    2.6692    0.2126     9.786   200.000     8.431
  915.8496   131.352    2.4826    0.2435     4.360   200.000     8.713
  916.0020   128.469    2.5510    0.2191     4.315   200.000     9.301
  916.1544   152.542    2.5965    0.2145     3.993   200.000     7.982
  916.3068   171.185    2.5254    0.2292    12.539   200.000     9.271
  916.4592   123.433    2.5475    0.1622     2.616   200.000     8.136
  916.6116   137.755    2.6263    0.2086     5.613   200.000     8.710
  916.7640   131.296    2.5680    0.1558     5.161   200.000     8.312
  916.9164   126.021    2.5404    0.2030     5.492   200.000     8.060
  917.0688   163.805    2.5600    0.1942     4.087   200.000     9.245
