~VERSION INFORMATION
 VERS.                 2.0    : CWLS LOG ASCII STANDARD
 WRAP.                 NO     : ONE LINE PER DEPTH STEP
~WELL INFORMATION
 WELL.                 Anadarko-B7    : Well name
 FLD .                 Anadarko Basin         : Field
 CTRY.                 USA       : Country
 STRT.M                900.0000 : START DEPTH
 STOP.M                3500.0000   : STOP DEPTH
 STEP.M                0.1524        : STEP
 NULL.                 -999.25          : NULL VALUE
 SRVC.                 SubsurfAI        : Service company
~CURVE INFORMATION
 DEPT.M                              : Depth
 GR  .GAPI                           : Gamma Ray
 RHOB.G/C3                           : Bulk Density
 NPHI.V/V                            : Neutron Porosity
 RT  .OHMM                           : True Resistivity
 DT  .US/F                           : Sonic
 CALI.IN                             : Caliper
~PARAMETER INFORMATION
 LAT .                 35.4676   : Latitude
 LON .                 -98.6784   : Longitude
 DESC.                 Anadarko Basin — Springer/Morrow sandstone gas
~A  DEPT        GR        RHOB      NPHI      RT        DT        CALI
# ...
 1244.4240   127.464    2.5324    0.2467    11.562   200.000     8.688
 1244.5764   117.337    2.6000    0.2026     2.623   200.000     7.801
 1244.7288   132.901    2.5625    0.2072     5.984   200.000     8.618
 1244.8812   100.081    2.6211    0.2249     2.155   200.000     7.846
 1245.0336   112.356    2.5583    0.2079     3.217   200.000     8.601
 1245.1860   128.985    2.6048    0.1868     3.123   200.000     8.271
 1245.3384   116.765    2.5025    0.1965     3.368   200.000     8.116
 1245.4908   115.704    2.5324    0.2113     5.393   200.000     8.390
 1245.6432   117.881    2.6160    0.1818     6.409   200.000     8.512
 1245.7956   127.509    2.6120    0.2169     3.955   200.000     8.001
 1245.9480   117.808    2.5019    0.2040     4.358   200.000     7.836
 1246.1004   129.519    2.5590    0.1895     9.369   200.000     8.780
 1246.2528   114.372    2.5929    0.2149     4.865   200.000     8.629
 1246.4052   113.627    2.6220    0.2393     8.654   200.000     7.914
 1246.5576   136.105    2.5905    0.1723     5.313   200.000     8.952
 1246.7100   137.289    2.6307    0.2241     6.035   200.000     9.131
 1246.8624   130.769    2.5824    0.2275     2.766   200.000     8.682
 1247.0148   128.676    2.6599    0.2348     8.896   200.000     8.553
 1247.1672   143.159    2.6341    0.2151     1.308   200.000     8.505
 1247.3196   108.008    2.5740    0.1711    12.771   200.000     8.337
 1247.4720    91.069    2.7035    0.1815     3.505   200.000     8.145
 1247.6244   127.210    2.5606    0.1867     2.468   200.000     8.196
 1247.7768   112.076    2.5496    0.2118     4.440   200.000     7.907
 1247.9292   123.237    2.4981    0.2446     2.064   200.000     8.931
 1248.0816   138.563    2.4913    0.2472     3.094   200.000     8.289
 1248.2340   119.611    2.5630    0.2803     3.371   190.776     8.782
 1248.3864    99.517    2.6080    0.1385     3.050   200.000     9.353
 1248.5388   119.669    2.5802    0.2374     7.616   200.000     8.901
 1248.6912   143.932    2.5846    0.2334     7.535   200.000     8.061
 1248.8436   118.435    2.5651    0.1378     2.712   200.000     8.306
 1248.9960   109.674    2.4968    0.2460     6.505   200.000     8.399
 1249.1484   114.063    2.6272    0.2343     6.030   200.000     8.464
 1249.3008   144.170    2.6047    0.2479     5.116   200.000     8.297
 1249.4532   128.758    2.5808    0.2132     4.660   200.000     8.157
 1249.6056    80.926    2.6717    0.1751     2.921   200.000     8.588
 1249.7580   156.810    2.5581    0.2189     3.756   200.000     8.751
 1249.9104   126.522    2.5712    0.2216     4.107   200.000     9.240
 1250.0628   139.854    2.5712    0.2118     7.797   200.000     8.130
 1250.2152   117.139    2.4360    0.1657     4.263   200.000     8.806
 1250.3676   114.298    2.5593    0.2009     3.179   200.000     8.336
 1250.5200   121.533    2.5798    0.1933     4.983   200.000     8.893
 1250.6724   132.498    2.5881    0.2047     8.616   200.000     8.676
 1250.8248   131.317    2.5779    0.1549     8.453   200.000     8.845
 1250.9772    99.768    2.6069    0.2424     6.012   200.000     8.464
 1251.1296   134.242    2.5437    0.1959     7.421   200.000     8.170
 1251.2820   143.197    2.5942    0.2174     4.061   200.000     8.088
 1251.4344   122.046    2.6057    0.2298     5.414   200.000     8.430
 1251.5868   153.089    2.5962    0.1868     5.455   200.000     8.517
 1251.7392   128.752    2.5801    0.1767     3.397   200.000     8.649
 1251.8916   131.347    2.5104    0.2095     2.769   200.000     8.625
 1252.0440   121.034    2.6449    0.1512     4.287   200.000     8.512
 1252.1964   111.277    2.5629    0.2080    11.819   200.000     8.626
 1252.3488   110.736    2.5905    0.1694     3.770   200.000     7.441
 1252.5012   140.100    2.6363    0.1418     2.282   200.000     8.736
 1252.6536   126.773    2.5901    0.1372     7.231   200.000     8.556
 1252.8060   114.847    2.6734    0.1837     2.838   200.000     9.246
 1252.9584   140.236    2.6105    0.2125    10.213   200.000     8.839
 1253.1108   118.004    2.6121    0.2239     2.628   200.000     8.566
 1253.2632   113.516    2.6614    0.2072     9.524   200.000     8.226
 1253.4156   112.637    2.7180    0.1952     3.035   200.000     8.258
 1253.5680   122.585    2.6511    0.2019     5.486   200.000     9.184
 1253.7204   127.393    2.5864    0.1820     4.721   200.000     8.195
 1253.8728   129.103    2.5960    0.1900     4.854   200.000     8.577
 1254.0252    93.358    2.6353    0.2579     4.544   200.000     9.223
 1254.1776   140.020    2.5721    0.1134     5.786   200.000     8.689
 1254.3300    94.002    2.5695    0.2627     3.963   200.000     8.864
 1254.4824   128.180    2.5738    0.2255     7.972   200.000     8.204
 1254.6348   117.721    2.5449    0.1666     9.954   200.000     7.838
 1254.7872    97.470    2.6073    0.1933     8.224   200.000     8.913
 1254.9396   132.395    2.6508    0.2211     4.415   200.000     8.831
 1255.0920   114.934    2.6171    0.1675     4.413   200.000     7.965
 1255.2444   114.892    2.5823    0.1466     7.599   200.000     8.967
 1255.3968   113.720    2.6216    0.2239     8.878   200.000     8.957
 1255.5492   108.945    2.6345    0.2194     9.489   200.000     8.027
 1255.7016   142.893    2.5728    0.2393     2.374   200.000     8.733
 1255.8540   124.367    2.5515    0.2239     9.431   200.000     8.233
 1256.0064   102.433    2.6339    0.2045     4.672   200.000     8.144
 1256.1588   125.419    2.5707    0.1839     3.856   200.000     8.388
 1256.3112   125.277    2.5761    0.1665     4.092   200.000     8.903
 1256.4636   108.777    2.5888    0.1910     5.540   200.000     8.664
 1256.6160    95.458    2.5600    0.2374     5.757   200.000     8.196
 1256.7684   105.306    2.5721    0.1539     3.821   200.000     9.283
 1256.9208   141.386    2.5644    0.1621     4.569   200.000     8.577
 1257.0732   113.633    2.5788    0.2062     3.914   200.000     8.488
 1257.2256   119.923    2.5408    0.1704     1.574   200.000     8.554
 1257.3780   146.438    2.5506    0.2418     4.843   200.000     8.572
 1257.5304   108.913    2.5030    0.2608     1.350   200.000     8.278
 1257.6828    87.085    2.5694    0.2457    12.943   200.000     8.251
 1257.8352   116.034    2.6020    0.2224     3.336   200.000     9.281
 1257.9876   113.534    2.6331    0.2256     9.241   200.000     8.367
 1258.1400   112.909    2.5097    0.1973     2.528   200.000     9.529
 1258.2924   124.989    2.5356    0.1836     6.656   200.000     8.947
 1258.4448   116.052    2.5809    0.1773    11.152   200.000     8.795
 1258.5972   142.244    2.5811    0.1689     6.417   200.000     8.968
 1258.7496   136.979    2.5534    0.1939     3.817   200.000     8.180
 1258.9020   142.383    2.5490    0.1920     4.723   200.000     8.019
 1259.0544   131.578    2.5638    0.1764     5.172   200.000     8.653
 1259.2068   117.066    2.5704    0.1798     3.105   200.000     7.788
 1259.3592    97.883    2.5849    0.1937     2.725   200.000     9.282
 1259.5116   112.845    2.6627    0.2022     6.571   200.000     9.050
 1259.6640   111.256    2.5968    0.2816     3.718   197.855     7.447
 1259.8164   123.332    2.5849    0.1563     6.054   200.000     8.157
 1259.9688   134.682    2.5688    0.2260     4.880   200.000     8.249
 1260.1212   133.544    2.5303    0.2128     5.520   200.000     8.525
 1260.2736   128.036    2.5625    0.2072     2.099   200.000     8.656
 1260.4260   122.332    2.5513    0.2332     3.995   200.000     8.140
 1260.5784   117.893    2.5006    0.1506     3.388   200.000     8.261
 1260.7308   142.011    2.5563    0.2331     2.769   200.000     9.017
 1260.8832   129.089    2.7344    0.1879     4.043   200.000     8.407
 1261.0356   135.191    2.5104    0.2354     6.016   200.000     8.713
 1261.1880   115.713    2.5609    0.1964     5.538   200.000     8.542
 1261.3404    98.192    2.6923    0.1697     2.570   200.000     8.400
 1261.4928   143.428    2.6339    0.1766     5.497   200.000     8.761
