~VERSION INFORMATION
 VERS.                 2.0    : CWLS LOG ASCII STANDARD
 WRAP.                 NO     : ONE LINE PER DEPTH STEP
~WELL INFORMATION
 WELL.                 Anadarko-B7    : Well name
 FLD .                 Anadarko Basin         : Field
 CTRY.                 USA       : Country
 STRT.M                900.0000 : START DEPTH
 STOP.M                3500.0000   : STOP DEPTH
 STEP.M                0.1524        : STEP
 NULL.                 -999.25          : NULL VALUE
 SRVC.                 SubsurfAI        : Service company
~CURVE INFORMATION
 DEPT.M                              : Depth
 GR  .GAPI                           : Gamma Ray
 RHOB.G/C3                           : Bulk Density
 NPHI.V/V                            : Neutron Porosity
 RT  .OHMM                           : True Resistivity
 DT  .US/F                           : Sonic
 CALI.IN                             : Caliper
~PARAMETER INFORMATION
 LAT .                 35.4676   : Latitude
 LON .                 -98.6784   : Longitude
 DESC.                 Anadarko Basin — Springer/Morrow sandstone gas
~A  DEPT        GR        RHOB      NPHI      RT        DT        CALI
# ...
 1933.2720    54.906    2.3733    0.1440    22.716   200.000     9.138
 1933.4244    36.770    2.3678    0.1708    34.170   200.000     8.353
 1933.5768    40.092    2.4007    0.1108    17.331   200.000     8.215
 1933.7292    39.334    2.4198    0.1234    19.025   200.000     8.604
 1933.8816    50.820    2.3583    0.1423    29.440   200.000     8.107
 1934.0340    44.030    2.3911    0.1593    11.740   200.000     8.723
 1934.1864    45.631    2.3825    0.1497    11.878   200.000     8.251
 1934.3388    40.042    2.3958    0.1659    26.845   200.000     8.464
 1934.4912    41.094    2.3182    0.1572     9.015   200.000     8.469
 1934.6436    38.793    2.4017    0.1611    17.295   200.000     8.283
 1934.7960    42.703    2.3599    0.1459     8.992   200.000     8.960
 1934.9484    48.370    2.3213    0.1587    13.713   200.000     8.067
 1935.1008    32.867    2.4249    0.1039    35.768   200.000     8.609
 1935.2532    45.684    2.3685    0.1513    42.543   200.000     8.296
 1935.4056    48.131    2.4226    0.1720    10.633   200.000     7.990
 1935.5580    40.739    2.4240    0.1501     9.390   200.000     7.699
 1935.7104    37.242    2.3836    0.1745    15.508   200.000     8.765
 1935.8628    35.488    2.3468    0.1875    14.808   200.000     9.040
 1936.0152    38.229    2.3677    0.1615    17.310   200.000     8.926
 1936.1676    34.568    2.3644    0.1747    12.980   200.000     8.506
 1936.3200    42.921    2.3989    0.2077    36.590   200.000     8.784
 1936.4724    45.543    2.4376    0.1347    14.238   200.000     8.621
 1936.6248    55.887    2.2961    0.1566    14.065   200.000     9.304
 1936.7772    36.453    2.2911    0.1592    17.146   200.000     9.166
 1936.9296    47.079    2.3800    0.1764    10.351   200.000     8.300
 1937.0820    40.978    2.3815    0.1715    17.883   200.000     8.020
 1937.2344    34.756    2.3109    0.1524    14.275   200.000     8.406
 1937.3868    34.566    2.3639    0.2238     6.354   200.000     7.873
 1937.5392    47.865    2.3280    0.1503    33.308   200.000     8.113
 1937.6916    51.765    2.2963    0.1755    14.780   200.000     9.096
 1937.8440    55.126    2.4213    0.1582    10.110   200.000     8.786
 1937.9964    48.966    2.4342    0.1605    20.368   200.000     9.091
 1938.1488    47.856    2.2966    0.1889    13.482   200.000     8.393
 1938.3012    47.966    2.4156    0.1299    11.709   200.000     8.912
 1938.4536    50.459    2.3707    0.1501    19.906   200.000     8.603
 1938.6060    47.711    2.4236    0.1526    24.501   200.000     8.806
 1938.7584    52.972    2.4200    0.1306    20.443   200.000     8.884
 1938.9108    27.991    2.4208    0.1578    30.989   200.000     9.102
 1939.0632    41.424    2.3842    0.1672    38.856   200.000     8.552
 1939.2156    42.451    2.3973    0.1614    13.995   200.000     7.784
 1939.3680    48.505    2.4577    0.1578    17.260   200.000     9.097
 1939.5204    43.738    2.4026    0.1383    21.060   200.000     8.315
 1939.6728    48.418    2.5034    0.1336    16.778   200.000     8.658
 1939.8252    44.047    2.3426    0.1395    15.380   200.000     8.839
 1939.9776    10.203    2.6285    0.0630   377.967   200.000     8.351
 1940.1300    14.502    2.6356    0.0528   202.976   200.000     8.538
 1940.2824    16.124    2.6879    0.0665   202.624   200.000     8.617
 1940.4348    17.119    2.6653    0.0533   516.464   200.000     7.911
 1940.5872    15.268    2.7789    0.0593   135.279   200.000     8.586
 1940.7396     5.994    2.7999    0.0445   327.832   200.000     8.950
 1940.8920    15.520    2.7173    0.0577   132.866   200.000     8.418
 1941.0444    16.790    2.6892    0.0554   317.053   200.000     8.037
 1941.1968    13.341    2.6647    0.0461   115.888   200.000     9.220
 1941.3492    15.305    2.7986    0.0658   272.135   200.000     8.331
 1941.5016    11.284    2.6935    0.0713   601.796   200.000     8.562
 1941.6540    12.557    2.7518    0.0525   542.986   200.000     7.628
 1941.8064    14.567    2.7023    0.0683   449.096   200.000     8.863
 1941.9588     9.386    2.6687    0.0739   427.618   200.000     8.128
 1942.1112     8.733    2.6547    0.0607   497.201   200.000     7.789
 1942.2636    19.571    2.7911    0.0821   307.063   200.000     7.836
 1942.4160    21.788    2.6668    0.0693   382.911   200.000     9.839
 1942.5684     8.978    2.6692    0.0556   242.940   200.000     8.700
 1942.7208    16.274    2.6726    0.0554   350.318   200.000     8.061
 1942.8732    18.652    2.6667    0.0586   250.157   200.000     8.868
 1943.0256    15.355    2.5982    0.0640   255.007   200.000     8.048
 1943.1780    11.373    2.6032    0.0654   207.318   200.000     8.696
 1943.3304    15.156    2.7205    0.0554   106.742   200.000     8.645
 1943.4828    13.885    2.6414    0.0384   224.119   200.000     8.631
 1943.6352     9.110    2.7373    0.0378   272.665   200.000     7.369
 1943.7876    12.614    2.8319    0.0554   569.282   200.000     7.529
 1943.9400    14.583    2.7182    0.0679   166.690   200.000     8.732
 1944.0924     9.650    2.7014    0.0480   226.446   200.000     8.535
 1944.2448    17.920    2.6999    0.0588   346.081   200.000     8.746
 1944.3972    12.527    2.6601    0.0679   261.700   200.000     8.245
 1944.5496    15.947    2.6803    0.0686   450.098   200.000     8.980
 1944.7020    21.377    2.7004    0.0514   367.116   200.000     7.945
 1944.8544    18.022    2.7441    0.0504   118.045   200.000     8.175
 1945.0068    15.975    2.7354    0.0637   167.580   200.000     8.597
 1945.1592    10.344    2.6971    0.0468   434.970   200.000     8.557
 1945.3116    14.250    2.7172    0.0624   253.625   200.000     8.882
 1945.4640    20.634    2.6682    0.0662   198.492   200.000     9.192
 1945.6164    13.158    2.6419    0.0662   197.497   200.000     8.131
 1945.7688    20.433    2.7103    0.0687   618.564   200.000     8.420
 1945.9212    12.660    2.7208    0.0808   239.716   200.000     8.994
 1946.0736    14.661    2.7113    0.0537   370.436   200.000     7.849
 1946.2260    18.699    2.7828    0.0481   236.048   200.000     8.591
 1946.3784    17.685    2.6645    0.0563   724.928   200.000     8.798
 1946.5308     8.770    2.5942    0.0536   308.397   200.000     9.337
 1946.6832    10.213    2.7253    0.0545   200.152   200.000     8.081
 1946.8356    15.943    2.6003    0.0649   346.189   200.000     8.517
 1946.9880    13.949    2.7470    0.0724   712.347   200.000     8.549
 1947.1404    10.794    2.7407    0.0547   123.758   200.000     8.340
 1947.2928     7.619    2.6696    0.0585   229.923   200.000     8.112
 1947.4452    11.088    2.7118    0.0689   194.677   200.000     8.964
 1947.5976    11.326    2.8140    0.0541   206.715   200.000     8.215
 1947.7500    16.293    2.6251    0.0612   219.834   200.000     8.032
 1947.9024    13.357    2.6910    0.0770   141.038   200.000     8.361
 1948.0548    14.527    2.6976    0.0479   177.928   200.000     8.579
 1948.2072    14.839    2.7738    0.0712   272.062   200.000     8.262
 1948.3596    11.378    2.6829    0.0625   473.659   200.000     8.674
 1948.5120    16.089    2.7672    0.0643   559.433   200.000     8.420
 1948.6644    13.882    2.6700    0.0570   245.761   200.000     7.629
 1948.8168    12.851    2.6535    0.0691   318.076   200.000     8.847
 1948.9692     9.867    2.6336    0.0685   856.481   200.000     8.146
 1949.1216    13.277    2.6330    0.0545  1019.046   200.000     8.612
 1949.2740    11.228    2.5195    0.0751   724.362   200.000     8.242
 1949.4264    15.048    2.7160    0.0686   228.948   200.000     8.674
 1949.5788     9.174    2.6412    0.0616   196.931   200.000     8.045
 1949.7312    14.081    2.7895    0.0744   214.811   200.000     8.886
 1949.8836    13.989    2.6773    0.0838   380.151   200.000     8.776
 1950.0360    14.242    2.6950    0.0656   401.748   200.000     7.870
 1950.1884    11.719    2.6685    0.0668   310.991   200.000     7.956
 1950.3408    12.573    2.7101    0.0450   303.609   200.000     8.251
