~VERSION INFORMATION
 VERS.                 2.0    : CWLS LOG ASCII STANDARD
 WRAP.                 NO     : ONE LINE PER DEPTH STEP
~WELL INFORMATION
 WELL.                 Anadarko-B7    : Well name
 FLD .                 Anadarko Basin         : Field
 CTRY.                 USA       : Country
 STRT.M                900.0000 : START DEPTH
 STOP.M                3500.0000   : STOP DEPTH
 STEP.M                0.1524        : STEP
 NULL.                 -999.25          : NULL VALUE
 SRVC.                 SubsurfAI        : Service company
~CURVE INFORMATION
 DEPT.M                              : Depth
 GR  .GAPI                           : Gamma Ray
 RHOB.G/C3                           : Bulk Density
 NPHI.V/V                            : Neutron Porosity
 RT  .OHMM                           : True Resistivity
 DT  .US/F                           : Sonic
 CALI.IN                             : Caliper
~PARAMETER INFORMATION
 LAT .                 35.4676   : Latitude
 LON .                 -98.6784   : Longitude
 DESC.                 Anadarko Basin — Springer/Morrow sandstone gas
~A  DEPT        GR        RHOB      NPHI      RT        DT        CALI
# ...
 1072.2120   131.032    2.5692    0.2458     4.306   200.000     7.841
 1072.3644   117.343    2.4849    0.1832    16.692   200.000     8.104
 1072.5168   124.279    2.5875    0.2053     5.080   200.000     8.733
 1072.6692   107.341    2.6015    0.1717     5.682   200.000     8.563
 1072.8216   118.967    2.5104    0.1971     6.728   200.000     9.581
 1072.9740   115.872    2.5812    0.1992     8.573   200.000     8.781
 1073.1264   145.790    2.5851    0.1936     7.731   200.000     8.500
 1073.2788   126.824    2.6041    0.1899     6.697   200.000     8.762
 1073.4312   106.785    2.5626    0.1517     5.985   200.000     9.448
 1073.5836   129.731    2.5636    0.1572     8.724   200.000     8.687
 1073.7360   137.376    2.6504    0.2279     2.761   200.000     8.179
 1073.8884   159.832    2.5591    0.2414     1.789   200.000     8.635
 1074.0408   138.467    2.5853    0.1735     3.635   200.000     8.306
 1074.1932   113.287    2.5861    0.1726     6.747   200.000     8.812
 1074.3456   137.829    2.4412    0.2076     5.572   200.000     9.214
 1074.4980   118.650    2.5678    0.1583     5.444   200.000     8.105
 1074.6504   121.411    2.5930    0.2130     3.318   200.000     8.865
 1074.8028   110.231    2.5992    0.1670     6.769   200.000     8.319
 1074.9552   105.223    2.6090    0.1486     3.165   200.000     8.485
 1075.1076   121.955    2.5897    0.1401     3.971   200.000     8.179
 1075.2600   131.419    2.6935    0.1909     8.093   200.000     8.421
 1075.4124   116.303    2.6086    0.2145     3.505   200.000     7.550
 1075.5648   124.404    2.5465    0.1536     3.997   200.000     8.096
 1075.7172   120.981    2.7339    0.2124     4.494   200.000     8.313
 1075.8696   108.043    2.5870    0.1774     2.566   200.000     8.865
 1076.0220   111.067    2.6003    0.1947     7.494   200.000     8.382
 1076.1744   125.793    2.5991    0.1868     1.851   200.000     8.039
 1076.3268   114.549    2.6327    0.1988     2.569   200.000     8.910
 1076.4792   115.922    2.5986    0.1787    11.680   200.000     8.502
 1076.6316   113.009    2.5369    0.2155     4.161   200.000     8.737
 1076.7840   103.739    2.6729    0.1715     6.544   200.000     8.203
 1076.9364   127.180    2.5444    0.1779     3.937   200.000     7.446
 1077.0888   123.190    2.5653    0.1932     4.326   200.000     7.675
 1077.2412   110.202    2.4982    0.2129     3.991   200.000     9.151
 1077.3936   105.626    2.6246    0.2494     3.497   200.000     8.706
 1077.5460   130.382    2.5394    0.2250     2.986   200.000     9.143
 1077.6984   118.183    2.5554    0.2113     4.573   200.000     8.201
 1077.8508   115.898    2.5100    0.1910     7.042   200.000     9.437
 1078.0032   106.304    2.5836    0.2086     3.735   200.000     8.459
 1078.1556   110.290    2.5839    0.1653     7.563   200.000     8.738
 1078.3080   110.482    2.6120    0.1891     6.759   200.000     8.076
 1078.4604   134.553    2.5682    0.1878     8.203   200.000     8.525
 1078.6128   110.521    2.5137    0.2201     3.612   200.000     8.231
 1078.7652   119.196    2.5833    0.1739     4.992   200.000     8.397
 1078.9176   112.240    2.6418    0.2087     8.905   200.000     8.337
 1079.0700   146.523    2.6462    0.1715     3.240   200.000     8.655
 1079.2224   112.461    2.6552    0.1749     3.816   200.000     8.437
 1079.3748   137.122    2.5888    0.1512     9.141   200.000     8.453
 1079.5272   156.765    2.6045    0.1797     5.582   200.000     7.829
 1079.6796   150.963    2.5103    0.1819    16.655   200.000     8.615
 1079.8320   122.202    2.6261    0.2308     7.315   200.000     7.896
 1079.9844   135.633    2.5612    0.2303     1.339   200.000     8.574
 1080.1368   115.525    2.5194    0.2064     4.265   200.000     8.433
 1080.2892   141.388    2.5275    0.2081     4.643   200.000     7.981
 1080.4416   111.881    2.6285    0.2230     4.711   200.000     7.916
 1080.5940   134.298    2.6739    0.2063     1.595   200.000     8.308
 1080.7464   145.061    2.6173    0.1390     4.449   200.000     8.485
 1080.8988   132.603    2.5744    0.1710    10.085   200.000     8.336
 1081.0512   111.386    2.5904    0.1812     6.259   200.000     8.832
 1081.2036   139.655    2.5858    0.2255     4.388   200.000     8.327
 1081.3560   119.808    2.6477    0.2532     3.909   200.000     8.182
 1081.5084   115.052    2.5964    0.2329     5.887   200.000     8.323
 1081.6608   129.737    2.5823    0.1893     4.442   200.000     8.378
 1081.8132   127.232    2.6087    0.1674     5.078   200.000     8.270
 1081.9656   113.199    2.7122    0.1878     3.823   200.000     8.508
 1082.1180   127.575    2.4924    0.2122     3.765   200.000     8.946
 1082.2704   103.185    2.5402    0.1676     3.839   200.000     8.063
 1082.4228   122.949    2.5616    0.2248     2.433   200.000     8.050
 1082.5752   110.257    2.6045    0.2084     8.101   200.000     7.906
 1082.7276   140.774    2.6383    0.2432     2.675   200.000     8.641
 1082.8800   146.689    2.6509    0.1746     3.907   200.000     8.135
 1083.0324   109.880    2.5874    0.1412     1.917   200.000     8.264
 1083.1848   153.320    2.6066    0.1606     8.350   200.000     8.698
 1083.3372   111.277    2.5474    0.2222     4.631   200.000     8.574
 1083.4896   121.003    2.6951    0.2194     5.781   200.000     8.890
 1083.6420   112.526    2.5419    0.1799     7.837   200.000     8.001
 1083.7944   104.435    2.6810    0.2312     1.716   200.000     8.748
 1083.9468   143.054    2.4781    0.2211     3.866   200.000     8.462
 1084.0992   137.301    2.5645    0.1979     3.816   200.000     8.533
 1084.2516   121.433    2.6299    0.2284     5.224   200.000     8.930
 1084.4040   136.733    2.5831    0.2023     4.691   200.000     8.351
 1084.5564   131.622    2.5575    0.1595     2.886   200.000     8.281
 1084.7088   144.336    2.5962    0.1770     2.772   200.000     8.533
 1084.8612   133.737    2.5640    0.1718     7.260   200.000     8.203
 1085.0136    99.972    2.4886    0.1817     2.806   200.000     9.118
 1085.1660   121.376    2.5318    0.2341     3.908   200.000     7.845
 1085.3184   113.859    2.5670    0.1572     3.280   200.000     8.451
 1085.4708   128.914    2.5368    0.1937     2.843   200.000     8.163
 1085.6232   146.273    2.6420    0.1846     4.254   200.000     8.743
 1085.7756   147.749    2.5638    0.2211     7.311   200.000     8.355
 1085.9280   100.946    2.6023    0.1609     3.052   200.000     8.061
 1086.0804   150.640    2.5372    0.1870     2.756   200.000     8.716
 1086.2328   110.529    2.5191    0.2016     5.738   200.000     8.371
 1086.3852   144.459    2.5964    0.1565     2.433   200.000     8.467
 1086.5376   126.724    2.5435    0.2681     3.974   196.094     8.631
 1086.6900   120.698    2.5367    0.2122    15.571   200.000     8.403
 1086.8424   128.359    2.6111    0.1691     3.134   200.000     8.673
 1086.9948   109.912    2.6467    0.1512     4.386   200.000     8.084
 1087.1472   119.631    2.5156    0.1370     3.611   200.000     8.336
 1087.2996   107.846    2.5822    0.1786     4.718   200.000     8.536
 1087.4520   108.238    2.6450    0.2539     6.103   200.000     8.606
 1087.6044    88.180    2.4679    0.1933     3.482   200.000     9.022
 1087.7568   110.609    2.5753    0.2271     2.120   200.000     8.468
 1087.9092   121.382    2.6030    0.2214     5.375   200.000     8.812
 1088.0616   132.828    2.5010    0.1609     6.744   200.000     8.504
 1088.2140   108.003    2.6050    0.1522     3.826   200.000     8.283
 1088.3664   118.617    2.5416    0.1889     6.403   200.000     8.381
 1088.5188   149.145    2.5282    0.2457     2.425   200.000     8.458
 1088.6712   141.239    2.5759    0.2166    10.034   200.000     8.558
 1088.8236   114.229    2.5613    0.2525     3.631   200.000     8.720
 1088.9760   105.029    2.4660    0.1828     9.071   200.000     7.906
 1089.1284   111.822    2.6016    0.2113     3.139   200.000     8.170
 1089.2808   113.433    2.5688    0.1577     4.009   200.000     8.349
