~VERSION INFORMATION
 VERS.                 2.0    : CWLS LOG ASCII STANDARD
 WRAP.                 NO     : ONE LINE PER DEPTH STEP
~WELL INFORMATION
 WELL.                 Anadarko-B7    : Well name
 FLD .                 Anadarko Basin         : Field
 CTRY.                 USA       : Country
 STRT.M                900.0000 : START DEPTH
 STOP.M                3500.0000   : STOP DEPTH
 STEP.M                0.1524        : STEP
 NULL.                 -999.25          : NULL VALUE
 SRVC.                 SubsurfAI        : Service company
~CURVE INFORMATION
 DEPT.M                              : Depth
 GR  .GAPI                           : Gamma Ray
 RHOB.G/C3                           : Bulk Density
 NPHI.V/V                            : Neutron Porosity
 RT  .OHMM                           : True Resistivity
 DT  .US/F                           : Sonic
 CALI.IN                             : Caliper
~PARAMETER INFORMATION
 LAT .                 35.4676   : Latitude
 LON .                 -98.6784   : Longitude
 DESC.                 Anadarko Basin — Springer/Morrow sandstone gas
~A  DEPT        GR        RHOB      NPHI      RT        DT        CALI
# ...
 1761.0600    42.818    2.4128    0.1591     7.159   200.000     8.620
 1761.2124    39.854    2.3597    0.2191    39.548   200.000     8.812
 1761.3648    41.325    2.3669    0.1346    26.268   200.000     8.534
 1761.5172    51.008    2.3731    0.1611    66.962   200.000     7.701
 1761.6696    43.409    2.3508    0.1551    27.746   200.000     8.848
 1761.8220    50.407    2.2397    0.1393    23.057   200.000     8.536
 1761.9744    50.557    2.3544    0.1916    24.793   200.000     8.750
 1762.1268    50.720    2.3567    0.1532     9.903   200.000     8.512
 1762.2792    52.718    2.2816    0.1203    13.450   200.000     8.690
 1762.4316    38.693    2.2702    0.1842    35.427   200.000     8.008
 1762.5840    47.096    2.4213    0.1721    42.571   200.000     8.784
 1762.7364    43.090    2.3941    0.1534    17.843   200.000     8.659
 1762.8888    50.318    2.3866    0.1307    16.815   200.000     8.480
 1763.0412    40.885    2.3368    0.1588    13.889   200.000     8.885
 1763.1936    50.138    2.3587    0.2011    15.670   200.000     8.465
 1763.3460    32.851    2.4069    0.1470    13.213   200.000     8.564
 1763.4984    54.109    2.3321    0.1354    22.226   200.000     9.036
 1763.6508    33.993    2.4193    0.1876    11.818   200.000     8.797
 1763.8032    48.773    2.3900    0.1900     8.804   200.000     7.905
 1763.9556    55.035    2.4194    0.1451    11.499   200.000     8.414
 1764.1080    44.116    2.3471    0.1387    17.488   200.000     8.107
 1764.2604    45.291    2.3886    0.1462    21.882   200.000     8.597
 1764.4128    42.444    2.3938    0.1401    23.803   200.000     7.952
 1764.5652    43.227    2.3671    0.1779    18.083   200.000     7.955
 1764.7176    51.864    2.4239    0.1713    13.433   200.000     8.847
 1764.8700    46.845    2.3997    0.1346    20.357   200.000     8.926
 1765.0224    40.206    2.3795    0.1724    12.680   200.000     8.019
 1765.1748    39.261    2.4142    0.1496     9.851   200.000     8.535
 1765.3272    34.443    2.3700    0.1857    23.059   200.000     8.231
 1765.4796    43.335    2.3838    0.1688    28.848   200.000     8.032
 1765.6320    37.089    2.3813    0.1716    25.477   200.000     8.195
 1765.7844    42.701    2.4171    0.1519    13.816   200.000     8.271
 1765.9368    43.597    2.4231    0.1445    49.690   200.000     8.800
 1766.0892    33.609    2.4287    0.1561    15.877   200.000     8.884
 1766.2416    36.462    2.3167    0.1876    20.537   200.000     8.756
 1766.3940    43.244    2.3999    0.1733    11.364   200.000     7.785
 1766.5464    43.189    2.3317    0.1812     6.986   200.000     8.323
 1766.6988    42.679    2.3866    0.1075     7.577   200.000     8.221
 1766.8512    45.199    2.3912    0.1568    24.325   200.000     8.099
 1767.0036    38.886    2.4087    0.1621    13.944   200.000     8.713
 1767.1560    47.837    2.4106    0.1737    22.743   200.000     8.570
 1767.3084    36.237    2.4539    0.1611     8.345   200.000     9.164
 1767.4608    47.863    2.4326    0.1779     4.584   200.000     8.560
 1767.6132    27.239    2.3271    0.1610    16.427   200.000     8.164
 1767.7656    45.425    2.3894    0.1754    12.365   200.000     8.327
 1767.9180    35.204    2.4058    0.1611    16.553   200.000     7.613
 1768.0704    35.925    2.3920    0.1779    10.082   200.000     8.330
 1768.2228    39.355    2.3254    0.1622    14.455   200.000     8.223
 1768.3752    52.120    2.3266    0.1566     9.015   200.000     9.274
 1768.5276    47.313    2.3450    0.2010    15.677   200.000     8.911
 1768.6800    42.278    2.4183    0.1621     7.358   200.000     8.407
 1768.8324    34.737    2.3722    0.1462    10.368   200.000     8.424
 1768.9848    45.975    2.3939    0.1251    25.458   200.000     8.843
 1769.1372    41.490    2.3061    0.1693    18.935   200.000     8.557
 1769.2896    50.191    2.3989    0.1642    14.839   200.000     7.806
 1769.4420    62.919    2.4838    0.1180    18.444   200.000     8.127
 1769.5944    39.662    2.3189    0.1743    13.602   200.000     8.000
 1769.7468    42.360    2.4181    0.1895    12.630   200.000     9.227
 1769.8992    40.571    2.3819    0.1387     8.721   200.000     8.604
 1770.0516    44.343    2.3157    0.1569    59.104   200.000     8.963
 1770.2040    53.992    2.3309    0.1888    13.169   200.000     8.966
 1770.3564    33.263    2.3902    0.1761    29.196   200.000     8.124
 1770.5088    36.442    2.3894    0.1843    26.109   200.000     9.072
 1770.6612    38.699    2.4027    0.1694    29.799   200.000     8.202
 1770.8136    37.669    2.4309    0.1350    37.737   200.000     7.826
 1770.9660    53.235    2.4770    0.1482    15.460   200.000     8.625
 1771.1184    40.177    2.3962    0.1511    34.220   200.000     8.676
 1771.2708    42.448    2.3257    0.1741    31.438   200.000     7.999
 1771.4232    51.903    2.4066    0.1480    14.402   200.000     9.112
 1771.5756    41.177    2.3926    0.1802     9.538   200.000     8.953
 1771.7280    41.829    2.4186    0.1598    20.705   200.000     8.675
 1771.8804    64.451    2.4088    0.1379    17.070   200.000     8.486
 1772.0328    38.841    2.4074    0.1207    31.752   200.000     8.409
 1772.1852    39.750    2.3591    0.1320    35.205   200.000     8.968
 1772.3376    39.438    2.3415    0.1518    29.879   200.000     8.617
 1772.4900    52.818    2.3424    0.1485    27.165   200.000     8.470
 1772.6424    39.802    2.3762    0.2004    26.482   200.000     8.370
 1772.7948    47.560    2.3964    0.1632    16.964   200.000     7.977
 1772.9472    54.047    2.2980    0.1513    23.845   200.000     7.823
 1773.0996    41.359    2.3443    0.1301     8.882   200.000     8.246
 1773.2520    39.473    2.3988    0.1276    18.934   200.000     8.452
 1773.4044    41.666    2.4157    0.1714     8.943   200.000     7.845
 1773.5568    36.316    2.3615    0.1897     7.318   200.000     8.164
 1773.7092    45.824    2.3773    0.1576     8.661   200.000     8.593
 1773.8616    54.973    2.3057    0.1342    32.521   200.000     8.993
 1774.0140    50.430    2.3294    0.1408    31.408   200.000     9.395
 1774.1664    42.216    2.3785    0.1710    17.271   200.000     8.940
 1774.3188    37.596    2.3270    0.1043    60.494   200.000     8.232
 1774.4712    46.838    2.4102    0.1531    13.226   200.000     8.316
 1774.6236    37.568    2.3844    0.1746    55.688   200.000     8.668
 1774.7760    44.113    2.3510    0.1356    32.067   200.000     8.630
 1774.9284    52.994    2.3476    0.0882    18.667   200.000     8.278
 1775.0808    49.230    2.3957    0.1729    13.557   200.000     8.039
 1775.2332    41.082    2.3885    0.1671    25.346   200.000     8.463
 1775.3856    42.951    2.3339    0.2046    19.760   200.000     8.394
 1775.5380    45.709    2.4365    0.1355    33.284   200.000     8.574
 1775.6904    43.473    2.3392    0.1658    25.401   200.000     8.962
 1775.8428    41.672    2.4120    0.1701    17.884   200.000     7.831
 1775.9952    38.220    2.4061    0.1406    18.535   200.000     8.179
 1776.1476    47.066    2.3830    0.1540    19.558   200.000     9.289
 1776.3000    53.637    2.4105    0.1653    40.678   200.000     8.271
 1776.4524    37.854    2.4054    0.1536     6.766   200.000     8.345
 1776.6048    50.124    2.4239    0.1898    12.006   200.000     8.412
 1776.7572    36.244    2.3846    0.1567    17.852   200.000     8.474
 1776.9096    46.626    2.4017    0.1647    11.604   200.000     8.504
 1777.0620    44.747    2.4058    0.1512    19.251   200.000     8.861
 1777.2144    55.379    2.3948    0.1129    32.371   200.000     8.348
 1777.3668    39.424    2.3026    0.1696    21.544   200.000     8.729
 1777.5192    35.243    2.3454    0.1791     5.756   200.000     8.205
 1777.6716    42.782    2.3492    0.2247    19.802   200.000     8.863
 1777.8240    46.655    2.4157    0.1407    22.138   200.000     8.645
 1777.9764    45.170    2.2928    0.1786    21.500   200.000     8.481
 1778.1288    41.297    2.4811    0.1138     9.338   200.000     8.076
