~VERSION INFORMATION
 VERS.                 2.0    : CWLS LOG ASCII STANDARD
 WRAP.                 NO     : ONE LINE PER DEPTH STEP
~WELL INFORMATION
 WELL.                 Anadarko-B7    : Well name
 FLD .                 Anadarko Basin         : Field
 CTRY.                 USA       : Country
 STRT.M                900.0000 : START DEPTH
 STOP.M                3500.0000   : STOP DEPTH
 STEP.M                0.1524        : STEP
 NULL.                 -999.25          : NULL VALUE
 SRVC.                 SubsurfAI        : Service company
~CURVE INFORMATION
 DEPT.M                              : Depth
 GR  .GAPI                           : Gamma Ray
 RHOB.G/C3                           : Bulk Density
 NPHI.V/V                            : Neutron Porosity
 RT  .OHMM                           : True Resistivity
 DT  .US/F                           : Sonic
 CALI.IN                             : Caliper
~PARAMETER INFORMATION
 LAT .                 35.4676   : Latitude
 LON .                 -98.6784   : Longitude
 DESC.                 Anadarko Basin — Springer/Morrow sandstone gas
~A  DEPT        GR        RHOB      NPHI      RT        DT        CALI
# ...
 3310.9680    40.748    2.3319    0.1523    20.741   200.000     8.776
 3311.1204    35.361    2.3447    0.1860    63.864   200.000     8.000
 3311.2728    43.832    2.3601    0.1983    25.016   200.000     8.683
 3311.4252    29.286    2.3723    0.1762    44.388   200.000     7.768
 3311.5776    36.360    2.2842    0.2230    19.097   200.000     9.174
 3311.7300    43.447    2.3414    0.1499    31.140   200.000     8.635
 3311.8824    31.133    2.3357    0.1730    81.775   200.000     8.469
 3312.0348    36.162    2.4294    0.1598    79.382   200.000     8.627
 3312.1872    37.695    2.3304    0.1759    32.112   200.000     8.150
 3312.3396    32.000    2.3348    0.2054    31.590   200.000     8.813
 3312.4920    33.348    2.3431    0.1801    17.160   200.000     9.127
 3312.6444    28.417    2.3722    0.1968    40.760   200.000     8.205
 3312.7968    29.599    2.3410    0.1500    27.003   200.000     8.891
 3312.9492    34.790    2.2338    0.1580    53.589   200.000     8.040
 3313.1016    31.961    2.3426    0.1543   115.587   200.000     8.780
 3313.2540    41.746    2.4687    0.1968    68.369   200.000     8.798
 3313.4064    28.545    2.3359    0.1610    36.037   200.000     8.305
 3313.5588    41.285    2.3137    0.1629    46.301   200.000     8.069
 3313.7112    36.014    2.2858    0.1805    23.044   200.000     9.154
 3313.8636    47.669    2.3377    0.2166    31.432   200.000     8.196
 3314.0160    42.041    2.3016    0.1895    17.226   200.000     8.193
 3314.1684    39.885    2.2496    0.1872    26.361   200.000     8.346
 3314.3208    42.315    2.3226    0.1880    31.073   200.000     8.802
 3314.4732    37.969    2.2546    0.1652    45.050   200.000     8.120
 3314.6256    46.376    2.3434    0.1800    19.602   200.000     8.889
 3314.7780    46.943    2.2750    0.1691    13.594   200.000     8.322
 3314.9304    41.244    2.3556    0.2285    36.820   200.000     8.822
 3315.0828    41.040    2.3622    0.1500    10.879   200.000     8.145
 3315.2352    33.518    2.3665    0.1776    89.900   200.000     8.327
 3315.3876    36.500    2.3431    0.1816    71.478   200.000     7.944
 3315.5400    33.398    2.3863    0.2025    14.759   200.000     8.150
 3315.6924    33.370    2.3231    0.2102    65.245   200.000     8.491
 3315.8448    33.893    2.3362    0.2162    27.156   200.000     9.112
 3315.9972    35.615    2.3380    0.1413    30.404   200.000     8.325
 3316.1496    46.834    2.3208    0.1900    19.276   200.000     8.577
 3316.3020    43.256    2.3693    0.1836    30.828   200.000     8.416
 3316.4544    53.361    2.3145    0.1655    35.369   200.000     8.744
 3316.6068    34.754    2.2841    0.1752    49.469   200.000     8.813
 3316.7592    37.999    2.3496    0.2113    37.358   200.000     8.927
 3316.9116    44.943    2.3357    0.1822    44.039   200.000     8.382
 3317.0640    46.626    2.3741    0.1949    27.588   200.000     8.454
 3317.2164    35.836    2.3210    0.2014    47.715   200.000     7.881
 3317.3688    30.196    2.2783    0.1567    29.998   200.000     8.648
 3317.5212    38.908    2.3804    0.2087    23.508   200.000     8.486
 3317.6736    42.325    2.3630    0.1685    23.292   200.000     8.260
 3317.8260    26.909    2.2792    0.1680    58.086   200.000     7.753
 3317.9784    37.961    2.2511    0.1477    10.001   200.000     7.969
 3318.1308    44.250    2.3702    0.2193    41.496   200.000     8.943
 3318.2832    40.422    2.3590    0.1990    41.143   200.000     8.482
 3318.4356    45.331    2.3445    0.1739    77.577   200.000     7.937
 3318.5880    29.380    2.2862    0.2107    29.531   200.000     8.439
 3318.7404    30.959    2.2508    0.1436    44.965   200.000     8.315
 3318.8928    43.061    2.3676    0.1542    30.765   200.000     8.675
 3319.0452    39.620    2.4088    0.1717    73.955   200.000     8.179
 3319.1976    32.877    2.3019    0.2510    21.364   200.000     8.916
 3319.3500    45.673    2.3228    0.1501    47.095   200.000     8.645
 3319.5024    37.967    2.3527    0.1912    24.113   200.000     8.442
 3319.6548    42.486    2.3491    0.1757    37.993   200.000     9.003
 3319.8072    45.995    2.3559    0.1714    65.783   200.000     8.104
 3319.9596    32.671    2.3181    0.1634    26.615   200.000     8.556
 3320.1120    41.351    2.3879    0.2104    49.580   200.000     8.052
 3320.2644    33.787    2.3251    0.1779    15.971   200.000     8.483
 3320.4168    39.944    2.3049    0.1758    47.001   200.000     8.437
 3320.5692    51.721    2.2819    0.1591    23.138   200.000     8.846
 3320.7216    40.815    2.4284    0.1829    56.832   200.000     8.816
 3320.8740    31.447    2.2560    0.1619    30.150   200.000     8.395
 3321.0264    34.006    2.3067    0.1648    35.186   200.000     8.216
 3321.1788    32.445    2.3368    0.1755    33.957   200.000     8.245
 3321.3312    25.810    2.3835    0.1673    21.851   200.000     8.942
 3321.4836    38.110    2.2883    0.1963    22.921   200.000     8.102
 3321.6360    27.290    2.3761    0.2349    23.410   200.000     8.421
 3321.7884    38.058    2.2602    0.1246    53.226   200.000     9.275
 3321.9408    39.614    2.2668    0.2008    54.846   200.000     8.762
 3322.0932    27.287    2.2821    0.1744    24.851   200.000     9.130
 3322.2456    32.628    2.3575    0.2157    25.351   200.000     8.652
 3322.3980    35.537    2.3765    0.1978    18.591   200.000     7.889
 3322.5504    40.247    2.3619    0.1631    41.656   200.000     8.220
 3322.7028    27.604    2.3411    0.1540    10.149   200.000     8.257
 3322.8552    29.848    2.2804    0.2256   103.662   200.000     7.769
 3323.0076    41.629    2.3609    0.1919    15.497   200.000     8.676
 3323.1600    37.256    2.3332    0.1950    22.466   200.000     8.415
 3323.3124    35.349    2.2375    0.2013    28.904   200.000     8.935
 3323.4648    43.993    2.4058    0.1968    30.675   200.000     8.127
 3323.6172    37.069    2.4469    0.2126    26.752   200.000     8.887
 3323.7696    28.892    2.3110    0.1861    36.972   200.000     9.265
 3323.9220    31.471    2.3471    0.1547    12.766   200.000     8.585
 3324.0744    42.265    2.3114    0.1976    25.795   200.000     8.314
 3324.2268    43.344    2.3588    0.1585    59.839   200.000     8.738
 3324.3792    35.626    2.3461    0.1716     9.137   200.000     7.975
 3324.5316    39.302    2.3079    0.1581    30.344   200.000     9.476
 3324.6840    36.850    2.3220    0.2041    36.737   200.000     8.719
 3324.8364    31.837    2.2494    0.1884    17.721   200.000     8.677
 3324.9888    39.778    2.3166    0.1864    40.322   200.000     8.146
 3325.1412    38.366    2.2766    0.1731    36.835   200.000     8.284
 3325.2936    44.634    2.2610    0.1845    32.275   200.000     8.269
 3325.4460    37.164    2.3750    0.1956    71.689   200.000     8.738
 3325.5984    35.988    2.3089    0.1853    30.296   200.000     8.648
 3325.7508    40.791    2.2495    0.1903    21.658   200.000     9.038
 3325.9032    46.405    2.2821    0.1954    40.423   200.000     7.979
 3326.0556    23.352    2.3604    0.1907    63.801   200.000     8.163
 3326.2080    41.512    2.3591    0.1405    48.594   200.000     8.896
 3326.3604    37.826    2.2912    0.1621    76.987   200.000     9.137
 3326.5128    53.007    2.2981    0.2145    35.489   200.000     7.960
 3326.6652    40.329    2.3310    0.2076    17.191   200.000     7.955
 3326.8176    34.250    2.3874    0.2035    48.666   200.000     8.238
 3326.9700    35.501    2.3138    0.1505    49.737   200.000     7.976
 3327.1224    30.504    2.3346    0.1532    57.864   200.000     8.314
 3327.2748    50.007    2.2507    0.1710    56.695   200.000     9.292
 3327.4272    30.323    2.3267    0.1443    14.004   200.000     8.470
 3327.5796    43.536    2.3523    0.2091    46.766   200.000     8.981
 3327.7320    39.524    2.3558    0.1865    39.159   200.000     8.343
 3327.8844    37.363    2.3905    0.1256    25.460   200.000     9.210
 3328.0368    34.177    2.2558    0.1778    29.729   200.000     8.206
