~VERSION INFORMATION
 VERS.                 2.0    : CWLS LOG ASCII STANDARD
 WRAP.                 NO     : ONE LINE PER DEPTH STEP
~WELL INFORMATION
 WELL.                 Anadarko-B7    : Well name
 FLD .                 Anadarko Basin         : Field
 CTRY.                 USA       : Country
 STRT.M                900.0000 : START DEPTH
 STOP.M                3500.0000   : STOP DEPTH
 STEP.M                0.1524        : STEP
 NULL.                 -999.25          : NULL VALUE
 SRVC.                 SubsurfAI        : Service company
~CURVE INFORMATION
 DEPT.M                              : Depth
 GR  .GAPI                           : Gamma Ray
 RHOB.G/C3                           : Bulk Density
 NPHI.V/V                            : Neutron Porosity
 RT  .OHMM                           : True Resistivity
 DT  .US/F                           : Sonic
 CALI.IN                             : Caliper
~PARAMETER INFORMATION
 LAT .                 35.4676   : Latitude
 LON .                 -98.6784   : Longitude
 DESC.                 Anadarko Basin — Springer/Morrow sandstone gas
~A  DEPT        GR        RHOB      NPHI      RT        DT        CALI
# ...
 3138.7560    41.686    2.2536    0.2044    17.895   200.000     8.341
 3138.9084    48.762    2.3594    0.1595    51.744   200.000     8.332
 3139.0608    39.538    2.3319    0.1931    18.882   200.000     9.148
 3139.2132    35.895    2.4013    0.1617    29.511   200.000     8.222
 3139.3656    36.188    2.3218    0.1827    18.447   200.000     8.414
 3139.5180    39.611    2.3091    0.2011    70.619   200.000     8.758
 3139.6704    41.360    2.3070    0.1895    49.754   200.000     7.781
 3139.8228    36.841    2.3614    0.1962    66.240   200.000     9.264
 3139.9752    35.657    2.2771    0.2047    31.003   200.000     8.646
 3140.1276    27.649    2.2722    0.1540    14.768   200.000     8.084
 3140.2800    37.372    2.3115    0.1816    35.088   200.000     8.683
 3140.4324    41.363    2.3188    0.1787    16.692   200.000     8.111
 3140.5848    46.166    2.3236    0.1791    17.270   200.000     8.604
 3140.7372    36.885    2.3596    0.1275    25.605   200.000     8.969
 3140.8896    31.402    2.3056    0.1762    50.288   200.000     9.088
 3141.0420    36.122    2.2919    0.1837    28.585   200.000     8.363
 3141.1944    28.962    2.3916    0.1679    19.211   200.000     8.545
 3141.3468    46.634    2.3599    0.2336    47.447   200.000     7.888
 3141.4992    43.240    2.2683    0.2303    29.733   200.000     8.551
 3141.6516    37.858    2.3942    0.1347    34.837   200.000     8.511
 3141.8040    38.406    2.3528    0.1998    37.842   200.000     8.209
 3141.9564    40.741    2.3545    0.1854    26.101   200.000     8.480
 3142.1088    39.888    2.3078    0.1712    47.337   200.000     7.622
 3142.2612    45.553    2.3704    0.1479    40.784   200.000     8.587
 3142.4136    52.215    2.2356    0.1439    60.371   200.000     8.904
 3142.5660    35.766    2.3167    0.1515    28.296   200.000     8.356
 3142.7184    46.430    2.3881    0.1360    28.560   200.000     8.439
 3142.8708    38.759    2.3607    0.1474    25.052   200.000     8.662
 3143.0232    41.934    2.2739    0.1953    15.345   200.000     8.643
 3143.1756    43.615    2.3348    0.1959    34.627   200.000     8.469
 3143.3280    39.272    2.3029    0.1871     8.785   200.000     8.626
 3143.4804    45.887    2.3031    0.2345    21.015   200.000     7.872
 3143.6328    29.834    2.1996    0.1953    40.498   200.000     8.976
 3143.7852    34.392    2.3558    0.1320    28.124   200.000     8.572
 3143.9376    51.575    2.3523    0.1341    23.050   200.000     8.602
 3144.0900    30.984    2.2810    0.1628    15.142   200.000     8.905
 3144.2424    42.535    2.3042    0.1706    22.289   200.000     7.894
 3144.3948    29.514    2.4031    0.1861    31.078   200.000     8.571
 3144.5472    29.273    2.3560    0.2146    68.450   200.000     8.398
 3144.6996    32.017    2.2329    0.1807    22.495   200.000     8.324
 3144.8520    31.092    2.4005    0.1782    13.920   200.000     7.844
 3145.0044    41.024    2.3312    0.2049    48.236   200.000     8.175
 3145.1568    40.323    2.3092    0.1877    35.743   200.000     8.409
 3145.3092    43.524    2.3269    0.1587    27.891   200.000     8.282
 3145.4616    32.748    2.4310    0.2061    16.357   200.000     7.623
 3145.6140    35.510    2.3471    0.2085    78.507   200.000     8.906
 3145.7664    35.288    2.3643    0.1555    39.176   200.000     8.716
 3145.9188    34.385    2.3471    0.1914    31.726   200.000     8.309
 3146.0712    40.057    2.3591    0.1749    48.213   200.000     8.248
 3146.2236    28.088    2.3149    0.1963    45.212   200.000     9.032
 3146.3760    33.812    2.3506    0.1991    40.007   200.000     7.642
 3146.5284    38.096    2.3038    0.1397    14.495   200.000     8.218
 3146.6808    42.282    2.2920    0.1937    19.271   200.000     8.663
 3146.8332    33.944    2.3443    0.1874    15.226   200.000     8.766
 3146.9856    35.127    2.3402    0.2191    56.385   200.000     8.917
 3147.1380    34.729    2.3224    0.1893    72.330   200.000     8.902
 3147.2904    39.929    2.3353    0.1436    23.684   200.000     8.917
 3147.4428    37.228    2.2705    0.1782    36.438   200.000     8.647
 3147.5952    45.574    2.2758    0.2132    14.118   200.000     8.508
 3147.7476    42.352    2.2403    0.1952    66.728   200.000     8.610
 3147.9000    39.891    2.3459    0.1809    45.070   200.000     8.441
 3148.0524    36.133    2.2880    0.1901    36.726   200.000     8.625
 3148.2048    48.283    2.2665    0.1514    27.844   200.000     9.014
 3148.3572    46.415    2.3031    0.1531    28.479   200.000     8.658
 3148.5096    39.019    2.3720    0.1644    35.953   200.000     8.391
 3148.6620    41.365    2.3390    0.1497    35.368   200.000     8.592
 3148.8144    46.698    2.2792    0.1674    34.218   200.000     8.283
 3148.9668    33.255    2.2808    0.1365    82.893   200.000     8.817
 3149.1192    44.284    2.3528    0.1706    54.577   200.000     8.568
 3149.2716    35.282    2.4015    0.2055    40.040   200.000     8.658
 3149.4240    38.106    2.2978    0.1346    26.710   200.000     8.738
 3149.5764    42.147    2.3020    0.1787    78.509   200.000     8.252
 3149.7288    33.224    2.3632    0.1987    38.032   200.000     8.329
 3149.8812    36.074    2.3443    0.1699    25.290   200.000     8.664
 3150.0336    41.118    2.3388    0.1396    16.756   200.000     7.961
 3150.1860    39.375    2.3390    0.2138    28.235   200.000     7.561
 3150.3384    41.650    2.3424    0.1875    13.280   200.000     8.921
 3150.4908    39.706    2.3289    0.1949    51.248   200.000     8.271
 3150.6432    35.052    2.2556    0.1617    38.629   200.000     9.059
 3150.7956    37.650    2.2580    0.1853    34.455   200.000     8.742
 3150.9480    40.240    2.4249    0.2196    36.454   200.000     7.515
 3151.1004    42.503    2.3138    0.2078    36.880   200.000     8.028
 3151.2528    34.473    2.3514    0.1565    44.453   200.000     7.848
 3151.4052    44.355    2.3183    0.2227    54.619   200.000     8.883
 3151.5576    41.675    2.2888    0.1863    41.539   200.000     8.902
 3151.7100    34.334    2.3137    0.2083    51.690   200.000     8.246
 3151.8624    31.291    2.4058    0.2067    30.666   200.000     8.347
 3152.0148    41.328    2.4109    0.2331    25.168   200.000     8.824
 3152.1672    35.361    2.2611    0.2028    36.209   200.000     8.538
 3152.3196    34.939    2.2885    0.1887    25.157   200.000     7.965
 3152.4720    34.748    2.3599    0.1600    23.357   200.000     8.535
 3152.6244    36.933    2.3643    0.1590    28.383   200.000     9.100
 3152.7768    40.392    2.3099    0.1490    22.567   200.000     8.290
 3152.9292    31.864    2.3716    0.1819    16.761   200.000     8.510
 3153.0816    44.422    2.3935    0.1606    55.338   200.000     8.338
 3153.2340    26.936    2.2909    0.1872    24.300   200.000     8.216
 3153.3864    44.113    2.3435    0.1889    12.260   200.000     8.329
 3153.5388    39.628    2.2706    0.1866    37.855   200.000     8.561
 3153.6912    40.400    2.4475    0.1597    35.039   200.000     8.833
 3153.8436    32.555    2.3535    0.1627    38.259   200.000     7.448
 3153.9960    30.758    2.3770    0.2005    45.610   200.000     8.924
 3154.1484    44.307    2.2677    0.1978    61.310   200.000     8.366
 3154.3008    30.412    2.2614    0.1591    44.957   200.000     9.180
 3154.4532    32.308    2.2544    0.2243    24.832   200.000     8.675
 3154.6056    39.349    2.2318    0.1800    54.110   200.000     8.742
 3154.7580    33.841    2.3410    0.1701    31.484   200.000     7.874
 3154.9104    37.028    2.3224    0.1674    26.873   200.000     8.485
 3155.0628    32.276    2.3825    0.1016    18.415   200.000     8.972
 3155.2152    45.593    2.4434    0.1259    25.581   200.000     8.207
 3155.3676    42.596    2.2586    0.2158    21.313   200.000     8.120
 3155.5200    38.401    2.3528    0.1638    45.554   200.000     9.111
 3155.6724    50.415    2.3050    0.1602    17.943   200.000     9.081
 3155.8248    34.385    2.3548    0.2077    20.419   200.000     8.254
