~VERSION INFORMATION
 VERS.                 2.0    : CWLS LOG ASCII STANDARD
 WRAP.                 NO     : ONE LINE PER DEPTH STEP
~WELL INFORMATION
 WELL.                 Anadarko-B7    : Well name
 FLD .                 Anadarko Basin         : Field
 CTRY.                 USA       : Country
 STRT.M                900.0000 : START DEPTH
 STOP.M                3500.0000   : STOP DEPTH
 STEP.M                0.1524        : STEP
 NULL.                 -999.25          : NULL VALUE
 SRVC.                 SubsurfAI        : Service company
~CURVE INFORMATION
 DEPT.M                              : Depth
 GR  .GAPI                           : Gamma Ray
 RHOB.G/C3                           : Bulk Density
 NPHI.V/V                            : Neutron Porosity
 RT  .OHMM                           : True Resistivity
 DT  .US/F                           : Sonic
 CALI.IN                             : Caliper
~PARAMETER INFORMATION
 LAT .                 35.4676   : Latitude
 LON .                 -98.6784   : Longitude
 DESC.                 Anadarko Basin — Springer/Morrow sandstone gas
~A  DEPT        GR        RHOB      NPHI      RT        DT        CALI
# ...
 2794.3320   120.296    2.7145    0.1782     7.158   200.000     8.848
 2794.4844   131.684    2.5488    0.1861     7.815   200.000     8.872
 2794.6368   133.672    2.6012    0.2112     8.122   200.000     8.813
 2794.7892   140.158    2.4623    0.1941     5.963   200.000     9.003
 2794.9416   103.599    2.6463    0.1812     7.887   200.000     8.603
 2795.0940   140.382    2.5586    0.1769     4.737   200.000     8.578
 2795.2464   122.867    2.5366    0.2267    17.300   200.000     8.704
 2795.3988   116.017    2.5218    0.1854     5.674   200.000     7.805
 2795.5512   149.107    2.5251    0.2083     8.866   200.000     9.292
 2795.7036   134.810    2.6388    0.2126     6.545   200.000     8.547
 2795.8560   122.401    2.5477    0.2083     5.420   200.000     8.287
 2796.0084    94.331    2.5931    0.1963     7.079   200.000     8.413
 2796.1608   122.521    2.5613    0.2292     6.285   200.000     8.831
 2796.3132   125.373    2.6201    0.2409    10.589   200.000     8.345
 2796.4656   144.291    2.6113    0.1993    21.228   200.000     8.216
 2796.6180   120.677    2.5657    0.1870     6.496   200.000     8.720
 2796.7704   117.622    2.6016    0.1662     7.685   200.000     8.399
 2796.9228    90.434    2.6076    0.1836     9.803   200.000     8.996
 2797.0752   101.332    2.6316    0.1819     4.953   200.000     8.290
 2797.2276   131.253    2.5385    0.1860     5.412   200.000     8.122
 2797.3800   124.018    2.6480    0.1877     1.471   200.000     8.597
 2797.5324   151.840    2.5731    0.2137     3.481   200.000     9.039
 2797.6848    80.507    2.6347    0.1742     9.002   200.000     8.628
 2797.8372   110.182    2.5253    0.1809     4.469   200.000     8.751
 2797.9896   121.593    2.4395    0.1934     9.117   200.000     8.339
 2798.1420   102.269    2.5464    0.1976     8.961   200.000     8.331
 2798.2944   118.941    2.5991    0.2110     3.743   200.000     8.838
 2798.4468   142.951    2.5021    0.2090     4.780   200.000     8.680
 2798.5992   101.461    2.6325    0.1863     6.829   200.000     8.237
 2798.7516   124.388    2.6341    0.1676     7.279   200.000     8.491
 2798.9040   107.123    2.6029    0.1842     9.371   200.000     7.340
 2799.0564   128.624    2.5996    0.2306     6.039   200.000     8.194
 2799.2088   124.708    2.5087    0.1796    13.018   200.000     8.714
 2799.3612   122.940    2.5325    0.1790     4.473   200.000     8.469
 2799.5136   128.242    2.4559    0.1727    11.537   200.000     8.765
 2799.6660   151.280    2.5821    0.1772    11.379   200.000     8.804
 2799.8184    76.848    2.5462    0.1518     7.983   200.000     8.611
 2799.9708   121.606    2.5971    0.2199    11.641   200.000     8.541
 2800.1232   121.396    2.6215    0.1665     3.176   200.000     7.921
 2800.2756   140.567    2.5475    0.2206     2.721   200.000     8.026
 2800.4280   136.525    2.5667    0.1657     5.411   200.000     8.145
 2800.5804   114.829    2.5756    0.2441     9.380   200.000     8.943
 2800.7328    84.307    2.5241    0.1904     4.934   200.000     7.991
 2800.8852   120.273    2.5365    0.1876     7.813   200.000     8.585
 2801.0376   136.591    2.4928    0.1608     3.739   200.000     8.245
 2801.1900   140.934    2.5258    0.1942     6.185   200.000     7.940
 2801.3424   124.235    2.5086    0.2358    10.533   200.000     8.193
 2801.4948   129.262    2.5861    0.1853     6.431   200.000     8.507
 2801.6472   143.302    2.5909    0.1916     8.745   200.000     8.598
 2801.7996   107.822    2.5917    0.1701     4.316   200.000     8.514
 2801.9520   131.552    2.5799    0.1850     3.289   200.000     8.530
 2802.1044   112.474    2.4188    0.1684     5.145   200.000     7.798
 2802.2568   127.020    2.5260    0.1368     3.793   200.000     7.947
 2802.4092   108.856    2.5519    0.1842     6.598   200.000     8.466
 2802.5616   108.814    2.5132    0.1768     4.246   200.000     8.147
 2802.7140   138.821    2.7080    0.1432     6.241   200.000     9.025
 2802.8664   131.914    2.6498    0.2120     8.639   200.000     8.768
 2803.0188   138.536    2.6160    0.1949     6.638   200.000     8.339
 2803.1712    90.085    2.6158    0.1829     4.490   200.000     9.227
 2803.3236   120.738    2.6283    0.1233    11.456   200.000     8.387
 2803.4760   135.426    2.5149    0.1740     4.596   200.000     8.424
 2803.6284   121.932    2.5886    0.1608    10.141   200.000     9.297
 2803.7808   100.480    2.5870    0.1750     7.331   200.000     8.211
 2803.9332   146.245    2.5322    0.1719     1.336   200.000     7.766
 2804.0856   105.158    2.5506    0.2457     5.787   200.000     8.082
 2804.2380   124.651    2.5269    0.1919     7.447   200.000     8.554
 2804.3904   107.103    2.5350    0.2056     3.337   200.000     8.159
 2804.5428   136.917    2.5620    0.1351     6.290   200.000     8.295
 2804.6952   126.854    2.5398    0.1423    14.940   200.000     8.449
 2804.8476   109.098    2.5662    0.1910     8.662   200.000     8.729
 2805.0000    99.444    2.6033    0.1777     3.969   200.000     8.058
 2805.1524   153.921    2.5296    0.1922     4.418   200.000     8.451
 2805.3048   118.155    2.5122    0.1654     4.805   200.000     8.284
 2805.4572   136.273    2.6314    0.2363     8.866   200.000     8.468
 2805.6096   122.554    2.5696    0.1891    20.634   200.000     8.933
 2805.7620   103.281    2.6676    0.1846     4.379   200.000     7.799
 2805.9144   100.870    2.5217    0.1506     6.277   200.000     8.196
 2806.0668   133.286    2.5960    0.1686     4.340   200.000     8.358
 2806.2192   123.166    2.5466    0.1710     5.047   200.000     9.320
 2806.3716   114.704    2.7646    0.1332     4.685   200.000     8.507
 2806.5240   104.556    2.6081    0.2017     1.460   200.000     8.464
 2806.6764   118.201    2.6241    0.1786     3.369   200.000     8.596
 2806.8288   111.658    2.4489    0.1420    15.183   200.000     8.332
 2806.9812   138.041    2.5604    0.2039     4.592   200.000     8.407
 2807.1336   133.612    2.5498    0.2061     4.476   200.000     8.563
 2807.2860   101.985    2.6083    0.2041     6.965   200.000     8.423
 2807.4384   113.497    2.5278    0.1464     7.389   200.000     8.816
 2807.5908   143.348    2.5643    0.1707     3.681   200.000     8.136
 2807.7432   140.250    2.4165    0.1932     4.720   200.000     8.700
 2807.8956   137.017    2.6374    0.1690     5.241   200.000     8.093
 2808.0480   128.185    2.5198    0.1865     7.755   200.000     8.394
 2808.2004   114.446    2.6147    0.1664     6.116   200.000     8.499
 2808.3528   110.782    2.6255    0.1914     4.586   200.000     8.915
 2808.5052   125.804    2.6187    0.2272     4.027   200.000     8.685
 2808.6576   109.812    2.4925    0.1848     7.617   200.000     8.395
 2808.8100   100.955    2.5878    0.1797     3.749   200.000     8.676
 2808.9624   108.878    2.6318    0.1927     7.407   200.000     7.437
 2809.1148    87.880    2.6224    0.1805     1.996   200.000     8.997
 2809.2672   127.740    2.6321    0.2326     2.531   200.000     8.542
 2809.4196   102.568    2.5531    0.1938     5.704   200.000     8.652
 2809.5720   106.679    2.5026    0.1905     7.682   200.000     8.562
 2809.7244   125.210    2.5898    0.1730     8.571   200.000     8.506
 2809.8768   125.014    2.5779    0.1681     5.993   200.000     8.297
 2810.0292   128.918    2.4202    0.1860     3.682   200.000     8.109
 2810.1816   112.116    2.6657    0.1690     2.820   200.000     8.467
 2810.3340   120.182    2.4654    0.1720     7.783   200.000     8.473
 2810.4864   127.860    2.4898    0.2034    10.486   200.000     7.766
 2810.6388    96.692    2.5642    0.1508    11.511   200.000     8.978
 2810.7912   103.097    2.5477    0.2170     8.853   200.000     8.487
 2810.9436   111.066    2.6696    0.1961     4.051   200.000     8.881
 2811.0960   141.451    2.5264    0.1888     2.218   200.000     8.850
 2811.2484    91.728    2.6504    0.1731     7.782   200.000     8.350
 2811.4008   103.847    2.5745    0.2137    12.707   200.000     8.219
