~VERSION INFORMATION
 VERS.                 2.0    : CWLS LOG ASCII STANDARD
 WRAP.                 NO     : ONE LINE PER DEPTH STEP
~WELL INFORMATION
 WELL.                 Anadarko-B7    : Well name
 FLD .                 Anadarko Basin         : Field
 CTRY.                 USA       : Country
 STRT.M                900.0000 : START DEPTH
 STOP.M                3500.0000   : STOP DEPTH
 STEP.M                0.1524        : STEP
 NULL.                 -999.25          : NULL VALUE
 SRVC.                 SubsurfAI        : Service company
~CURVE INFORMATION
 DEPT.M                              : Depth
 GR  .GAPI                           : Gamma Ray
 RHOB.G/C3                           : Bulk Density
 NPHI.V/V                            : Neutron Porosity
 RT  .OHMM                           : True Resistivity
 DT  .US/F                           : Sonic
 CALI.IN                             : Caliper
~PARAMETER INFORMATION
 LAT .                 35.4676   : Latitude
 LON .                 -98.6784   : Longitude
 DESC.                 Anadarko Basin — Springer/Morrow sandstone gas
~A  DEPT        GR        RHOB      NPHI      RT        DT        CALI
# ...
 3483.1800    24.156    2.3867    0.1872    19.539   200.000     9.060
 3483.3324    33.684    2.3744    0.1660    34.272   200.000     8.404
 3483.4848    34.575    2.3429    0.1814    18.554   200.000     8.542
 3483.6372    35.228    2.3251    0.1905    79.249   200.000     8.622
 3483.7896    35.132    2.2579    0.1754    22.257   200.000     8.811
 3483.9420    42.958    2.3231    0.1850    18.942   200.000     8.165
 3484.0944    37.465    2.2731    0.1617    28.719   200.000     7.937
 3484.2468    37.718    2.3991    0.1752    41.359   200.000     8.290
 3484.3992    33.474    2.3033    0.1846    21.638   200.000     8.234
 3484.5516    33.536    2.3748    0.1582    17.528   200.000     7.981
 3484.7040    35.379    2.3191    0.1636    46.454   200.000     8.430
 3484.8564    40.018    2.2567    0.2136    19.735   200.000     8.967
 3485.0088    35.882    2.3342    0.1637    24.922   200.000     8.805
 3485.1612    43.890    2.3103    0.1523    37.746   200.000     8.597
 3485.3136    36.625    2.3165    0.1617    18.204   200.000     8.009
 3485.4660    33.293    2.2925    0.1083    14.988   200.000     8.733
 3485.6184    32.330    2.3139    0.1427    17.008   200.000     8.607
 3485.7708    37.716    2.3824    0.1268    32.922   200.000     8.227
 3485.9232    42.880    2.3490    0.1675    13.479   200.000     8.477
 3486.0756    25.383    2.3070    0.1585    15.270   200.000     7.302
 3486.2280    35.870    2.3885    0.2037    26.908   200.000     8.994
 3486.3804    39.291    2.2739    0.1918    33.813   200.000     8.578
 3486.5328    39.201    2.2751    0.1253    19.171   200.000     8.001
 3486.6852    34.235    2.3143    0.1960    35.969   200.000     8.382
 3486.8376    45.834    2.3687    0.1569    23.559   200.000     8.391
 3486.9900    40.501    2.2957    0.1341    21.088   200.000     8.899
 3487.1424    26.236    2.2982    0.2015    11.199   200.000     9.183
 3487.2948    34.985    2.3458    0.1967    11.028   200.000     8.516
 3487.4472    32.030    2.3474    0.1878    11.544   200.000     8.990
 3487.5996    32.911    2.3855    0.1633    18.033   200.000     8.301
 3487.7520    39.437    2.3433    0.0925    33.604   200.000     9.183
 3487.9044    39.137    2.3472    0.1759    19.128   200.000     8.307
 3488.0568    28.072    2.4122    0.1143    39.905   200.000     8.935
 3488.2092    42.009    2.2819    0.1809    27.388   200.000     8.865
 3488.3616    38.650    2.3431    0.1791    29.626   200.000     8.094
 3488.5140    39.466    2.3491    0.1824    27.684   200.000     8.052
 3488.6664    30.870    2.3289    0.1529    37.994   200.000     9.177
 3488.8188    35.352    2.3823    0.1944    26.240   200.000     7.558
 3488.9712    29.146    2.2716    0.1564    38.294   200.000     8.630
 3489.1236    25.554    2.4429    0.1872    40.160   200.000     9.084
 3489.2760    30.855    2.4300    0.1518    17.194   200.000     8.333
 3489.4284    43.655    2.3163    0.1949    43.207   200.000     9.100
 3489.5808    39.124    2.3015    0.1475    20.080   200.000     8.937
 3489.7332    43.756    2.2786    0.2037    66.812   200.000     8.960
 3489.8856    44.902    2.3083    0.1763    32.947   200.000     8.083
 3490.0380    37.138    2.2679    0.1612    49.308   200.000     9.050
 3490.1904    32.645    2.2810    0.2248    20.360   200.000     7.515
 3490.3428    36.169    2.2077    0.2347    22.649   200.000     8.820
 3490.4952    43.001    2.3211    0.1901    52.232   200.000     8.685
 3490.6476    44.681    2.3318    0.1364    52.158   200.000     8.220
 3490.8000    46.830    2.2822    0.1720    26.287   200.000     8.431
 3490.9524    33.257    2.2928    0.1795   112.161   200.000     9.199
 3491.1048    35.585    2.2628    0.1423    19.402   200.000     7.861
 3491.2572    39.764    2.3697    0.1802    19.949   200.000     8.752
 3491.4096    43.695    2.2891    0.1802    32.604   200.000     9.239
 3491.5620    35.025    2.3915    0.1638    25.409   200.000     8.327
 3491.7144    35.617    2.3045    0.2126    15.452   200.000     8.520
 3491.8668    23.425    2.4127    0.1531    10.111   200.000     7.832
 3492.0192    37.417    2.3313    0.1327    21.510   200.000     8.494
 3492.1716    42.639    2.2967    0.1937    26.980   200.000     8.206
 3492.3240    29.490    2.3810    0.1688    28.773   200.000     9.252
 3492.4764    45.638    2.2119    0.1906    39.295   200.000     8.725
 3492.6288    42.647    2.4080    0.1998    17.464   200.000     8.229
 3492.7812    39.687    2.3357    0.1665    21.516   200.000     8.238
 3492.9336    44.480    2.3193    0.2022    34.858   200.000     8.585
 3493.0860    43.409    2.3786    0.1766    66.230   200.000     8.573
 3493.2384    32.796    2.3005    0.1900    37.591   200.000     8.635
 3493.3908    36.201    2.3574    0.1623    80.829   200.000     8.196
 3493.5432    47.884    2.3911    0.1470    21.909   200.000     8.733
 3493.6956    36.351    2.3266    0.1792    13.791   200.000     8.775
 3493.8480    36.911    2.3193    0.1606    33.374   200.000     8.349
 3494.0004    32.197    2.2509    0.1335    22.956   200.000     9.270
 3494.1528    41.411    2.2723    0.1362    39.069   200.000     7.859
 3494.3052    45.213    2.3603    0.2206    74.708   200.000     8.444
 3494.4576    40.816    2.3791    0.1409    35.083   200.000     8.547
 3494.6100    39.982    2.2651    0.2397    40.520   200.000     8.459
 3494.7624    38.846    2.1997    0.2236    74.810   200.000     8.123
 3494.9148    33.828    2.3595    0.2040    63.873   200.000     8.467
 3495.0672    42.730    2.3719    0.2097    25.703   200.000     8.242
 3495.2196    41.226    2.3292    0.1795    30.292   200.000     8.127
 3495.3720    44.911    2.3244    0.1460    20.427   200.000     9.096
 3495.5244    46.278    2.3366    0.1923    40.003   200.000     8.806
 3495.6768    44.042    2.2942    0.1873    25.278   200.000     8.605
 3495.8292    32.413    2.3352    0.2209    60.890   200.000     8.413
 3495.9816    40.594    2.3491    0.1696    34.107   200.000     8.358
 3496.1340    26.936    2.3075    0.1732    23.159   200.000     9.747
 3496.2864    35.219    2.3122    0.1415    92.269   200.000     8.513
 3496.4388    36.668    2.3409    0.1443    45.208   200.000     8.217
 3496.5912    32.173    2.2624    0.2026    25.940   200.000     8.307
 3496.7436    31.957    2.3336    0.1901    34.446   200.000     7.996
 3496.8960    39.421    2.2846    0.1819    31.951   200.000     7.790
 3497.0484    44.251    2.2078    0.2263    16.951   200.000     8.781
 3497.2008    32.329    2.3485    0.1701    23.484   200.000     8.292
 3497.3532    32.549    2.2831    0.1732    19.943   200.000     8.591
 3497.5056    29.246    2.4106    0.1651    42.778   200.000     8.799
 3497.6580    40.185    2.3473    0.1978    21.472   200.000     8.753
 3497.8104    34.122    2.3112    0.1899    18.426   200.000     8.456
 3497.9628    42.846    2.3382    0.1770    28.306   200.000     8.785
 3498.1152    32.051    2.4063    0.1950    14.734   200.000     7.927
 3498.2676    29.588    2.3318    0.2011    32.856   200.000     8.270
 3498.4200    38.826    2.3209    0.1878    30.276   200.000     9.915
 3498.5724    41.488    2.2627    0.2288    31.566   200.000     8.489
 3498.7248    32.761    2.3537    0.1756    28.733   200.000     8.388
 3498.8772    24.866    2.3400    0.1966    15.820   200.000     8.215
 3499.0296    39.192    2.2947    0.1720    14.220   200.000     8.661
 3499.1820    38.837    2.2482    0.1911    21.495   200.000     8.544
 3499.3344    36.563    2.3369    0.1701    19.451   200.000     8.061
 3499.4868    36.851    2.3508    0.1778    26.348   200.000     8.495
 3499.6392    44.695    2.2933    0.1759    50.855   200.000     8.238
 3499.7916    34.929    2.2828    0.2127    17.342   200.000     9.328
 3499.9440    36.219    2.3657    0.1608    12.475   200.000     8.581
