~VERSION INFORMATION
 VERS.                 2.0    : CWLS LOG ASCII STANDARD
 WRAP.                 NO     : ONE LINE PER DEPTH STEP
~WELL INFORMATION
 WELL.                 Anadarko-B7    : Well name
 FLD .                 Anadarko Basin         : Field
 CTRY.                 USA       : Country
 STRT.M                900.0000 : START DEPTH
 STOP.M                3500.0000   : STOP DEPTH
 STEP.M                0.1524        : STEP
 NULL.                 -999.25          : NULL VALUE
 SRVC.                 SubsurfAI        : Service company
~CURVE INFORMATION
 DEPT.M                              : Depth
 GR  .GAPI                           : Gamma Ray
 RHOB.G/C3                           : Bulk Density
 NPHI.V/V                            : Neutron Porosity
 RT  .OHMM                           : True Resistivity
 DT  .US/F                           : Sonic
 CALI.IN                             : Caliper
~PARAMETER INFORMATION
 LAT .                 35.4676   : Latitude
 LON .                 -98.6784   : Longitude
 DESC.                 Anadarko Basin — Springer/Morrow sandstone gas
~A  DEPT        GR        RHOB      NPHI      RT        DT        CALI
# ...
 2105.4840    11.252    2.7013    0.0513   180.841   200.000     8.280
 2105.6364    14.985    2.8700    0.0537   583.389   200.000     8.140
 2105.7888    13.409    2.7057    0.0551   303.596   200.000     8.655
 2105.9412     6.581    2.6592    0.0600   106.032   200.000     7.623
 2106.0936    18.560    2.6180    0.0512   612.994   200.000     8.139
 2106.2460    17.445    2.7122    0.0544   559.499   200.000     8.305
 2106.3984    14.319    2.7664    0.0514   182.428   200.000     8.606
 2106.5508     7.955    2.6890    0.0636   257.736   200.000     8.799
 2106.7032     7.160    2.5699    0.0626   613.186   200.000     8.369
 2106.8556    13.500    2.6950    0.0485   230.526   200.000     7.728
 2107.0080    20.513    2.7594    0.0574   234.921   200.000     8.285
 2107.1604    16.222    2.6081    0.0689   520.686   200.000     8.481
 2107.3128    14.164    2.7219    0.0575   448.204   200.000     8.759
 2107.4652    16.415    2.6490    0.0634   291.864   200.000     8.482
 2107.6176    11.653    2.7049    0.0396    60.387   200.000     8.540
 2107.7700    12.234    2.6400    0.0669   148.244   200.000     7.809
 2107.9224    14.222    2.7100    0.0736   263.535   200.000     8.675
 2108.0748    17.093    2.5737    0.0610   293.451   200.000     8.452
 2108.2272    18.615    2.7576    0.0448   161.778   200.000     8.007
 2108.3796     9.903    2.7724    0.0590   503.028   200.000     7.874
 2108.5320    12.847    2.7331    0.0588   192.417   200.000     8.550
 2108.6844    11.677    2.6889    0.0609   215.227   200.000     8.586
 2108.8368    15.216    2.7064    0.0519   250.018   200.000     8.093
 2108.9892    17.259    2.6554    0.0745   174.638   200.000     8.729
 2109.1416    14.650    2.7300    0.0582   559.442   200.000     8.277
 2109.2940    12.581    2.6703    0.0506   273.451   200.000     9.010
 2109.4464    14.899    2.7053    0.0637   179.487   200.000     8.650
 2109.5988    14.167    2.5892    0.0639   267.161   200.000     8.288
 2109.7512    13.395    2.6320    0.0572   365.942   200.000     8.184
 2109.9036    19.104    2.6848    0.0659   653.318   200.000     8.621
 2110.0560    14.065    2.6673    0.0682   308.975   200.000     8.679
 2110.2084    20.251    2.6626    0.0614   257.450   200.000     8.091
 2110.3608    14.122    2.7982    0.0564   172.358   200.000     9.052
 2110.5132     6.383    2.7589    0.0449   252.625   200.000     8.231
 2110.6656    15.639    2.7211    0.0618   311.991   200.000     8.804
 2110.8180    14.411    2.7585    0.0629   157.812   200.000     8.423
 2110.9704    11.587    2.6997    0.0595   407.261   200.000     8.611
 2111.1228    16.937    2.6925    0.0669   907.237   200.000     9.174
 2111.2752    18.269    2.6623    0.0493   505.701   200.000     9.030
 2111.4276    17.063    2.7321    0.0680   752.891   200.000     8.365
 2111.5800    10.637    2.6827    0.0560   193.898   200.000     8.235
 2111.7324    13.148    2.7696    0.0662   317.078   200.000     8.108
 2111.8848    13.488    2.7556    0.0774   607.851   200.000     8.447
 2112.0372    13.313    2.6926    0.0635   198.911   200.000     8.407
 2112.1896    12.654    2.6638    0.0544   448.875   200.000     8.172
 2112.3420    16.553    2.6886    0.0563   214.978   200.000     8.399
 2112.4944    12.811    2.5962    0.0594   256.528   200.000     8.360
 2112.6468    15.451    2.7701    0.0677   321.649   200.000     8.639
 2112.7992    13.552    2.6283    0.0801   262.135   200.000     8.636
 2112.9516    24.241    2.7369    0.0690   539.300   200.000     8.261
 2113.1040    10.675    2.7095    0.0503   631.481   200.000     9.069
 2113.2564    11.815    2.7151    0.0640   261.910   200.000     8.507
 2113.4088    13.528    2.6985    0.0486   136.700   200.000     8.973
 2113.5612    10.397    2.5388    0.0498   338.999   200.000     9.288
 2113.7136    15.879    2.6721    0.0591   104.168   200.000     8.482
 2113.8660    11.215    2.6495    0.0705   509.317   200.000     9.564
 2114.0184    10.290    2.6747    0.0518   411.207   200.000     8.668
 2114.1708    14.821    2.7214    0.0465   332.063   200.000     8.380
 2114.3232    16.293    2.7710    0.0509   143.921   200.000     8.428
 2114.4756    13.327    2.6623    0.0598   459.034   200.000     8.600
 2114.6280    17.635    2.6665    0.0580   110.106   200.000     8.615
 2114.7804    12.756    2.7162    0.0625   217.343   200.000     8.306
 2114.9328    16.355    2.6136    0.0614   562.723   200.000     8.586
 2115.0852    10.587    2.7667    0.0664  1557.205   200.000     8.973
 2115.2376    11.669    2.7524    0.0601   224.227   200.000     8.512
 2115.3900    16.462    2.6505    0.0645   405.028   200.000     8.232
 2115.5424    11.606    2.7529    0.0643   893.569   200.000     8.398
 2115.6948    18.099    2.6597    0.0592   215.610   200.000     8.218
 2115.8472    15.717    2.6526    0.0635   181.078   200.000     8.350
 2115.9996    14.977    2.5804    0.0583   716.171   200.000     8.702
 2116.1520    20.363    2.7406    0.0445   179.966   200.000     8.664
 2116.3044    15.450    2.6864    0.0595   335.134   200.000     8.876
 2116.4568    13.853    2.6852    0.0474   293.825   200.000     8.940
 2116.6092    15.757    2.6781    0.0590   636.341   200.000     8.300
 2116.7616    14.629    2.7130    0.0547   415.037   200.000     9.080
 2116.9140    12.382    2.6904    0.0479   309.880   200.000     7.935
 2117.0664    11.861    2.6998    0.0589   405.899   200.000     8.761
 2117.2188    14.348    2.6613    0.0565   273.032   200.000     8.972
 2117.3712    19.308    2.7322    0.0470   118.703   200.000     8.334
 2117.5236    16.053    2.7530    0.0533   186.803   200.000     7.689
 2117.6760    13.559    2.7375    0.0526   102.019   200.000     9.287
 2117.8284    18.235    2.6548    0.0563   276.257   200.000     8.452
 2117.9808    16.456    2.6530    0.0383   146.241   200.000     8.267
 2118.1332    16.237    2.6910    0.0613   197.585   200.000     8.414
 2118.2856    15.827    2.6545    0.0725    76.475   200.000     8.373
 2118.4380    12.481    2.7337    0.0609   277.115   200.000     8.593
 2118.5904    10.990    2.6205    0.0546   233.749   200.000     9.202
 2118.7428    17.412    2.6550    0.0628   292.249   200.000     9.359
 2118.8952    15.293    2.6444    0.0621   341.406   200.000     7.962
 2119.0476    18.011    2.7216    0.0534   258.172   200.000     8.731
 2119.2000    14.401    2.6817    0.0566   379.529   200.000     9.144
 2119.3524    10.689    2.7352    0.0768   312.682   200.000     8.212
 2119.5048    17.097    2.6710    0.0502   238.409   200.000     8.235
 2119.6572     9.229    2.6589    0.0598   605.210   200.000     8.110
 2119.8096    11.702    2.7086    0.0558   747.951   200.000     8.826
 2119.9620    12.871    2.6714    0.0651   191.183   200.000     8.487
 2120.1144     9.144    2.6747    0.0640   199.944   200.000     7.495
 2120.2668    13.490    2.6684    0.0493   444.634   200.000     8.767
 2120.4192    13.000    2.7084    0.0759   390.177   200.000     8.531
 2120.5716     8.657    2.7076    0.0571   246.080   200.000     8.466
 2120.7240    19.372    2.7133    0.0561   254.018   200.000     8.420
 2120.8764    15.402    2.6062    0.0758   442.992   200.000     8.257
 2121.0288    15.179    2.7328    0.0682   297.850   200.000     8.343
 2121.1812    10.795    2.7274    0.0512   316.153   200.000     8.626
 2121.3336    13.607    2.6763    0.0783   366.486   200.000     8.686
 2121.4860    14.510    2.6760    0.0553   230.748   200.000     8.532
 2121.6384     9.794    2.7291    0.0558   213.033   200.000     8.273
 2121.7908    13.590    2.6192    0.0574   129.056   200.000     8.702
 2121.9432    18.909    2.7354    0.0788   267.930   200.000     8.841
 2122.0956    13.278    2.7512    0.0504   210.819   200.000     8.701
 2122.2480    16.189    2.7086    0.0560   584.016   200.000     8.428
 2122.4004    14.908    2.6364    0.0651   307.887   200.000     8.029
 2122.5528    10.623    2.6035    0.0591   246.131   200.000     8.907
