~VERSION INFORMATION
 VERS.                 2.0    : CWLS LOG ASCII STANDARD
 WRAP.                 NO     : ONE LINE PER DEPTH STEP
~WELL INFORMATION
 WELL.                 Anadarko-B7    : Well name
 FLD .                 Anadarko Basin         : Field
 CTRY.                 USA       : Country
 STRT.M                900.0000 : START DEPTH
 STOP.M                3500.0000   : STOP DEPTH
 STEP.M                0.1524        : STEP
 NULL.                 -999.25          : NULL VALUE
 SRVC.                 SubsurfAI        : Service company
~CURVE INFORMATION
 DEPT.M                              : Depth
 GR  .GAPI                           : Gamma Ray
 RHOB.G/C3                           : Bulk Density
 NPHI.V/V                            : Neutron Porosity
 RT  .OHMM                           : True Resistivity
 DT  .US/F                           : Sonic
 CALI.IN                             : Caliper
~PARAMETER INFORMATION
 LAT .                 35.4676   : Latitude
 LON .                 -98.6784   : Longitude
 DESC.                 Anadarko Basin — Springer/Morrow sandstone gas
~A  DEPT        GR        RHOB      NPHI      RT        DT        CALI
# ...
 2449.9080     7.059    2.7309    0.0688   319.389   200.000     8.987
 2450.0604    10.044    2.6711    0.0630   355.776   200.000     9.153
 2450.2128    22.991    2.7170    0.0594   125.931   200.000     8.557
 2450.3652    12.191    2.6543    0.0531   171.611   200.000     8.684
 2450.5176    15.925    2.6439    0.0672   360.363   200.000     8.728
 2450.6700    17.478    2.7892    0.0592   491.622   200.000     8.188
 2450.8224    10.750    2.6629    0.0638   147.905   200.000     8.661
 2450.9748    14.448    2.7539    0.0598   378.496   200.000     8.730
 2451.1272    17.109    2.6398    0.0567  1069.823   200.000     8.200
 2451.2796    15.781    2.6878    0.0581   567.628   200.000     8.805
 2451.4320    18.863    2.5949    0.0491   113.636   200.000     8.396
 2451.5844    14.804    2.6836    0.0651   249.694   200.000     9.060
 2451.7368    10.968    2.6473    0.0647   362.471   200.000     8.212
 2451.8892     8.644    2.8399    0.0622   389.112   200.000     8.318
 2452.0416     5.715    2.6751    0.0371   247.207   200.000     7.973
 2452.1940    14.734    2.6630    0.0572   208.023   200.000     8.197
 2452.3464    12.902    2.6556    0.0655   302.674   200.000     8.509
 2452.4988     7.932    2.6345    0.0560   157.152   200.000     8.931
 2452.6512    14.196    2.6741    0.0684   179.591   200.000     8.458
 2452.8036    20.460    2.6211    0.0591   385.883   200.000     9.331
 2452.9560    16.005    2.6508    0.0660   266.373   200.000     8.736
 2453.1084     9.637    2.7837    0.0618   242.992   200.000     8.233
 2453.2608    17.299    2.7358    0.0593   330.219   200.000     8.303
 2453.4132     9.273    2.6024    0.0659   198.346   200.000     8.006
 2453.5656     8.322    2.6520    0.0529   188.437   200.000     8.930
 2453.7180    17.009    2.7152    0.0684   199.496   200.000     8.310
 2453.8704    14.040    2.6423    0.0621   251.561   200.000     8.307
 2454.0228    17.834    2.7185    0.0552   331.614   200.000     8.392
 2454.1752    15.010    2.7688    0.0566   396.920   200.000     8.315
 2454.3276    10.728    2.6860    0.0555   168.775   200.000     8.699
 2454.4800    16.634    2.6124    0.0689   310.883   200.000     8.895
 2454.6324    12.371    2.6562    0.0645   254.985   200.000     8.554
 2454.7848    20.176    2.7842    0.0695   549.876   200.000     8.451
 2454.9372    15.053    2.6608    0.0550   427.256   200.000     8.517
 2455.0896    15.347    2.6798    0.0487   326.164   200.000     8.298
 2455.2420    14.525    2.7139    0.0585   109.866   200.000     8.420
 2455.3944    16.802    2.6064    0.0601    65.380   200.000     8.685
 2455.5468    17.050    2.6024    0.0524   218.721   200.000     8.612
 2455.6992    21.088    2.7426    0.0643   307.952   200.000     8.323
 2455.8516    14.325    2.7075    0.0566   174.405   200.000     8.286
 2456.0040    13.125    2.6820    0.0678   356.649   200.000     8.316
 2456.1564    13.700    2.7100    0.0585   169.190   200.000     7.569
 2456.3088    15.951    2.7019    0.0526   201.828   200.000     8.879
 2456.4612    16.293    2.7342    0.0448   355.421   200.000     7.786
 2456.6136    14.936    2.6612    0.0634   143.947   200.000     8.293
 2456.7660    13.565    2.7174    0.0475   328.812   200.000     8.229
 2456.9184    12.389    2.6210    0.0590   329.226   200.000     8.096
 2457.0708    17.838    2.6864    0.0427   169.891   200.000     9.062
 2457.2232    11.160    2.7606    0.0296   146.665   200.000     8.352
 2457.3756    13.095    2.7450    0.0535   557.910   200.000     8.802
 2457.5280     7.565    2.6542    0.0502   217.389   200.000     8.206
 2457.6804    12.232    2.5769    0.0613   126.945   200.000     8.647
 2457.8328    13.506    2.8197    0.0549   179.692   200.000     8.019
 2457.9852    11.150    2.7060    0.0724   230.641   200.000     8.765
 2458.1376    14.349    2.6224    0.0649   226.624   200.000     8.994
 2458.2900     9.954    2.6683    0.0519   327.440   200.000     9.367
 2458.4424    12.039    2.6217    0.0658   725.675   200.000     8.606
 2458.5948    14.542    2.7248    0.0620   312.267   200.000     9.028
 2458.7472    14.581    2.7426    0.0672   158.216   200.000     8.041
 2458.8996    16.087    2.7055    0.0641   255.773   200.000     7.952
 2459.0520    14.191    2.7451    0.0531   278.827   200.000     8.839
 2459.2044    13.046    2.6396    0.0450   253.027   200.000     8.575
 2459.3568    11.072    2.7008    0.0623   624.224   200.000     8.740
 2459.5092    10.306    2.7573    0.0770   350.726   200.000     8.779
 2459.6616    13.940    2.6700    0.0626   360.760   200.000     8.344
 2459.8140    17.925    2.6523    0.0730   267.556   200.000     8.263
 2459.9664   117.133    2.5154    0.1971     3.863   200.000     8.407
 2460.1188    94.792    2.5998    0.2122     4.650   200.000     7.951
 2460.2712   125.661    2.6606    0.1462    10.321   200.000     8.346
 2460.4236   101.807    2.5944    0.2211     6.212   200.000     8.565
 2460.5760   131.959    2.5116    0.1667     5.183   200.000     8.675
 2460.7284    90.336    2.5333    0.1471     2.696   200.000     8.539
 2460.8808   106.069    2.5451    0.2152    11.056   200.000     8.482
 2461.0332   135.227    2.4907    0.2006     3.995   200.000     8.714
 2461.1856   126.787    2.5214    0.1929     3.558   200.000     8.231
 2461.3380   121.014    2.5528    0.2231     7.057   200.000     8.188
 2461.4904    84.648    2.5921    0.2048     7.188   200.000     9.486
 2461.6428    82.981    2.6058    0.1978     5.870   200.000     8.734
 2461.7952   111.498    2.5408    0.1872     5.429   200.000     8.223
 2461.9476   130.666    2.4885    0.2076    15.261   200.000     8.874
 2462.1000   112.827    2.5495    0.2122     9.199   200.000     7.901
 2462.2524   114.171    2.4525    0.1591     5.067   200.000     8.135
 2462.4048   130.368    2.6014    0.1884     6.081   200.000     8.445
 2462.5572   124.751    2.4126    0.2123     5.163   200.000     8.949
 2462.7096   113.415    2.5381    0.1932     5.610   200.000     8.731
 2462.8620    96.229    2.6091    0.1735     8.182   200.000     8.791
 2463.0144   109.633    2.6003    0.1405     5.791   200.000     8.781
 2463.1668   104.805    2.5255    0.2281     6.384   200.000     8.754
 2463.3192   155.106    2.5264    0.2180     7.434   200.000     9.292
 2463.4716   140.453    2.5338    0.1376     4.146   200.000     9.602
 2463.6240   117.003    2.4948    0.2809     4.534   198.498     8.752
 2463.7764   128.422    2.5864    0.1632     6.804   200.000     8.937
 2463.9288   113.258    2.5372    0.2613     8.514   200.000     8.876
 2464.0812   112.558    2.5576    0.1973     6.925   200.000     9.021
 2464.2336   113.406    2.5336    0.2011     5.619   200.000     9.078
 2464.3860   133.454    2.6551    0.2263     6.188   200.000     8.699
 2464.5384   103.439    2.5426    0.1633     3.896   200.000     7.866
 2464.6908   114.551    2.5132    0.1682     6.425   200.000     8.377
 2464.8432    87.173    2.6152    0.1766     3.311   200.000     8.327
 2464.9956    97.025    2.5797    0.2003     2.994   200.000     8.655
 2465.1480   121.888    2.5365    0.2018     9.949   200.000     8.847
 2465.3004   103.937    2.5916    0.1710     8.495   200.000     8.709
 2465.4528    95.549    2.5661    0.2003     4.447   200.000     8.607
 2465.6052   127.598    2.4771    0.2317     1.457   200.000     9.046
 2465.7576   119.215    2.4413    0.2289     4.123   200.000     8.623
 2465.9100    81.096    2.6513    0.2123     8.670   200.000     8.588
 2466.0624   113.863    2.5562    0.2200     4.996   200.000     8.798
 2466.2148   117.277    2.5884    0.1538    11.068   200.000     8.534
 2466.3672   124.787    2.5767    0.1601     6.170   200.000     8.153
 2466.5196   119.866    2.5484    0.1597     9.553   200.000     7.943
 2466.6720   119.773    2.5233    0.1685     5.175   200.000     8.854
 2466.8244   130.879    2.5273    0.2019     6.051   200.000     9.050
 2466.9768   105.016    2.6045    0.1556     6.813   200.000     8.954
