~VERSION INFORMATION
 VERS.                 2.0    : CWLS LOG ASCII STANDARD
 WRAP.                 NO     : ONE LINE PER DEPTH STEP
~WELL INFORMATION
 WELL.                 Anadarko-B7    : Well name
 FLD .                 Anadarko Basin         : Field
 CTRY.                 USA       : Country
 STRT.M                900.0000 : START DEPTH
 STOP.M                3500.0000   : STOP DEPTH
 STEP.M                0.1524        : STEP
 NULL.                 -999.25          : NULL VALUE
 SRVC.                 SubsurfAI        : Service company
~CURVE INFORMATION
 DEPT.M                              : Depth
 GR  .GAPI                           : Gamma Ray
 RHOB.G/C3                           : Bulk Density
 NPHI.V/V                            : Neutron Porosity
 RT  .OHMM                           : True Resistivity
 DT  .US/F                           : Sonic
 CALI.IN                             : Caliper
~PARAMETER INFORMATION
 LAT .                 35.4676   : Latitude
 LON .                 -98.6784   : Longitude
 DESC.                 Anadarko Basin — Springer/Morrow sandstone gas
~A  DEPT        GR        RHOB      NPHI      RT        DT        CALI
# ...
 2966.5440   110.434    2.5457    0.2029     9.281   200.000     8.758
 2966.6964   111.260    2.5546    0.2131     3.689   200.000     8.326
 2966.8488   109.007    2.5695    0.1798     6.565   200.000     8.381
 2967.0012   131.923    2.6053    0.2341    13.836   200.000     7.680
 2967.1536   118.520    2.5114    0.2034     9.037   200.000     9.075
 2967.3060    98.755    2.5375    0.2264     4.667   200.000     8.274
 2967.4584   108.734    2.5407    0.2088     3.301   200.000     8.282
 2967.6108   113.593    2.4945    0.2394     8.072   200.000     8.766
 2967.7632   119.769    2.5345    0.2141     6.545   200.000     8.662
 2967.9156   101.693    2.6284    0.1832    13.509   200.000     8.127
 2968.0680   105.700    2.6043    0.1982     5.109   200.000     8.052
 2968.2204   141.758    2.5925    0.2163     9.735   200.000     7.929
 2968.3728   115.258    2.5098    0.2062     9.946   200.000     8.078
 2968.5252   124.144    2.6033    0.1975     3.320   200.000     7.898
 2968.6776   111.690    2.5859    0.2058     9.029   200.000     8.409
 2968.8300   132.187    2.5482    0.1891     5.979   200.000     7.949
 2968.9824   136.370    2.5445    0.1637    10.579   200.000     8.732
 2969.1348   138.196    2.5733    0.2088    10.593   200.000     8.869
 2969.2872    98.973    2.5234    0.1311     6.450   200.000     8.188
 2969.4396   136.926    2.5374    0.2227     5.572   200.000     8.443
 2969.5920   115.176    2.5598    0.1702     6.584   200.000     8.532
 2969.7444   132.747    2.6124    0.1819     5.156   200.000     8.573
 2969.8968   111.760    2.5548    0.2213    25.236   200.000     8.305
 2970.0492   111.132    2.5597    0.1656     2.908   200.000     8.282
 2970.2016   133.937    2.5468    0.1501     3.714   200.000     7.182
 2970.3540   130.812    2.6278    0.2027    10.771   200.000     8.670
 2970.5064   119.060    2.5685    0.2019     4.326   200.000     8.649
 2970.6588   135.534    2.5751    0.1481     8.054   200.000     8.637
 2970.8112   116.891    2.6451    0.1835     5.554   200.000     8.186
 2970.9636    97.930    2.4542    0.2409    11.510   200.000     8.615
 2971.1160   124.240    2.6073    0.2037     4.474   200.000     8.569
 2971.2684   102.256    2.5482    0.1526     8.379   200.000     7.802
 2971.4208   134.996    2.5978    0.1782     8.505   200.000     8.253
 2971.5732   127.185    2.6427    0.1480     4.598   200.000     8.531
 2971.7256   107.827    2.5371    0.1755     4.101   200.000     7.575
 2971.8780   108.065    2.5820    0.1967     9.860   200.000     8.047
 2972.0304   117.213    2.5731    0.1660     3.139   200.000     8.973
 2972.1828   132.686    2.5711    0.1787     5.795   200.000     8.420
 2972.3352   142.589    2.5716    0.1888     4.038   200.000     8.807
 2972.4876   126.699    2.5293    0.1690    10.562   200.000     8.560
 2972.6400   114.618    2.5721    0.1997     5.582   200.000     8.089
 2972.7924   119.514    2.5233    0.2588     4.090   200.000     8.528
 2972.9448   114.518    2.4965    0.2073     3.116   200.000     7.643
 2973.0972   118.879    2.5536    0.2142     8.556   200.000     8.508
 2973.2496    94.107    2.5880    0.1930     4.963   200.000     8.096
 2973.4020   133.983    2.5487    0.1966     2.364   200.000     8.267
 2973.5544   134.690    2.5380    0.1814     2.889   200.000     7.489
 2973.7068   114.057    2.4864    0.1950     4.621   200.000     9.298
 2973.8592   110.774    2.5599    0.1621     3.041   200.000     8.484
 2974.0116   111.210    2.5619    0.1852     6.748   200.000     8.669
 2974.1640   100.671    2.6196    0.2133     5.172   200.000     8.120
 2974.3164   130.157    2.5865    0.2183     6.824   200.000     8.154
 2974.4688   137.693    2.5124    0.2198     4.338   200.000     8.355
 2974.6212   116.863    2.4705    0.1644     5.985   200.000     8.041
 2974.7736   105.585    2.6479    0.1973    13.072   200.000     9.383
 2974.9260   132.032    2.5254    0.2254    11.064   200.000     8.147
 2975.0784   100.389    2.5556    0.1654     4.402   200.000     8.177
 2975.2308   108.064    2.5604    0.1940     7.188   200.000     8.668
 2975.3832   152.162    2.5241    0.1428     4.395   200.000     8.040
 2975.5356   103.521    2.5289    0.2049     7.334   200.000     9.221
 2975.6880   122.202    2.6739    0.1893     8.774   200.000     8.437
 2975.8404   106.033    2.5557    0.2139     7.386   200.000     8.388
 2975.9928    89.691    2.5938    0.1667     3.895   200.000     7.837
 2976.1452   102.000    2.5156    0.2133     9.179   200.000     8.833
 2976.2976   132.321    2.5123    0.1353    11.892   200.000     8.696
 2976.4500   126.698    2.5526    0.2168     9.683   200.000     8.157
 2976.6024   146.310    2.5262    0.1874     5.675   200.000     8.420
 2976.7548   107.040    2.5658    0.1811    12.945   200.000     8.576
 2976.9072    94.925    2.5084    0.1819     1.890   200.000     8.613
 2977.0596   108.851    2.6382    0.1837     7.212   200.000     8.527
 2977.2120   118.932    2.5916    0.1759     9.082   200.000     8.826
 2977.3644   115.492    2.4854    0.2156     3.700   200.000     8.386
 2977.5168   129.961    2.6407    0.1398     5.602   200.000     9.228
 2977.6692   116.158    2.6117    0.2349    10.522   200.000     8.532
 2977.8216   120.129    2.5525    0.2100     3.288   200.000     8.928
 2977.9740   122.092    2.6106    0.2177     9.442   200.000     9.169
 2978.1264    93.297    2.5981    0.1782     5.073   200.000     8.420
 2978.2788   120.202    2.4926    0.1626     4.390   200.000     8.576
 2978.4312   129.943    2.5051    0.2134     5.046   200.000     8.894
 2978.5836   112.928    2.5282    0.1617     5.043   200.000     8.919
 2978.7360   128.772    2.5160    0.2049    10.720   200.000     8.219
 2978.8884   146.237    2.5516    0.2518    19.386   200.000     8.204
 2979.0408    87.282    2.5205    0.2304     5.532   200.000     9.245
 2979.1932    99.798    2.5649    0.1911     3.231   200.000     7.363
 2979.3456   121.509    2.5566    0.1964     5.819   200.000     9.127
 2979.4980   117.361    2.6152    0.2056     8.642   200.000     7.821
 2979.6504    94.939    2.5246    0.2236     4.499   200.000     8.721
 2979.8028    90.341    2.4463    0.1442     4.018   200.000     8.417
 2979.9552    33.624    2.3003    0.2108    32.949   200.000     8.905
 2980.1076    32.179    2.3876    0.1422    36.364   200.000     8.349
 2980.2600    37.513    2.3193    0.2098    51.054   200.000     7.799
 2980.4124    37.352    2.3184    0.2085    53.100   200.000     8.785
 2980.5648    32.996    2.2838    0.2251    13.688   200.000     8.818
 2980.7172    37.564    2.2771    0.2288    36.436   200.000     9.241
 2980.8696    39.160    2.3504    0.1699    46.642   200.000     8.768
 2981.0220    32.238    2.3254    0.2027    85.949   200.000     8.645
 2981.1744    36.668    2.2590    0.1747    30.587   200.000     8.668
 2981.3268    30.718    2.3272    0.1500    32.672   200.000     8.186
 2981.4792    30.379    2.3692    0.2137    57.090   200.000     7.482
 2981.6316    35.828    2.3736    0.2116    17.779   200.000     8.461
 2981.7840    42.249    2.3180    0.2060    61.571   200.000     8.810
 2981.9364    30.366    2.3070    0.1780    30.423   200.000     8.283
 2982.0888    22.025    2.3580    0.1803    23.148   200.000     9.061
 2982.2412    38.876    2.3423    0.2007    22.725   200.000     8.693
 2982.3936    37.859    2.3224    0.2039    31.410   200.000     8.576
 2982.5460    35.602    2.3187    0.1650    19.322   200.000     8.087
 2982.6984    42.017    2.3239    0.2074    23.705   200.000     8.253
 2982.8508    42.484    2.2496    0.1750    74.395   200.000     8.913
 2983.0032    39.800    2.3124    0.1741    18.239   200.000     8.374
 2983.1556    38.511    2.4293    0.1477    36.186   200.000     8.567
 2983.3080    30.787    2.3632    0.1964    10.948   200.000     8.381
 2983.4604    41.512    2.2815    0.2364    18.927   200.000     8.602
 2983.6128    35.604    2.2141    0.1193    39.795   200.000     8.716
