~VERSION INFORMATION
 VERS.                 2.0    : CWLS LOG ASCII STANDARD
 WRAP.                 NO     : ONE LINE PER DEPTH STEP
~WELL INFORMATION
 WELL.                 Anadarko-B7    : Well name
 FLD .                 Anadarko Basin         : Field
 CTRY.                 USA       : Country
 STRT.M                900.0000 : START DEPTH
 STOP.M                3500.0000   : STOP DEPTH
 STEP.M                0.1524        : STEP
 NULL.                 -999.25          : NULL VALUE
 SRVC.                 SubsurfAI        : Service company
~CURVE INFORMATION
 DEPT.M                              : Depth
 GR  .GAPI                           : Gamma Ray
 RHOB.G/C3                           : Bulk Density
 NPHI.V/V                            : Neutron Porosity
 RT  .OHMM                           : True Resistivity
 DT  .US/F                           : Sonic
 CALI.IN                             : Caliper
~PARAMETER INFORMATION
 LAT .                 35.4676   : Latitude
 LON .                 -98.6784   : Longitude
 DESC.                 Anadarko Basin — Springer/Morrow sandstone gas
~A  DEPT        GR        RHOB      NPHI      RT        DT        CALI
# ...
 1416.6360   140.668    2.5583    0.2339     4.784   200.000     8.781
 1416.7884   154.593    2.5494    0.1690     6.503   200.000     8.338
 1416.9408   132.114    2.5116    0.2005     6.519   200.000     8.968
 1417.0932   115.584    2.5108    0.2271     6.605   200.000     8.853
 1417.2456   140.508    2.5574    0.2144    14.608   200.000     8.258
 1417.3980   118.186    2.5033    0.2296     3.212   200.000     8.061
 1417.5504   144.635    2.5847    0.1502     2.771   200.000     8.626
 1417.7028   118.177    2.5229    0.2229     4.110   200.000     8.597
 1417.8552   131.584    2.6559    0.1959     3.330   200.000     8.243
 1418.0076   109.701    2.5058    0.1848     4.250   200.000     9.108
 1418.1600   115.821    2.5620    0.2505    10.799   200.000     8.623
 1418.3124   134.460    2.6147    0.2164     8.322   200.000     8.335
 1418.4648   122.756    2.5982    0.2211    10.390   200.000     9.151
 1418.6172   135.810    2.5284    0.2086     6.177   200.000     8.373
 1418.7696   116.451    2.5461    0.2274     2.894   200.000     8.940
 1418.9220   162.550    2.5996    0.1943     3.672   200.000     8.659
 1419.0744   146.904    2.5862    0.2495     3.534   200.000     8.173
 1419.2268   128.788    2.4883    0.1534     4.567   200.000     8.373
 1419.3792   154.622    2.5116    0.1853     4.684   200.000     8.450
 1419.5316   126.090    2.5867    0.1959     2.566   200.000     7.985
 1419.6840   107.693    2.6037    0.2023     3.807   200.000     8.469
 1419.8364   142.499    2.5247    0.2258     3.580   200.000     8.774
 1419.9888    39.540    2.4127    0.1546     8.601   200.000     7.612
 1420.1412    42.506    2.4277    0.1783    13.637   200.000     8.898
 1420.2936    41.431    2.3716    0.1440    26.937   200.000     7.937
 1420.4460    40.983    2.3455    0.1577    16.477   200.000     8.583
 1420.5984    36.806    2.3686    0.1687    15.247   200.000     8.537
 1420.7508    43.538    2.4170    0.1624     6.717   200.000     8.598
 1420.9032    29.687    2.3410    0.1255     6.812   200.000     8.744
 1421.0556    56.460    2.3028    0.1503    30.315   200.000     8.654
 1421.2080    42.608    2.3593    0.2088    20.733   200.000     8.366
 1421.3604    41.112    2.3172    0.1283    18.101   200.000     8.066
 1421.5128    47.924    2.4493    0.1984    30.775   200.000     8.659
 1421.6652    47.906    2.3811    0.1471     9.807   200.000     8.546
 1421.8176    37.888    2.4272    0.1847    10.648   200.000     8.690
 1421.9700    41.005    2.4219    0.1670    20.029   200.000     9.524
 1422.1224    54.842    2.3837    0.1834    13.909   200.000     7.963
 1422.2748    42.224    2.3941    0.1327    23.374   200.000     8.656
 1422.4272    47.256    2.3196    0.1780    11.957   200.000     8.524
 1422.5796    43.366    2.3081    0.2008    23.724   200.000     8.956
 1422.7320    44.889    2.3829    0.1685    30.919   200.000     8.273
 1422.8844    42.693    2.4232    0.1500    23.300   200.000     8.024
 1423.0368    42.458    2.2862    0.1570     8.976   200.000     8.224
 1423.1892    48.632    2.3163    0.1859     5.320   200.000     8.331
 1423.3416    42.635    2.3243    0.1449    17.857   200.000     8.503
 1423.4940    34.650    2.3642    0.1802    17.120   200.000     8.289
 1423.6464    53.861    2.3917    0.1610    29.579   200.000     8.450
 1423.7988    48.380    2.4434    0.1629    16.143   200.000     9.031
 1423.9512    42.563    2.3176    0.1543     7.155   200.000     8.301
 1424.1036    42.512    2.4095    0.1241    19.873   200.000     7.382
 1424.2560    35.791    2.4188    0.1334    16.321   200.000     8.099
 1424.4084    49.111    2.3952    0.1534    16.187   200.000     8.744
 1424.5608    41.440    2.3468    0.1573    21.182   200.000     8.945
 1424.7132    48.857    2.3701    0.1898    16.602   200.000     9.133
 1424.8656    41.335    2.4283    0.2122    14.768   200.000     8.765
 1425.0180    44.464    2.4056    0.1547     6.411   200.000     8.130
 1425.1704    50.230    2.3729    0.1346     9.570   200.000     8.961
 1425.3228    55.483    2.3448    0.1411    27.045   200.000     8.477
 1425.4752    51.762    2.3190    0.1358    12.176   200.000     8.551
 1425.6276    38.903    2.3733    0.1684    17.391   200.000     8.315
 1425.7800    50.076    2.4298    0.1735    11.385   200.000     8.546
 1425.9324    38.875    2.3864    0.1575    18.073   200.000     8.661
 1426.0848    44.694    2.3686    0.1202    17.183   200.000     9.049
 1426.2372    51.465    2.3867    0.1632    20.010   200.000     7.898
 1426.3896    48.694    2.3799    0.1531    12.151   200.000     8.926
 1426.5420    41.742    2.3690    0.1820    19.271   200.000     8.261
 1426.6944    43.824    2.3338    0.1692    12.670   200.000     8.801
 1426.8468    54.867    2.3352    0.1712    43.589   200.000     8.316
 1426.9992    44.170    2.4136    0.1364    23.781   200.000     7.913
 1427.1516    50.504    2.4078    0.1635    11.103   200.000     8.384
 1427.3040    53.423    2.4235    0.2002    18.978   200.000     9.415
 1427.4564    46.921    2.2597    0.1832     6.056   200.000     9.031
 1427.6088    39.935    2.4202    0.1200    12.928   200.000     8.296
 1427.7612    40.752    2.3632    0.0880    36.891   200.000     8.734
 1427.9136    46.186    2.3890    0.1560    26.678   200.000     8.790
 1428.0660    52.785    2.3359    0.1510     6.859   200.000     8.150
 1428.2184    42.582    2.3483    0.1574    32.188   200.000     9.003
 1428.3708    40.041    2.4166    0.1816    22.447   200.000     8.465
 1428.5232    50.506    2.3280    0.1378    22.018   200.000     8.046
 1428.6756    49.816    2.4259    0.1650    21.528   200.000     8.368
 1428.8280    38.665    2.4142    0.1898    33.880   200.000     8.463
 1428.9804    44.343    2.3397    0.1315     8.574   200.000     8.183
 1429.1328    43.546    2.4039    0.1484    23.767   200.000     8.256
 1429.2852    49.969    2.3089    0.1478    29.018   200.000     8.879
 1429.4376    42.799    2.3693    0.1571    16.264   200.000     8.665
 1429.5900    44.524    2.4290    0.1588    26.978   200.000     7.777
 1429.7424    34.027    2.3509    0.1822    10.238   200.000     8.382
 1429.8948    53.019    2.3582    0.1542    47.671   200.000     8.967
 1430.0472    42.544    2.3493    0.1652     8.453   200.000     9.120
 1430.1996    42.124    2.4355    0.1718    31.742   200.000     9.133
 1430.3520    43.104    2.3442    0.0971    17.547   200.000     7.880
 1430.5044    51.430    2.2857    0.1738    12.962   200.000     8.484
 1430.6568    45.510    2.3225    0.1490    23.196   200.000     7.962
 1430.8092    41.003    2.3141    0.1437    28.205   200.000     9.090
 1430.9616    49.472    2.3903    0.1868    22.571   200.000     8.768
 1431.1140    51.829    2.3068    0.1562    13.683   200.000     8.348
 1431.2664    38.555    2.3002    0.1832    10.932   200.000     8.455
 1431.4188    41.460    2.4059    0.1357     7.536   200.000     8.764
 1431.5712    47.069    2.3989    0.1349    16.485   200.000     8.626
 1431.7236    49.040    2.4201    0.1286    25.271   200.000     8.338
 1431.8760    44.990    2.3814    0.1590    29.838   200.000     8.070
 1432.0284    35.350    2.2683    0.1553    21.573   200.000     8.645
 1432.1808    52.127    2.4276    0.1663    22.815   200.000     8.575
 1432.3332    59.645    2.3115    0.1375    31.151   200.000     8.678
 1432.4856    55.273    2.4425    0.1654    22.579   200.000     8.273
 1432.6380    50.577    2.4273    0.1795    13.157   200.000     7.531
 1432.7904    40.797    2.3109    0.1399    24.039   200.000     8.540
 1432.9428    43.910    2.3882    0.1561    21.025   200.000     7.955
 1433.0952    39.335    2.4498    0.1576    27.312   200.000     8.403
 1433.2476    46.626    2.3277    0.1672    21.676   200.000     8.452
 1433.4000    43.125    2.3658    0.1732    43.621   200.000     8.635
 1433.5524    40.684    2.3432    0.1653    17.321   200.000     8.737
 1433.7048    46.243    2.2571    0.1765    14.560   200.000     8.219
