~VERSION INFORMATION
 VERS.                 2.0    : CWLS LOG ASCII STANDARD
 WRAP.                 NO     : ONE LINE PER DEPTH STEP
~WELL INFORMATION
 WELL.                 Midland-A12    : Well name
 FLD .                 Midland Basin         : Field
 CTRY.                 USA       : Country
 STRT.M                1500.0000 : START DEPTH
 STOP.M                4200.0000   : STOP DEPTH
 STEP.M                0.1524        : STEP
 NULL.                 -999.25          : NULL VALUE
 SRVC.                 SubsurfAI        : Service company
~CURVE INFORMATION
 DEPT.M                              : Depth
 GR  .GAPI                           : Gamma Ray
 RHOB.G/C3                           : Bulk Density
 NPHI.V/V                            : Neutron Porosity
 RT  .OHMM                           : True Resistivity
 DT  .US/F                           : Sonic
 CALI.IN                             : Caliper
~PARAMETER INFORMATION
 LAT .                 31.9974   : Latitude
 LON .                 -101.9543   : Longitude
 DESC.                 Permian Basin — Wolfcamp/Spraberry tight oil
~A  DEPT        GR        RHOB      NPHI      RT        DT        CALI
# ...
 2567.7144    16.854    2.6951    0.0546   569.129   200.000     7.828
 2567.8668    10.927    2.6770    0.0530   264.281   200.000     8.727
 2568.0192     4.706    2.6853    0.0505   289.240   200.000     8.110
 2568.1716     8.004    2.6417    0.0360   395.976   200.000     8.361
 2568.3240    10.894    2.7610    0.0598   389.177   200.000     7.809
 2568.4764    10.552    2.6517    0.0536   199.234   200.000     8.899
 2568.6288     9.385    2.7547    0.0636   261.900   200.000     8.824
 2568.7812     6.391    2.7407    0.0524   540.939   200.000     7.424
 2568.9336     8.667    2.7941    0.0572   215.393   200.000     8.654
 2569.0860     7.558    2.7343    0.0389   247.244   200.000     7.851
 2569.2384    15.023    2.7531    0.0540   655.520   200.000     8.100
 2569.3908    10.198    2.7556    0.0446   717.153   200.000     9.579
 2569.5432     5.451    2.8427    0.0461   515.548   200.000     8.071
 2569.6956    16.714    2.6703    0.0460   543.846   200.000     8.765
 2569.8480     8.768    2.7813    0.0490   333.981   200.000     8.259
 2570.0004     9.803    2.8056    0.0399   385.417   200.000     8.500
 2570.1528    10.715    2.7465    0.0499   359.239   200.000     8.967
 2570.3052     9.895    2.7632    0.0636   169.716   200.000     8.622
 2570.4576     7.817    2.6731    0.0520   545.728   200.000     8.696
 2570.6100    15.045    2.6138    0.0443   581.274   200.000     8.617
 2570.7624    16.453    2.6869    0.0540   485.350   200.000     8.550
 2570.9148     9.202    2.6948    0.0344   193.492   200.000     8.755
 2571.0672    14.026    2.6960    0.0384   294.778   200.000     7.913
 2571.2196    10.216    2.6438    0.0491   290.462   200.000     8.230
 2571.3720    10.676    2.7312    0.0434   354.814   200.000     8.296
 2571.5244    10.850    2.7283    0.0546   407.646   200.000     9.063
 2571.6768    10.617    2.7172    0.0399   414.950   200.000     7.829
 2571.8292     6.531    2.6941    0.0522   498.461   200.000     7.969
 2571.9816    12.064    2.6637    0.0591   415.555   200.000     8.712
 2572.1340    12.385    2.8074    0.0536   432.661   200.000     8.650
 2572.2864    10.640    2.6901    0.0440   217.757   200.000     8.599
 2572.4388    10.992    2.7120    0.0471   283.013   200.000     8.136
 2572.5912    16.277    2.7037    0.0522   457.428   200.000     8.740
 2572.7436    15.100    2.6786    0.0507   266.178   200.000     8.087
 2572.8960    13.044    2.7384    0.0453   967.833   200.000     9.192
 2573.0484    15.208    2.7493    0.0349   478.868   200.000     8.413
 2573.2008    12.965    2.6774    0.0458   306.869   200.000     8.541
 2573.3532     6.143    2.7350    0.0501   308.656   200.000     8.744
 2573.5056    12.135    2.7093    0.0578   316.663   200.000     8.399
 2573.6580     6.204    2.7282    0.0453   406.628   200.000     8.458
 2573.8104    10.785    2.7630    0.0533   575.715   200.000     8.378
 2573.9628    17.961    2.7218    0.0508    79.331   200.000     9.286
 2574.1152    13.640    2.7373    0.0361   426.759   200.000     8.103
 2574.2676    15.124    2.6917    0.0624   373.846   200.000     8.607
 2574.4200    14.401    2.7560    0.0579   420.266   200.000     9.019
 2574.5724    14.251    2.8014    0.0528   545.212   200.000     8.411
 2574.7248    11.656    2.7228    0.0560   672.335   200.000     8.891
 2574.8772    13.056    2.7536    0.0586   165.157   200.000     8.758
 2575.0296     9.987    2.6754    0.0598   124.254   200.000     8.412
 2575.1820     6.067    2.7868    0.0436   134.137   200.000     8.038
 2575.3344     8.081    2.7297    0.0567   288.282   200.000     8.684
 2575.4868    12.521    2.7867    0.0500   216.506   200.000     8.254
 2575.6392    14.921    2.7446    0.0417   403.833   200.000     8.234
 2575.7916    10.801    2.6373    0.0484   143.099   200.000     8.336
 2575.9440    14.559    2.6676    0.0501   281.540   200.000     8.551
 2576.0964    10.207    2.6581    0.0481   340.411   200.000     8.030
 2576.2488    16.497    2.6980    0.0585   429.630   200.000     7.784
 2576.4012     9.574    2.7661    0.0525   737.577   200.000     8.513
 2576.5536    12.991    2.7931    0.0396   344.688   200.000     8.698
 2576.7060    11.314    2.6897    0.0474   223.096   200.000     8.719
 2576.8584    12.889    2.7047    0.0335   180.570   200.000     8.388
 2577.0108    13.636    2.7481    0.0450   489.182   200.000     8.756
 2577.1632    17.258    2.6086    0.0611   450.654   200.000     9.001
 2577.3156     9.277    2.6813    0.0407   302.844   200.000     8.255
 2577.4680     7.958    2.6734    0.0494   354.425   200.000     7.904
 2577.6204    10.446    2.7061    0.0473   227.181   200.000     7.940
 2577.7728    12.206    2.7240    0.0491   641.930   200.000     9.069
 2577.9252    11.184    2.8345    0.0569   234.882   200.000     8.364
 2578.0776    11.422    2.6535    0.0481   555.581   200.000     9.074
 2578.2300    12.255    2.6801    0.0500   489.605   200.000     8.591
 2578.3824     8.985    2.8184    0.0503   353.297   200.000     8.760
 2578.5348    10.263    2.7898    0.0585   660.438   200.000     9.004
 2578.6872     8.824    2.7277    0.0399   184.580   200.000     9.032
 2578.8396    11.599    2.7065    0.0441   262.309   200.000     8.362
 2578.9920    11.061    2.7716    0.0444   276.313   200.000     8.711
 2579.1444    11.524    2.7387    0.0590   259.192   200.000     8.383
 2579.2968    11.852    2.7668    0.0635   257.819   200.000     8.547
 2579.4492    14.400    2.7425    0.0624   882.624   200.000     8.479
 2579.6016    12.721    2.7039    0.0467   399.776   200.000     8.590
 2579.7540    15.922    2.7334    0.0380   498.696   200.000     8.959
 2579.9064    12.718    2.7776    0.0748   141.308   200.000     8.619
 2580.0588     9.297    2.8145    0.0594   195.614   200.000     8.938
 2580.2112    15.327    2.6659    0.0526   450.947   200.000     8.385
 2580.3636    15.100    2.8140    0.0605   690.427   200.000     8.265
 2580.5160    13.145    2.6981    0.0514   160.808   200.000     7.738
 2580.6684     5.005    2.7590    0.0467   310.696   200.000     9.239
 2580.8208    11.613    2.6374    0.0493   402.185   200.000     8.092
 2580.9732     9.975    2.7876    0.0567   442.862   200.000     8.384
 2581.1256    12.272    2.6467    0.0443   499.886   200.000     9.109
 2581.2780     9.546    2.6849    0.0475   324.480   200.000     8.034
 2581.4304    14.973    2.7702    0.0530   138.721   200.000     9.189
 2581.5828    12.152    2.7200    0.0506   348.505   200.000     8.512
 2581.7352     7.066    2.6400    0.0505   671.801   200.000     8.687
 2581.8876    19.049    2.7017    0.0597   526.888   200.000     7.962
 2582.0400    15.112    2.7048    0.0655   305.826   200.000     8.412
 2582.1924    12.404    2.7507    0.0592   532.768   200.000     8.095
 2582.3448    13.043    2.7199    0.0626   131.235   200.000     8.562
 2582.4972     5.941    2.7351    0.0460  1013.123   200.000     8.686
 2582.6496    14.100    2.7697    0.0507   304.304   200.000     8.379
 2582.8020    11.954    2.8040    0.0439   526.138   200.000     8.684
 2582.9544     8.301    2.7087    0.0531   357.266   200.000     8.181
 2583.1068     8.819    2.7852    0.0507   610.645   200.000     8.924
 2583.2592    14.195    2.7524    0.0557   424.515   200.000     8.725
 2583.4116     6.322    2.7203    0.0614   290.001   200.000     8.031
 2583.5640    10.861    2.7810    0.0500   372.800   200.000     8.939
 2583.7164    14.804    2.7157    0.0526   682.701   200.000     8.897
 2583.8688    11.193    2.8173    0.0482   162.276   200.000     7.905
 2584.0212    15.716    2.7335    0.0459   661.497   200.000     8.693
 2584.1736    13.033    2.7330    0.0449   165.042   200.000     7.841
 2584.3260    14.842    2.7697    0.0521   566.135   200.000     8.853
 2584.4784    10.906    2.6833    0.0513   150.293   200.000     8.643
 2584.6308    14.868    2.7771    0.0427   539.429   200.000     7.916
 2584.7832    12.688    2.7728    0.0526   558.497   200.000     9.072
