~VERSION INFORMATION
 VERS.                 2.0    : CWLS LOG ASCII STANDARD
 WRAP.                 NO     : ONE LINE PER DEPTH STEP
~WELL INFORMATION
 WELL.                 Midland-A12    : Well name
 FLD .                 Midland Basin         : Field
 CTRY.                 USA       : Country
 STRT.M                1500.0000 : START DEPTH
 STOP.M                4200.0000   : STOP DEPTH
 STEP.M                0.1524        : STEP
 NULL.                 -999.25          : NULL VALUE
 SRVC.                 SubsurfAI        : Service company
~CURVE INFORMATION
 DEPT.M                              : Depth
 GR  .GAPI                           : Gamma Ray
 RHOB.G/C3                           : Bulk Density
 NPHI.V/V                            : Neutron Porosity
 RT  .OHMM                           : True Resistivity
 DT  .US/F                           : Sonic
 CALI.IN                             : Caliper
~PARAMETER INFORMATION
 LAT .                 31.9974   : Latitude
 LON .                 -101.9543   : Longitude
 DESC.                 Permian Basin — Wolfcamp/Spraberry tight oil
~A  DEPT        GR        RHOB      NPHI      RT        DT        CALI
# ...
 4014.2952    39.586    2.3312    0.1383    32.908   200.000     8.214
 4014.4476    39.812    2.3451    0.1599    38.668   200.000     8.076
 4014.6000    41.596    2.3486    0.1707    17.866   200.000     8.451
 4014.7524    55.631    2.4135    0.0923    45.293   200.000     8.618
 4014.9048    43.501    2.4063    0.1520    15.169   200.000     8.583
 4015.0572    34.828    2.3114    0.1390    16.808   200.000     8.719
 4015.2096    41.823    2.3059    0.1675    46.648   200.000     8.559
 4015.3620    53.482    2.2479    0.1769    37.094   200.000     7.650
 4015.5144    36.392    2.3256    0.1748     9.385   200.000    10.020
 4015.6668    38.834    2.2843    0.1424    28.944   200.000     7.928
 4015.8192    40.046    2.3876    0.0973    51.578   200.000     8.167
 4015.9716    40.388    2.4281    0.1513    37.849   200.000     8.479
 4016.1240    48.543    2.3849    0.1754    10.160   200.000     8.735
 4016.2764    38.577    2.3373    0.1201    65.795   200.000     8.280
 4016.4288    41.102    2.3793    0.1553    19.746   200.000     8.004
 4016.5812    33.191    2.3547    0.1421    24.092   200.000     9.839
 4016.7336    43.922    2.3863    0.1331    26.132   200.000     8.822
 4016.8860    50.294    2.2874    0.1512    65.096   200.000     8.577
 4017.0384    55.288    2.3162    0.1601    42.669   200.000     8.440
 4017.1908    30.945    2.4209    0.1565    21.025   200.000     9.130
 4017.3432    44.254    2.3231    0.1481    28.599   200.000     8.759
 4017.4956    41.398    2.3195    0.1614    11.652   200.000     7.984
 4017.6480    43.337    2.4453    0.1851    32.932   200.000     8.380
 4017.8004    34.924    2.3418    0.1293    37.719   200.000     8.628
 4017.9528    38.525    2.3514    0.1087    31.885   200.000     9.224
 4018.1052    40.582    2.4265    0.1592    24.765   200.000     8.818
 4018.2576    49.194    2.3338    0.1760    10.929   200.000     8.997
 4018.4100    41.309    2.3717    0.1573    72.267   200.000     8.857
 4018.5624    45.012    2.3422    0.1654    24.424   200.000     8.572
 4018.7148    33.100    2.3492    0.1475    14.210   200.000     8.347
 4018.8672    45.197    2.3383    0.1445    29.212   200.000     7.922
 4019.0196    49.177    2.3314    0.1583     7.743   200.000     8.686
 4019.1720    39.901    2.3942    0.1252    29.086   200.000     8.068
 4019.3244    39.786    2.3542    0.1600    22.789   200.000     8.686
 4019.4768    47.473    2.3623    0.0929    23.241   200.000     7.924
 4019.6292    37.857    2.3002    0.1312    25.710   200.000     8.966
 4019.7816    43.958    2.3689    0.1211    19.089   200.000     8.438
 4019.9340    26.185    2.4063    0.1794    26.734   200.000     9.161
 4020.0864    39.283    2.3707    0.1147    42.726   200.000     8.623
 4020.2388    34.025    2.2590    0.1650    30.159   200.000     8.639
 4020.3912    39.746    2.3007    0.1862    24.404   200.000     8.793
 4020.5436    34.624    2.2906    0.1632    30.532   200.000     8.715
 4020.6960    27.736    2.3448    0.1478    32.267   200.000     8.631
 4020.8484    38.210    2.4274    0.1254    21.006   200.000     8.122
 4021.0008    41.259    2.4045    0.1802    34.524   200.000     8.519
 4021.1532    37.175    2.3300    0.1731    10.669   200.000     7.826
 4021.3056    38.884    2.3044    0.1510    16.503   200.000     8.988
 4021.4580    34.469    2.2648    0.1018    37.651   200.000     8.288
 4021.6104    39.035    2.3730    0.1468    12.008   200.000     8.809
 4021.7628    38.457    2.3987    0.1499    41.093   200.000     9.269
 4021.9152    42.213    2.3561    0.1330    14.456   200.000     8.600
 4022.0676    38.993    2.3760    0.1295    34.493   200.000     8.582
 4022.2200    47.180    2.3237    0.1272    11.621   200.000     8.797
 4022.3724    49.072    2.3112    0.1683    18.665   200.000     8.282
 4022.5248    36.216    2.4097    0.1423    18.689   200.000     8.772
 4022.6772    40.049    2.2959    0.1357    26.604   200.000     9.198
 4022.8296    35.459    2.3986    0.1701    31.837   200.000     8.745
 4022.9820    52.476    2.2738    0.1331    10.801   200.000     8.326
 4023.1344    50.786    2.3169    0.1770    31.431   200.000     8.159
 4023.2868    33.952    2.4070    0.1502    16.381   200.000     8.608
 4023.4392    31.280    2.3203    0.1846    32.374   200.000     7.869
 4023.5916    39.991    2.3716    0.1815    24.993   200.000     8.495
 4023.7440    44.491    2.2681    0.1224    17.275   200.000     8.642
 4023.8964    42.911    2.3724    0.1331    23.092   200.000     8.718
 4024.0488    33.667    2.2695    0.1495    25.665   200.000     8.617
 4024.2012    47.920    2.3658    0.1712    38.607   200.000     8.572
 4024.3536    42.021    2.2612    0.1546    10.678   200.000     8.764
 4024.5060    42.718    2.3979    0.1663    36.056   200.000     8.821
 4024.6584    30.528    2.3833    0.1705    32.183   200.000     8.439
 4024.8108    28.609    2.3645    0.1099    24.192   200.000     8.900
 4024.9632    56.257    2.3133    0.1533    35.458   200.000     8.162
 4025.1156    38.186    2.3632    0.1561    19.945   200.000     7.862
 4025.2680    26.668    2.3723    0.1320    13.664   200.000     8.703
 4025.4204    56.431    2.3342    0.1559    21.966   200.000     8.417
 4025.5728    43.526    2.4136    0.1615    25.305   200.000     8.929
 4025.7252    29.321    2.3114    0.1220    33.328   200.000     8.100
 4025.8776    56.717    2.3733    0.1920    24.244   200.000     8.307
 4026.0300    41.979    2.3816    0.1550    13.572   200.000     8.423
 4026.1824    44.915    2.3247    0.1661    33.477   200.000     8.567
 4026.3348    33.220    2.3315    0.1486    15.851   200.000     9.233
 4026.4872    39.588    2.4367    0.1465    54.686   200.000     9.131
 4026.6396    33.236    2.3302    0.1386    17.289   200.000     8.454
 4026.7920    38.098    2.2904    0.1611    29.078   200.000     8.862
 4026.9444    40.249    2.3696    0.1413    10.692   200.000     8.507
 4027.0968    34.313    2.2823    0.1547    61.584   200.000     8.581
 4027.2492    38.106    2.3253    0.1164    38.193   200.000     7.453
 4027.4016    39.172    2.4030    0.1707    29.793   200.000     7.841
 4027.5540    42.205    2.3806    0.1565    45.411   200.000     7.777
 4027.7064    39.519    2.3222    0.1213    36.917   200.000     8.474
 4027.8588    38.810    2.3086    0.1417    71.913   200.000     8.754
 4028.0112    41.382    2.3850    0.1248    21.973   200.000     8.721
 4028.1636    42.959    2.2790    0.1400    22.733   200.000     8.786
 4028.3160    34.572    2.4545    0.1840    16.642   200.000     8.368
 4028.4684    42.439    2.3869    0.1235    24.650   200.000     8.666
 4028.6208    50.001    2.4347    0.1875    41.143   200.000     9.068
 4028.7732    46.995    2.4516    0.2034    33.311   200.000     8.302
 4028.9256    48.607    2.3744    0.1346    33.696   200.000     8.617
 4029.0780    45.335    2.4023    0.1575    12.116   200.000     7.823
 4029.2304    41.627    2.3668    0.2238    42.866   200.000     9.016
 4029.3828    47.304    2.3517    0.1250    25.660   200.000     8.746
 4029.5352    39.460    2.3509    0.1218    21.400   200.000     8.147
 4029.6876    38.605    2.3194    0.1435    28.268   200.000     7.891
 4029.8400    30.247    2.2934    0.1600    27.888   200.000     8.333
 4029.9924    38.070    2.2854    0.1466    12.098   200.000     8.148
 4030.1448    40.543    2.3219    0.1396    28.502   200.000     8.362
 4030.2972    40.450    2.4020    0.1534    41.121   200.000     9.060
 4030.4496    38.685    2.2196    0.1535    30.446   200.000     8.694
 4030.6020    44.223    2.2958    0.1440    25.152   200.000     8.555
 4030.7544    42.966    2.3330    0.1116    16.246   200.000     8.729
 4030.9068    48.468    2.3319    0.1523    50.753   200.000     8.148
 4031.0592    29.765    2.3677    0.1535    20.446   200.000     8.630
 4031.2116    49.991    2.4158    0.1550    14.902   200.000     8.572
 4031.3640    31.520    2.3929    0.1458    38.117   200.000     8.157
