~VERSION INFORMATION
 VERS.                 2.0    : CWLS LOG ASCII STANDARD
 WRAP.                 NO     : ONE LINE PER DEPTH STEP
~WELL INFORMATION
 WELL.                 Midland-A12    : Well name
 FLD .                 Midland Basin         : Field
 CTRY.                 USA       : Country
 STRT.M                1500.0000 : START DEPTH
 STOP.M                4200.0000   : STOP DEPTH
 STEP.M                0.1524        : STEP
 NULL.                 -999.25          : NULL VALUE
 SRVC.                 SubsurfAI        : Service company
~CURVE INFORMATION
 DEPT.M                              : Depth
 GR  .GAPI                           : Gamma Ray
 RHOB.G/C3                           : Bulk Density
 NPHI.V/V                            : Neutron Porosity
 RT  .OHMM                           : True Resistivity
 DT  .US/F                           : Sonic
 CALI.IN                             : Caliper
~PARAMETER INFORMATION
 LAT .                 31.9974   : Latitude
 LON .                 -101.9543   : Longitude
 DESC.                 Permian Basin — Wolfcamp/Spraberry tight oil
~A  DEPT        GR        RHOB      NPHI      RT        DT        CALI
# ...
 1672.2120   100.509    2.6454    0.1483    16.314   200.000     8.459
 1672.3644   132.026    2.6564    0.1666     6.246   200.000     9.001
 1672.5168   121.389    2.5504    0.1951     4.326   200.000     8.349
 1672.6692   117.710    2.5599    0.1796     6.361   200.000     8.511
 1672.8216   117.841    2.5999    0.1580     4.746   200.000     8.588
 1672.9740   122.891    2.5984    0.1621     4.341   200.000     8.594
 1673.1264   108.665    2.5884    0.1273     8.594   200.000     8.384
 1673.2788   140.053    2.6272    0.1609     5.724   200.000     8.898
 1673.4312   167.177    2.6022    0.1870     5.143   200.000     8.302
 1673.5836   100.857    2.6219    0.1604     4.932   200.000     9.414
 1673.7360   129.937    2.5794    0.1770     6.873   200.000     8.892
 1673.8884   120.555    2.5726    0.1611     9.862   200.000     9.005
 1674.0408    78.809    2.6372    0.1310    10.619   200.000     7.877
 1674.1932   104.665    2.6114    0.1356    10.501   200.000     8.496
 1674.3456   112.530    2.6606    0.2327     7.414   200.000     8.629
 1674.4980   112.499    2.5810    0.1861     7.749   200.000     8.541
 1674.6504   117.221    2.5701    0.1466     6.834   200.000     8.134
 1674.8028   130.557    2.5485    0.1961     5.661   200.000     8.644
 1674.9552   101.778    2.5799    0.2096     5.075   200.000     8.408
 1675.1076   140.654    2.7148    0.1796     6.174   200.000     8.221
 1675.2600   129.410    2.6752    0.1650    16.813   200.000     8.449
 1675.4124   104.086    2.6455    0.2038    16.423   200.000     8.086
 1675.5648   102.197    2.5725    0.2116     5.248   200.000     8.918
 1675.7172   112.422    2.5491    0.1985    17.489   200.000     8.427
 1675.8696    98.893    2.6284    0.1600     9.469   200.000     8.483
 1676.0220   139.493    2.5861    0.1319     6.734   200.000     7.947
 1676.1744   113.611    2.5505    0.1687    11.857   200.000     8.287
 1676.3268   109.579    2.6412    0.1880     7.975   200.000     8.619
 1676.4792   158.195    2.5946    0.2374    10.351   200.000     8.079
 1676.6316   133.965    2.6605    0.2086    19.026   200.000     8.654
 1676.7840   110.152    2.6367    0.1842     5.901   200.000     9.203
 1676.9364   131.478    2.5865    0.2149     8.835   200.000     8.316
 1677.0888    96.288    2.6405    0.1858     6.873   200.000     8.055
 1677.2412   126.489    2.5701    0.1506    15.500   200.000     8.327
 1677.3936   114.859    2.5639    0.1575    14.792   200.000     9.037
 1677.5460   121.001    2.6024    0.2016    12.014   200.000     8.456
 1677.6984   129.804    2.5871    0.1996    10.020   200.000     8.812
 1677.8508   102.035    2.6276    0.1785    15.052   200.000     7.891
 1678.0032   113.943    2.5342    0.1955     9.196   200.000     8.402
 1678.1556   134.013    2.6470    0.2247     5.301   200.000     8.258
 1678.3080   134.899    2.6531    0.2014     8.601   200.000     8.356
 1678.4604   111.587    2.6247    0.1492    10.837   200.000     8.168
 1678.6128   123.880    2.6630    0.1658    11.124   200.000     8.304
 1678.7652   128.018    2.6098    0.2088    10.664   200.000     8.263
 1678.9176   124.472    2.6373    0.1673     9.377   200.000     8.415
 1679.0700   148.090    2.5236    0.2041    13.488   200.000     8.267
 1679.2224   107.814    2.6358    0.1694     3.449   200.000     8.708
 1679.3748   100.405    2.6045    0.1481     6.647   200.000     8.739
 1679.5272   120.089    2.5592    0.2122     7.177   200.000     8.874
 1679.6796   114.966    2.5896    0.1274     3.835   200.000     7.537
 1679.8320   112.922    2.6143    0.1913    13.098   200.000     8.759
 1679.9844   112.882    2.6725    0.1411     5.970   200.000     8.395
 1680.1368   127.937    2.6363    0.2001     5.961   200.000     8.552
 1680.2892   123.492    2.6107    0.2181    13.755   200.000     7.923
 1680.4416   103.509    2.6850    0.1755    11.737   200.000     8.652
 1680.5940   128.067    2.6637    0.2057    21.450   200.000     8.633
 1680.7464   125.400    2.6072    0.1555     9.252   200.000     8.515
 1680.8988   143.442    2.5110    0.1580     6.940   200.000     8.690
 1681.0512   122.166    2.6148    0.1769     4.172   200.000     8.848
 1681.2036   122.894    2.6269    0.2088     7.395   200.000     9.692
 1681.3560   141.427    2.5386    0.2007     6.253   200.000     8.203
 1681.5084   131.180    2.6165    0.1753     7.613   200.000     8.210
 1681.6608    94.914    2.6850    0.1738     4.752   200.000     8.282
 1681.8132   126.753    2.5553    0.2065    16.116   200.000     7.792
 1681.9656   102.689    2.6827    0.2386     9.522   200.000     8.280
 1682.1180   112.271    2.5732    0.2001    10.716   200.000     8.399
 1682.2704   116.919    2.5150    0.1465    12.019   200.000     7.983
 1682.4228   120.671    2.6137    0.1781     7.016   200.000     8.367
 1682.5752   127.474    2.6049    0.1376     5.630   200.000     9.049
 1682.7276   120.780    2.5871    0.2165     7.131   200.000     9.143
 1682.8800   102.658    2.6262    0.1945     9.127   200.000     9.270
 1683.0324   110.104    2.6487    0.1842     3.685   200.000     8.945
 1683.1848   109.686    2.6109    0.2037     5.749   200.000     8.540
 1683.3372   120.994    2.6394    0.1919     5.774   200.000     8.245
 1683.4896    98.106    2.5584    0.1568     7.392   200.000     8.576
 1683.6420    96.647    2.6926    0.1818    14.463   200.000     8.359
 1683.7944   123.505    2.6594    0.2024    16.518   200.000     8.497
 1683.9468   120.499    2.6519    0.1962     8.381   200.000     8.774
 1684.0992   117.331    2.6102    0.1756     3.744   200.000     8.469
 1684.2516   139.507    2.4853    0.1485     7.690   200.000     7.966
 1684.4040   114.816    2.5577    0.2235     5.150   200.000     8.783
 1684.5564   122.903    2.6511    0.1763     3.609   200.000     9.050
 1684.7088   122.799    2.5783    0.1775    17.425   200.000     8.246
 1684.8612   120.803    2.5642    0.1759    13.314   200.000     7.930
 1685.0136   116.459    2.5831    0.2122     6.117   200.000     8.768
 1685.1660   119.739    2.6529    0.1318    13.252   200.000     8.010
 1685.3184   148.352    2.5670    0.1573     5.281   200.000     7.883
 1685.4708   123.800    2.6056    0.1888     9.694   200.000     9.186
 1685.6232   137.592    2.5647    0.2435    16.392   200.000     8.031
 1685.7756   114.733    2.5904    0.2139     4.726   200.000     8.268
 1685.9280   121.700    2.5141    0.2182     4.458   200.000     7.949
 1686.0804    89.951    2.5593    0.1565     7.540   200.000     8.061
 1686.2328   117.804    2.5752    0.1678    11.442   200.000     9.029
 1686.3852    96.757    2.5234    0.1535     9.079   200.000     9.611
 1686.5376   129.774    2.6666    0.1697     6.921   200.000     7.849
 1686.6900   146.007    2.6188    0.1837    20.658   200.000     8.438
 1686.8424   125.811    2.5604    0.1436     5.321   200.000     8.378
 1686.9948   102.674    2.6184    0.1433     6.599   200.000     8.425
 1687.1472   113.495    2.5761    0.1385     4.447   200.000     8.667
 1687.2996   139.169    2.7092    0.2058     7.390   200.000     8.202
 1687.4520   125.287    2.5847    0.1920     6.316   200.000     8.658
 1687.6044   126.874    2.6075    0.2427    11.718   200.000     8.474
 1687.7568   112.321    2.5532    0.1857    29.742   200.000     8.146
 1687.9092   128.538    2.5764    0.2133    22.124   200.000     8.284
 1688.0616   119.679    2.4901    0.1882    11.700   200.000     8.342
 1688.2140   129.743    2.6255    0.2093    10.133   200.000     8.331
 1688.3664   132.047    2.6019    0.1640     6.008   200.000     9.074
 1688.5188   115.223    2.6315    0.1850    13.245   200.000     9.055
 1688.6712    86.318    2.6501    0.1451     7.982   200.000     8.559
 1688.8236   114.883    2.5819    0.1697     5.160   200.000     8.383
 1688.9760   153.015    2.5520    0.2031     3.717   200.000     9.409
 1689.1284   112.787    2.5531    0.1839    11.998   200.000     9.380
 1689.2808   134.040    2.6630    0.2139     4.669   200.000     8.093
