~VERSION INFORMATION
 VERS.                 2.0    : CWLS LOG ASCII STANDARD
 WRAP.                 NO     : ONE LINE PER DEPTH STEP
~WELL INFORMATION
 WELL.                 Midland-A12    : Well name
 FLD .                 Midland Basin         : Field
 CTRY.                 USA       : Country
 STRT.M                1500.0000 : START DEPTH
 STOP.M                4200.0000   : STOP DEPTH
 STEP.M                0.1524        : STEP
 NULL.                 -999.25          : NULL VALUE
 SRVC.                 SubsurfAI        : Service company
~CURVE INFORMATION
 DEPT.M                              : Depth
 GR  .GAPI                           : Gamma Ray
 RHOB.G/C3                           : Bulk Density
 NPHI.V/V                            : Neutron Porosity
 RT  .OHMM                           : True Resistivity
 DT  .US/F                           : Sonic
 CALI.IN                             : Caliper
~PARAMETER INFORMATION
 LAT .                 31.9974   : Latitude
 LON .                 -101.9543   : Longitude
 DESC.                 Permian Basin — Wolfcamp/Spraberry tight oil
~A  DEPT        GR        RHOB      NPHI      RT        DT        CALI
# ...
 2033.8572    17.646    2.6876    0.0619   179.689   200.000     9.357
 2034.0096    10.680    2.6497    0.0531   434.899   200.000     8.422
 2034.1620    16.685    2.6749    0.0641   325.303   200.000     8.563
 2034.3144    10.625    2.6387    0.0656    50.785   200.000     8.038
 2034.4668    16.525    2.5438    0.0436   153.164   200.000     8.556
 2034.6192    13.495    2.6092    0.0587    97.957   200.000     8.833
 2034.7716    14.833    2.5916    0.0596   150.514   200.000     7.852
 2034.9240    12.710    2.6839    0.0575   304.155   200.000     8.475
 2035.0764    16.137    2.5453    0.0578   101.948   200.000     8.428
 2035.2288    20.057    2.6948    0.0496   136.703   200.000     8.693
 2035.3812    14.079    2.8571    0.0625   430.297   200.000     8.769
 2035.5336    16.177    2.6712    0.0613   177.010   200.000     8.580
 2035.6860    19.391    2.6140    0.0568   351.797   200.000     8.397
 2035.8384    11.671    2.6956    0.0721   361.448   200.000     8.114
 2035.9908    20.183    2.6175    0.0474   231.554   200.000     8.548
 2036.1432    11.859    2.6902    0.0632   235.572   200.000     9.107
 2036.2956     7.369    2.6987    0.0616   164.124   200.000     7.926
 2036.4480    17.806    2.7127    0.0640   171.754   200.000     8.882
 2036.6004    18.516    2.7505    0.0666   260.136   200.000     8.557
 2036.7528    12.235    2.6431    0.0524   222.641   200.000     8.657
 2036.9052    15.206    2.5544    0.0617   308.536   200.000     8.385
 2037.0576    13.784    2.7771    0.0622   154.957   200.000     9.183
 2037.2100    18.607    2.6816    0.0478   371.841   200.000     7.612
 2037.3624    19.291    2.6945    0.0655   168.261   200.000     8.113
 2037.5148    14.176    2.7160    0.0496   287.117   200.000     8.004
 2037.6672     8.912    2.7118    0.0639   172.030   200.000     8.485
 2037.8196    17.001    2.7631    0.0591   126.870   200.000     8.697
 2037.9720    17.621    2.7285    0.0438   208.151   200.000     8.536
 2038.1244    14.960    2.6843    0.0518   213.732   200.000     8.387
 2038.2768    14.810    2.6955    0.0418   178.918   200.000     8.264
 2038.4292    15.148    2.6566    0.0783   118.628   200.000     8.553
 2038.5816    11.719    2.7029    0.0699   266.239   200.000     9.017
 2038.7340    11.653    2.6655    0.0711   296.225   200.000     8.411
 2038.8864    21.742    2.6037    0.0589   121.681   200.000     8.502
 2039.0388    15.823    2.5870    0.0713   208.315   200.000     8.081
 2039.1912    11.548    2.6147    0.0464   199.129   200.000     9.241
 2039.3436     9.730    2.6609    0.0380   501.336   200.000     8.390
 2039.4960    15.266    2.7946    0.0524   203.935   200.000     8.713
 2039.6484    15.152    2.7260    0.0576   186.062   200.000     7.721
 2039.8008     8.957    2.6463    0.0543   208.508   200.000     8.809
 2039.9532    19.842    2.7453    0.0482    58.484   200.000     8.051
 2040.1056    14.030    2.6570    0.0379   260.360   200.000     8.424
 2040.2580    12.879    2.6825    0.0575   217.753   200.000     8.635
 2040.4104    18.658    2.6659    0.0543   246.261   200.000     7.786
 2040.5628    13.497    2.7741    0.0692   177.314   200.000     8.977
 2040.7152    17.079    2.6840    0.0670   146.046   200.000     7.996
 2040.8676    18.338    2.6357    0.0669   286.389   200.000     7.727
 2041.0200    20.018    2.7271    0.0546   377.965   200.000     9.212
 2041.1724    11.217    2.6018    0.0492   132.493   200.000     8.365
 2041.3248    13.471    2.6548    0.0744   253.169   200.000     8.579
 2041.4772    14.140    2.6863    0.0408   362.708   200.000     8.757
 2041.6296    13.603    2.6595    0.0738   134.907   200.000     8.236
 2041.7820    21.552    2.6690    0.0694   140.417   200.000     8.441
 2041.9344    19.738    2.6351    0.0636   153.989   200.000     8.243
 2042.0868    18.667    2.7192    0.0618   269.449   200.000     7.990
 2042.2392    13.551    2.6282    0.0558   130.872   200.000     7.702
 2042.3916    11.631    2.7068    0.0560   138.946   200.000     8.918
 2042.5440    18.772    2.6585    0.0547   176.403   200.000     8.637
 2042.6964    15.543    2.6922    0.0474   137.595   200.000     8.956
 2042.8488    17.916    2.6516    0.0511   193.304   200.000     8.858
 2043.0012    18.648    2.7062    0.0523   395.769   200.000     8.090
 2043.1536    15.725    2.6296    0.0593    91.365   200.000     8.394
 2043.3060    14.450    2.6823    0.0725   123.695   200.000     8.621
 2043.4584    18.901    2.6759    0.0556   166.406   200.000     8.445
 2043.6108    14.838    2.6687    0.0578   186.964   200.000     8.261
 2043.7632    13.436    2.7152    0.0611   170.050   200.000     8.147
 2043.9156     9.088    2.6257    0.0559   114.831   200.000     8.385
 2044.0680    13.137    2.7379    0.0483   102.413   200.000     9.123
 2044.2204    20.464    2.6740    0.0504   202.850   200.000     8.687
 2044.3728    13.074    2.6324    0.0516   247.001   200.000     8.206
 2044.5252    17.636    2.7839    0.0601    61.733   200.000     8.222
 2044.6776    11.808    2.5967    0.0563   239.853   200.000     8.948
 2044.8300    16.502    2.8051    0.0594   296.813   200.000     8.424
 2044.9824    12.398    2.6209    0.0624   332.651   200.000     7.622
 2045.1348    22.851    2.7230    0.0556   167.984   200.000     8.327
 2045.2872    18.711    2.7075    0.0628   275.519   200.000     8.577
 2045.4396     8.141    2.7137    0.0534   378.740   200.000     8.627
 2045.5920    14.047    2.6018    0.0612   230.984   200.000     8.897
 2045.7444    16.061    2.7127    0.0515   153.181   200.000     8.803
 2045.8968     9.053    2.6572    0.0551   259.588   200.000     8.592
 2046.0492    19.547    2.6144    0.0704   385.653   200.000     8.627
 2046.2016     9.896    2.7816    0.0571   252.726   200.000     8.901
 2046.3540    19.133    2.7195    0.0560   271.976   200.000     9.353
 2046.5064    10.597    2.7103    0.0535   266.345   200.000     7.767
 2046.6588    18.189    2.6970    0.0652    84.788   200.000     8.902
 2046.8112    16.794    2.6045    0.0688   332.024   200.000     9.058
 2046.9636    16.390    2.6857    0.0495   197.100   200.000     7.939
 2047.1160    14.640    2.7046    0.0547   197.614   200.000     7.717
 2047.2684    15.407    2.6774    0.0610   132.358   200.000     8.441
 2047.4208    10.932    2.6932    0.0536   175.353   200.000     8.364
 2047.5732    18.509    2.6737    0.0599   141.733   200.000     9.270
 2047.7256    17.130    2.6919    0.0630   311.367   200.000     8.868
 2047.8780    14.270    2.7457    0.0562   169.536   200.000     8.449
 2048.0304    24.654    2.5934    0.0577   308.146   200.000     8.716
 2048.1828     8.723    2.7159    0.0604   281.329   200.000     8.639
 2048.3352    11.644    2.6412    0.0637   121.710   200.000     8.554
 2048.4876    17.006    2.7495    0.0732   138.760   200.000     8.686
 2048.6400     8.691    2.6353    0.0641   168.486   200.000     8.552
 2048.7924    16.652    2.6978    0.0596   124.566   200.000     8.447
 2048.9448    13.616    2.6677    0.0640    88.361   200.000     8.199
 2049.0972    15.448    2.6795    0.0676   237.619   200.000     8.449
 2049.2496    10.183    2.6761    0.0500   179.040   200.000     8.471
 2049.4020    19.973    2.6836    0.0507   269.528   200.000     8.039
 2049.5544    13.765    2.6870    0.0501   800.696   200.000     8.310
 2049.7068    16.634    2.6929    0.0351    68.820   200.000     9.008
 2049.8592    16.727    2.6649    0.0652   136.746   200.000     8.565
 2050.0116    11.410    2.7118    0.0606   200.087   200.000     8.829
 2050.1640    16.925    2.6841    0.0553   305.293   200.000     8.686
 2050.3164    13.439    2.6394    0.0702   290.890   200.000     8.790
 2050.4688    16.782    2.6836    0.0641    89.650   200.000     8.291
 2050.6212    19.978    2.7254    0.0552    77.483   200.000     8.021
 2050.7736    10.836    2.6924    0.0561   128.726   200.000     8.778
 2050.9260    12.647    2.6690    0.0724   218.018   200.000     8.527
