~VERSION INFORMATION
 VERS.                 2.0    : CWLS LOG ASCII STANDARD
 WRAP.                 NO     : ONE LINE PER DEPTH STEP
~WELL INFORMATION
 WELL.                 Midland-A12    : Well name
 FLD .                 Midland Basin         : Field
 CTRY.                 USA       : Country
 STRT.M                1500.0000 : START DEPTH
 STOP.M                4200.0000   : STOP DEPTH
 STEP.M                0.1524        : STEP
 NULL.                 -999.25          : NULL VALUE
 SRVC.                 SubsurfAI        : Service company
~CURVE INFORMATION
 DEPT.M                              : Depth
 GR  .GAPI                           : Gamma Ray
 RHOB.G/C3                           : Bulk Density
 NPHI.V/V                            : Neutron Porosity
 RT  .OHMM                           : True Resistivity
 DT  .US/F                           : Sonic
 CALI.IN                             : Caliper
~PARAMETER INFORMATION
 LAT .                 31.9974   : Latitude
 LON .                 -101.9543   : Longitude
 DESC.                 Permian Basin — Wolfcamp/Spraberry tight oil
~A  DEPT        GR        RHOB      NPHI      RT        DT        CALI
# ...
 3824.8620    56.038    2.3421    0.1718    17.483   200.000     9.283
 3825.0144    37.263    2.2663    0.1115    23.739   200.000     7.976
 3825.1668    38.412    2.4668    0.1549    35.230   200.000     8.880
 3825.3192    50.316    2.2800    0.1131    21.311   200.000     8.511
 3825.4716    43.682    2.3944    0.1269    25.664   200.000     8.446
 3825.6240    36.670    2.3534    0.1469    73.677   200.000     8.398
 3825.7764    41.247    2.3734    0.1889    24.283   200.000     8.235
 3825.9288    38.949    2.3793    0.1734    19.054   200.000     8.742
 3826.0812    36.248    2.3625    0.1350    59.305   200.000     8.568
 3826.2336    41.765    2.4487    0.1648    20.341   200.000     8.241
 3826.3860    44.591    2.4037    0.1520    17.955   200.000     9.373
 3826.5384    51.894    2.3581    0.1361    22.260   200.000     8.349
 3826.6908    45.484    2.3744    0.1646    22.771   200.000     8.678
 3826.8432    34.135    2.3727    0.1063    25.980   200.000     8.228
 3826.9956    43.016    2.3734    0.1578    23.681   200.000     8.949
 3827.1480    43.402    2.3664    0.0994    19.358   200.000     8.471
 3827.3004    43.081    2.3748    0.1340    41.597   200.000     8.572
 3827.4528    45.704    2.3594    0.1175    11.746   200.000     7.857
 3827.6052    44.282    2.3271    0.1523    37.693   200.000     8.590
 3827.7576    42.167    2.4110    0.1244    21.625   200.000     8.640
 3827.9100    35.007    2.3185    0.1898    27.111   200.000     8.820
 3828.0624    45.641    2.2720    0.1390    28.820   200.000     9.006
 3828.2148    40.627    2.3680    0.1529     8.072   200.000     8.917
 3828.3672    34.820    2.3850    0.1357    24.318   200.000     8.486
 3828.5196    47.182    2.3248    0.1759    34.182   200.000     8.358
 3828.6720    42.629    2.2894    0.1729    23.779   200.000     8.970
 3828.8244    40.627    2.2964    0.1141    11.320   200.000     9.122
 3828.9768    41.631    2.4230    0.1511    14.126   200.000     8.135
 3829.1292    45.823    2.3339    0.1732    19.814   200.000     8.302
 3829.2816    40.760    2.3309    0.1389    21.316   200.000     8.201
 3829.4340    33.369    2.3808    0.1934    27.993   200.000     8.063
 3829.5864    39.454    2.3473    0.1804    24.054   200.000     8.551
 3829.7388    32.876    2.4027    0.1556    17.713   200.000     8.122
 3829.8912    49.258    2.3215    0.1311    28.530   200.000     8.356
 3830.0436    50.017    2.4040    0.1668    23.441   200.000     8.636
 3830.1960    42.898    2.4015    0.1657    33.668   200.000     8.303
 3830.3484    42.630    2.4336    0.1109    33.789   200.000     8.727
 3830.5008    49.219    2.3535    0.1731    11.668   200.000     8.369
 3830.6532    45.521    2.3411    0.1383    34.363   200.000     7.899
 3830.8056    37.847    2.3442    0.1503    16.836   200.000     7.943
 3830.9580    41.101    2.2848    0.1057    27.092   200.000     8.465
 3831.1104    36.628    2.3488    0.1240    54.399   200.000     8.623
 3831.2628    56.232    2.4450    0.1483    35.834   200.000     8.307
 3831.4152    46.760    2.3850    0.1200    24.619   200.000     9.233
 3831.5676    27.517    2.3585    0.1368    18.798   200.000     8.773
 3831.7200    49.318    2.3763    0.1458    32.297   200.000     8.701
 3831.8724    39.955    2.3997    0.1592    27.845   200.000     7.768
 3832.0248    30.799    2.3534    0.1659    21.399   200.000     7.524
 3832.1772    40.693    2.4251    0.1249    30.920   200.000     8.999
 3832.3296    35.681    2.3452    0.1691    16.338   200.000     8.901
 3832.4820    37.015    2.3756    0.1458    23.814   200.000     9.443
 3832.6344    39.461    2.3743    0.1637    22.077   200.000     8.865
 3832.7868    39.789    2.3708    0.1519    56.014   200.000     8.587
 3832.9392    48.174    2.3708    0.1826    37.076   200.000     7.978
 3833.0916    43.421    2.3499    0.1748    57.434   200.000     8.008
 3833.2440    39.937    2.3965    0.1532    32.567   200.000     8.550
 3833.3964    49.596    2.3055    0.1727    27.854   200.000     8.632
 3833.5488    38.006    2.4285    0.1625    14.293   200.000     8.401
 3833.7012    40.253    2.4196    0.1497    13.383   200.000     9.311
 3833.8536    40.836    2.3722    0.2158    20.892   200.000     8.626
 3834.0060    43.615    2.2837    0.2043    13.578   200.000     8.978
 3834.1584    37.552    2.3341    0.1410    15.157   200.000     8.599
 3834.3108    39.490    2.4142    0.1442    18.954   200.000     8.216
 3834.4632    35.956    2.2982    0.2017    17.905   200.000     8.777
 3834.6156    49.306    2.3675    0.1445    33.474   200.000     8.605
 3834.7680    43.163    2.3065    0.1916    24.971   200.000     8.429
 3834.9204    52.723    2.3558    0.1396    45.417   200.000     7.814
 3835.0728    41.173    2.3912    0.1424    47.375   200.000     9.080
 3835.2252    36.180    2.3243    0.1562    41.321   200.000     8.507
 3835.3776    40.398    2.3758    0.1583    21.886   200.000     8.678
 3835.5300    36.703    2.2999    0.1385     9.775   200.000     8.538
 3835.6824    44.026    2.3364    0.1654    13.806   200.000     8.484
 3835.8348    41.556    2.3723    0.1347    59.916   200.000     8.278
 3835.9872    48.176    2.3392    0.1746    25.354   200.000     9.088
 3836.1396    43.227    2.4076    0.1543    50.204   200.000     9.169
 3836.2920    25.703    2.4314    0.1835    30.142   200.000     8.290
 3836.4444    27.364    2.3480    0.1568     6.974   200.000     8.425
 3836.5968    44.017    2.3783    0.1365    19.855   200.000     8.241
 3836.7492    49.900    2.3635    0.1555    44.196   200.000     9.038
 3836.9016    38.945    2.3239    0.1825    36.970   200.000     7.901
 3837.0540    34.645    2.3699    0.1222     9.528   200.000     8.699
 3837.2064    42.062    2.4433    0.1193    13.750   200.000     8.337
 3837.3588    45.108    2.3207    0.1816    23.329   200.000     8.665
 3837.5112    43.321    2.3636    0.1304    24.316   200.000     8.253
 3837.6636    40.511    2.3262    0.1555    27.488   200.000     8.359
 3837.8160    46.054    2.2539    0.1284    25.462   200.000     7.967
 3837.9684    44.387    2.3879    0.1357    72.851   200.000     8.272
 3838.1208    41.158    2.4572    0.1765    14.266   200.000     8.676
 3838.2732    42.392    2.3515    0.1628    21.327   200.000     8.477
 3838.4256    50.016    2.3096    0.1339    14.523   200.000     8.521
 3838.5780    40.411    2.3399    0.1386    18.483   200.000     9.378
 3838.7304    42.482    2.3121    0.1481    11.599   200.000     8.270
 3838.8828    37.832    2.3582    0.1698    19.787   200.000     8.450
 3839.0352    47.407    2.4679    0.1344    19.210   200.000     8.207
 3839.1876    46.640    2.3869    0.1233    19.930   200.000     8.781
 3839.3400    50.008    2.3058    0.1516    15.829   200.000     8.139
 3839.4924    40.949    2.2427    0.1284    31.512   200.000     8.046
 3839.6448    39.183    2.3284    0.1773    17.299   200.000     9.119
 3839.7972    41.826    2.3737    0.1319    32.833   200.000     8.438
 3839.9496    45.203    2.3590    0.1314    10.199   200.000     8.611
 3840.1020    54.267    2.4095    0.0863    18.022   200.000     8.779
 3840.2544    44.886    2.3313    0.1499    30.016   200.000     8.368
 3840.4068    46.194    2.4101    0.1532    22.098   200.000     8.565
 3840.5592    37.258    2.3339    0.1204    16.203   200.000     7.861
 3840.7116    34.541    2.3507    0.1660    24.537   200.000     8.543
 3840.8640    36.410    2.2735    0.1557    37.395   200.000     8.385
 3841.0164    45.911    2.3182    0.1607    10.022   200.000     8.937
 3841.1688    43.807    2.3366    0.1634    33.778   200.000     8.162
 3841.3212    41.402    2.3894    0.1672    51.520   200.000     8.721
 3841.4736    47.379    2.4121    0.1584    63.778   200.000     8.303
 3841.6260    40.094    2.4070    0.1402    22.033   200.000     7.976
 3841.7784    38.424    2.3927    0.1195    30.548   200.000     8.537
 3841.9308    39.573    2.2911    0.1713    49.780   200.000     8.571
