~VERSION INFORMATION
 VERS.                 2.0    : CWLS LOG ASCII STANDARD
 WRAP.                 NO     : ONE LINE PER DEPTH STEP
~WELL INFORMATION
 WELL.                 Midland-A12    : Well name
 FLD .                 Midland Basin         : Field
 CTRY.                 USA       : Country
 STRT.M                1500.0000 : START DEPTH
 STOP.M                4200.0000   : STOP DEPTH
 STEP.M                0.1524        : STEP
 NULL.                 -999.25          : NULL VALUE
 SRVC.                 SubsurfAI        : Service company
~CURVE INFORMATION
 DEPT.M                              : Depth
 GR  .GAPI                           : Gamma Ray
 RHOB.G/C3                           : Bulk Density
 NPHI.V/V                            : Neutron Porosity
 RT  .OHMM                           : True Resistivity
 DT  .US/F                           : Sonic
 CALI.IN                             : Caliper
~PARAMETER INFORMATION
 LAT .                 31.9974   : Latitude
 LON .                 -101.9543   : Longitude
 DESC.                 Permian Basin — Wolfcamp/Spraberry tight oil
~A  DEPT        GR        RHOB      NPHI      RT        DT        CALI
# ...
 1861.6452   118.888    2.5889    0.1141     3.637   200.000     8.083
 1861.7976   138.447    2.5851    0.1638     7.689   200.000     7.836
 1861.9500   111.403    2.6735    0.1476     8.087   200.000     8.956
 1862.1024   144.362    2.5943    0.1522     8.229   200.000     8.524
 1862.2548   114.623    2.6590    0.1815     9.568   200.000     8.054
 1862.4072    91.289    2.6432    0.1494     7.827   200.000     8.203
 1862.5596   131.119    2.6672    0.2374     9.477   200.000     8.554
 1862.7120   133.979    2.8130    0.1764    10.567   200.000     8.709
 1862.8644   152.913    2.5545    0.2062    12.397   200.000     8.939
 1863.0168   130.294    2.5432    0.1631    15.381   200.000     8.474
 1863.1692   101.625    2.6159    0.1889     8.384   200.000     8.046
 1863.3216    98.518    2.6420    0.1413    12.822   200.000     7.795
 1863.4740   111.430    2.5952    0.1514     7.261   200.000     8.321
 1863.6264   109.208    2.5300    0.1923    10.679   200.000     8.020
 1863.7788   114.789    2.5268    0.1587     9.034   200.000     8.495
 1863.9312   100.546    2.6201    0.2328    17.432   200.000     8.229
 1864.0836   119.692    2.5658    0.2496     8.727   200.000     8.667
 1864.2360   101.840    2.6704    0.1650    10.343   200.000     8.277
 1864.3884   128.896    2.5143    0.1693     7.600   200.000     9.031
 1864.5408   140.930    2.6079    0.2034     5.696   200.000     8.469
 1864.6932   110.576    2.6081    0.1799     4.551   200.000     8.313
 1864.8456    88.340    2.6733    0.2338     6.479   200.000     9.362
 1864.9980   136.097    2.5795    0.1851    11.412   200.000     7.502
 1865.1504   134.128    2.6194    0.2240     5.636   200.000     8.801
 1865.3028   126.824    2.5640    0.1845    15.995   200.000     8.559
 1865.4552   150.589    2.6285    0.1749     6.462   200.000     8.637
 1865.6076   126.885    2.5774    0.1688     6.923   200.000     8.847
 1865.7600   133.602    2.5900    0.2197     3.515   200.000     8.611
 1865.9124   110.935    2.4895    0.1688     8.446   200.000     8.312
 1866.0648   131.833    2.5963    0.2102     7.372   200.000     8.354
 1866.2172   138.742    2.5194    0.1683     8.649   200.000     8.376
 1866.3696   124.352    2.6123    0.1532     4.864   200.000     9.087
 1866.5220   105.575    2.5976    0.1857    12.883   200.000     8.204
 1866.6744   107.404    2.6164    0.2029     9.363   200.000     8.467
 1866.8268   111.369    2.6843    0.1977     5.873   200.000     8.194
 1866.9792   111.750    2.5224    0.2062     5.220   200.000     8.326
 1867.1316   117.092    2.6115    0.1459     3.443   200.000     8.517
 1867.2840   101.869    2.6050    0.1985    11.650   200.000     8.755
 1867.4364   115.940    2.4600    0.1966     7.641   200.000     8.637
 1867.5888   152.117    2.5732    0.1705     9.563   200.000     8.340
 1867.7412   141.089    2.6098    0.1914    13.047   200.000     8.518
 1867.8936   136.516    2.5911    0.1654    18.330   200.000     8.035
 1868.0460   120.615    2.5343    0.1370     8.532   200.000     7.871
 1868.1984   118.472    2.6740    0.1633    12.685   200.000     8.156
 1868.3508   126.977    2.5774    0.1537     4.058   200.000     8.921
 1868.5032   120.338    2.5901    0.1960    10.501   200.000     7.566
 1868.6556   155.753    2.6147    0.1634     9.146   200.000     8.652
 1868.8080   115.342    2.5652    0.2414    10.167   200.000     8.521
 1868.9604   113.857    2.6661    0.1798    25.174   200.000     8.814
 1869.1128   115.983    2.5756    0.1490    25.807   200.000     8.136
 1869.2652   119.031    2.5661    0.1892    17.411   200.000     8.632
 1869.4176   109.497    2.6024    0.1466     4.520   200.000     8.498
 1869.5700   132.973    2.5968    0.1887    23.016   200.000     8.121
 1869.7224   126.801    2.5965    0.1858     4.073   200.000     9.101
 1869.8748   121.246    2.6322    0.1680     8.949   200.000     8.666
 1870.0272    87.314    2.6421    0.1534     5.114   200.000     8.207
 1870.1796   136.547    2.5931    0.2056     4.988   200.000     8.895
 1870.3320   118.535    2.4541    0.1640    10.842   200.000     7.913
 1870.4844   119.424    2.5960    0.1709     5.440   200.000     8.317
 1870.6368   113.499    2.6189    0.1635     5.694   200.000     8.576
 1870.7892   109.485    2.6076    0.2255     7.644   200.000     7.132
 1870.9416   121.863    2.5645    0.1771    13.789   200.000     8.044
 1871.0940   105.401    2.6138    0.1696     9.126   200.000     8.443
 1871.2464   132.577    2.5844    0.1958     9.412   200.000     8.346
 1871.3988   104.261    2.5621    0.1972    12.981   200.000     8.636
 1871.5512   138.699    2.6408    0.1832    12.414   200.000     8.046
 1871.7036    96.347    2.5764    0.2305     5.720   200.000     9.495
 1871.8560   111.532    2.5318    0.1633     8.987   200.000     8.052
 1872.0084   114.167    2.5793    0.2252     5.396   200.000     8.363
 1872.1608   109.011    2.6556    0.1772     7.497   200.000     7.882
 1872.3132   116.255    2.5860    0.2101     3.437   200.000     7.584
 1872.4656    95.751    2.5812    0.1853    10.831   200.000     8.749
 1872.6180   137.574    2.6337    0.1562     9.961   200.000     8.175
 1872.7704   137.445    2.5824    0.1587    16.189   200.000     9.437
 1872.9228   119.542    2.5795    0.1560     7.241   200.000     8.636
 1873.0752   141.195    2.4601    0.1808     6.349   200.000     7.678
 1873.2276   113.444    2.5851    0.1784    12.214   200.000     8.962
 1873.3800   115.134    2.5725    0.2286     5.894   200.000     8.179
 1873.5324   106.804    2.5484    0.1946     4.492   200.000     8.774
 1873.6848   108.364    2.5701    0.1755     6.420   200.000     8.111
 1873.8372   145.404    2.6239    0.1820    10.059   200.000     9.128
 1873.9896   136.426    2.6004    0.1860     7.594   200.000     8.320
 1874.1420   110.229    2.6115    0.2164     4.389   200.000     8.288
 1874.2944   107.636    2.5730    0.1828     7.731   200.000     7.881
 1874.4468   101.955    2.4907    0.2288    15.452   200.000     8.358
 1874.5992   106.553    2.6257    0.1982    10.452   200.000     8.462
 1874.7516   120.521    2.6178    0.1606    12.662   200.000     8.548
 1874.9040   111.875    2.6834    0.1649    14.071   200.000     7.984
 1875.0564   107.039    2.6055    0.1890    10.043   200.000     7.996
 1875.2088   105.693    2.5850    0.1451     9.380   200.000     8.953
 1875.3612   119.662    2.5692    0.1106     3.168   200.000     7.764
 1875.5136    89.583    2.6153    0.2230     4.246   200.000     8.345
 1875.6660   117.276    2.6580    0.1907     8.606   200.000     8.497
 1875.8184   110.757    2.6096    0.1965     7.358   200.000     7.991
 1875.9708   122.428    2.5664    0.1820     6.935   200.000     9.326
 1876.1232   121.056    2.5831    0.1775    11.286   200.000     8.531
 1876.2756   134.212    2.5886    0.1829    10.142   200.000     9.486
 1876.4280    96.302    2.6686    0.1737     3.727   200.000     9.040
 1876.5804   116.930    2.6518    0.1787    11.631   200.000     8.749
 1876.7328   112.330    2.5203    0.1564     5.442   200.000     8.008
 1876.8852   112.633    2.6003    0.1875     7.918   200.000     8.126
 1877.0376   103.795    2.6371    0.1311    19.452   200.000     8.747
 1877.1900   110.375    2.5185    0.2184     4.798   200.000     8.454
 1877.3424   122.069    2.5298    0.2212     8.964   200.000     7.804
 1877.4948   104.357    2.5927    0.2231     8.749   200.000     8.241
 1877.6472   135.825    2.6592    0.1931     8.869   200.000     8.365
 1877.7996   136.763    2.5758    0.2019     9.125   200.000     8.611
 1877.9520   131.739    2.6544    0.1884    10.640   200.000     8.394
 1878.1044   107.345    2.6658    0.1592    11.709   200.000     9.002
 1878.2568   118.139    2.5485    0.2081     3.718   200.000     8.882
 1878.4092   125.513    2.4781    0.1920     5.738   200.000     8.810
 1878.5616   131.360    2.5369    0.1698    17.843   200.000     7.596
 1878.7140   144.914    2.5648    0.1756     7.839   200.000     8.646
