~VERSION INFORMATION
 VERS.                 2.0    : CWLS LOG ASCII STANDARD
 WRAP.                 NO     : ONE LINE PER DEPTH STEP
~WELL INFORMATION
 WELL.                 Midland-A12    : Well name
 FLD .                 Midland Basin         : Field
 CTRY.                 USA       : Country
 STRT.M                1500.0000 : START DEPTH
 STOP.M                4200.0000   : STOP DEPTH
 STEP.M                0.1524        : STEP
 NULL.                 -999.25          : NULL VALUE
 SRVC.                 SubsurfAI        : Service company
~CURVE INFORMATION
 DEPT.M                              : Depth
 GR  .GAPI                           : Gamma Ray
 RHOB.G/C3                           : Bulk Density
 NPHI.V/V                            : Neutron Porosity
 RT  .OHMM                           : True Resistivity
 DT  .US/F                           : Sonic
 CALI.IN                             : Caliper
~PARAMETER INFORMATION
 LAT .                 31.9974   : Latitude
 LON .                 -101.9543   : Longitude
 DESC.                 Permian Basin — Wolfcamp/Spraberry tight oil
~A  DEPT        GR        RHOB      NPHI      RT        DT        CALI
# ...
 3463.2168   165.736    2.7129    0.2431    10.004   200.000     8.222
 3463.3692   151.728    2.6025    0.2079     6.477   200.000     8.281
 3463.5216   102.137    2.5673    0.2046     4.672   200.000     8.694
 3463.6740   109.719    2.5748    0.1803     7.703   200.000     8.276
 3463.8264   125.072    2.6825    0.2323     6.001   200.000     9.454
 3463.9788   160.457    2.6522    0.2041     4.517   200.000     8.344
 3464.1312   128.369    2.6688    0.2294     5.616   200.000     8.425
 3464.2836   149.475    2.5907    0.2391     6.626   200.000     8.863
 3464.4360   141.678    2.6376    0.1977     4.749   200.000     8.473
 3464.5884   144.926    2.6413    0.1746    16.021   200.000     8.767
 3464.7408   130.040    2.6876    0.2020     4.473   200.000     7.735
 3464.8932   114.151    2.6375    0.1735    13.252   200.000     8.905
 3465.0456   141.149    2.5536    0.2067     3.650   200.000     8.270
 3465.1980   124.024    2.5613    0.2158     2.313   200.000     8.069
 3465.3504   144.743    2.6918    0.1689     2.136   200.000     8.390
 3465.5028   147.373    2.5174    0.1738     5.223   200.000     8.343
 3465.6552   121.449    2.6898    0.2144     3.421   200.000     8.340
 3465.8076   146.313    2.5316    0.2293     5.630   200.000     8.021
 3465.9600   121.658    2.5509    0.1611     5.834   200.000     9.131
 3466.1124   157.166    2.5898    0.2114    10.735   200.000     8.232
 3466.2648   137.429    2.6179    0.2263     7.099   200.000     7.793
 3466.4172   134.283    2.6530    0.2171     6.624   200.000     8.575
 3466.5696   145.491    2.6832    0.2317     4.764   200.000     9.652
 3466.7220   125.174    2.6056    0.2256     9.037   200.000     7.363
 3466.8744   131.588    2.6676    0.1695     7.026   200.000     8.029
 3467.0268   108.089    2.6526    0.1965     6.276   200.000     8.394
 3467.1792   146.330    2.5219    0.2225     6.592   200.000     8.709
 3467.3316   160.857    2.5522    0.1905     6.104   200.000     8.807
 3467.4840   155.577    2.6162    0.2253    13.535   200.000     8.580
 3467.6364   112.410    2.5715    0.2417     3.921   200.000     8.595
 3467.7888   133.971    2.5254    0.1771    11.620   200.000     8.164
 3467.9412   118.045    2.5063    0.1938    11.099   200.000     9.650
 3468.0936   123.465    2.7884    0.1437     6.794   200.000     8.115
 3468.2460   135.200    2.6666    0.2015     2.504   200.000     7.747
 3468.3984   117.404    2.6414    0.2327     7.569   200.000     8.706
 3468.5508   116.379    2.7212    0.2129     8.220   200.000     9.031
 3468.7032   123.814    2.6651    0.1808     5.248   200.000     8.900
 3468.8556   150.923    2.5908    0.1879     5.805   200.000     8.750
 3469.0080   136.835    2.6239    0.2281     4.017   200.000     8.576
 3469.1604   124.672    2.5832    0.2213     8.306   200.000     8.600
 3469.3128   115.835    2.6079    0.2056     6.929   200.000     8.289
 3469.4652   128.590    2.6100    0.2426     4.286   200.000     8.779
 3469.6176   131.396    2.7367    0.2253     3.470   200.000     8.702
 3469.7700   128.746    2.6426    0.1526     9.325   200.000     9.037
 3469.9224   112.687    2.6964    0.1643     3.720   200.000     8.665
 3470.0748   153.289    2.6473    0.1571    13.808   200.000     8.371
 3470.2272   117.506    2.5958    0.2197     6.161   200.000     7.755
 3470.3796   134.812    2.6822    0.1285     3.614   200.000     8.731
 3470.5320   132.641    2.6113    0.1574    13.862   200.000     8.928
 3470.6844   149.596    2.6063    0.1541    17.238   200.000     8.829
 3470.8368   128.676    2.5782    0.2173     6.090   200.000     8.530
 3470.9892   139.118    2.6396    0.1615     2.949   200.000     7.988
 3471.1416   115.996    2.6049    0.1696     7.747   200.000     8.142
 3471.2940    81.460    2.6092    0.2337     7.184   200.000     8.070
 3471.4464   135.407    2.5872    0.2475     4.478   200.000     8.787
 3471.5988   147.601    2.5892    0.1987     4.203   200.000     8.477
 3471.7512   121.175    2.6264    0.2178     5.254   200.000     9.206
 3471.9036   125.312    2.6108    0.1909     5.051   200.000     8.341
 3472.0560   137.455    2.5890    0.1991     6.194   200.000     8.200
 3472.2084   107.829    2.6223    0.1494     7.352   200.000     7.661
 3472.3608   169.651    2.6435    0.2173     5.368   200.000     8.363
 3472.5132   148.231    2.6094    0.1936     3.112   200.000     8.818
 3472.6656   135.897    2.6636    0.2146     7.696   200.000     8.410
 3472.8180   145.607    2.5138    0.2375     2.703   200.000     8.853
 3472.9704   140.306    2.6163    0.2908     6.185   194.350     8.425
 3473.1228   127.329    2.6055    0.2167    13.398   200.000     8.842
 3473.2752   131.046    2.6043    0.2639     6.535   200.000     8.327
 3473.4276   118.725    2.6326    0.2076     8.009   200.000     8.863
 3473.5800   110.642    2.5757    0.2304     3.143   200.000     8.947
 3473.7324   162.234    2.6229    0.1668     4.435   200.000     8.544
 3473.8848   137.620    2.5747    0.2347     7.946   200.000     8.383
 3474.0372   130.687    2.6413    0.2463     3.766   200.000     7.964
 3474.1896   137.582    2.5969    0.2320    12.067   200.000     8.198
 3474.3420   130.201    2.5955    0.1895    10.042   200.000     8.514
 3474.4944   128.372    2.6398    0.1905     4.767   200.000     8.124
 3474.6468   155.194    2.6038    0.1765     6.062   200.000     8.518
 3474.7992   119.341    2.6203    0.1792     6.504   200.000     8.099
 3474.9516   118.959    2.6771    0.1598     3.689   200.000     8.437
 3475.1040   107.672    2.5446    0.1873    15.073   200.000     8.258
 3475.2564   125.109    2.6460    0.1890     6.265   200.000     8.696
 3475.4088   120.174    2.6143    0.2135     9.138   200.000     7.827
 3475.5612   142.886    2.6477    0.2089     4.879   200.000     8.923
 3475.7136   157.640    2.5544    0.1868     2.043   200.000     8.311
 3475.8660   131.752    2.5903    0.1948     4.581   200.000     9.081
 3476.0184   115.276    2.6622    0.2186     4.587   200.000     8.911
 3476.1708   122.891    2.5810    0.2425     4.377   200.000     7.945
 3476.3232   173.079    2.4964    0.2157    25.135   200.000     8.298
 3476.4756   144.610    2.6410    0.1933     5.738   200.000     8.376
 3476.6280   110.269    2.5951    0.1891    27.036   200.000     7.639
 3476.7804   135.133    2.6116    0.1997     9.278   200.000     8.454
 3476.9328   145.281    2.5876    0.2298     4.543   200.000     8.654
 3477.0852   103.197    2.6112    0.1540     9.066   200.000     8.644
 3477.2376   150.753    2.6239    0.2232     3.638   200.000     8.000
 3477.3900   120.853    2.6308    0.2193     3.690   200.000     8.597
 3477.5424   132.049    2.5668    0.1810     5.449   200.000     8.617
 3477.6948   118.090    2.5863    0.2351    11.678   200.000     7.961
 3477.8472   144.760    2.6205    0.1575     7.207   200.000     8.677
 3477.9996   133.302    2.6253    0.2137     2.602   200.000     8.622
 3478.1520   105.363    2.5969    0.2268     4.401   200.000     8.328
 3478.3044   130.052    2.5942    0.2072     3.278   200.000     7.954
 3478.4568   119.637    2.6303    0.2250     2.840   200.000     8.319
 3478.6092   154.019    2.5874    0.2182     7.381   200.000     8.984
 3478.7616   138.195    2.6058    0.1532     4.404   200.000     9.470
 3478.9140   111.621    2.6266    0.1803     6.998   200.000     8.521
 3479.0664   131.115    2.5254    0.2636     5.634   200.000     8.231
 3479.2188   122.323    2.5339    0.1720     4.407   200.000     8.337
 3479.3712   151.726    2.6704    0.2271    15.276   200.000     8.576
 3479.5236    90.288    2.6555    0.1705     5.415   200.000     8.444
 3479.6760   143.926    2.6547    0.1664     6.382   200.000     8.472
 3479.8284   104.712    2.6402    0.2311     6.323   200.000     8.912
 3479.9808   101.398    2.7535    0.2063    17.842   200.000     8.718
 3480.1332   152.514    2.6033    0.1817     4.433   200.000     8.754
 3480.2856   128.424    2.6404    0.0938     4.202   200.000     8.625
