~VERSION INFORMATION
 VERS.                 2.0    : CWLS LOG ASCII STANDARD
 WRAP.                 NO     : ONE LINE PER DEPTH STEP
~WELL INFORMATION
 WELL.                 Midland-A12    : Well name
 FLD .                 Midland Basin         : Field
 CTRY.                 USA       : Country
 STRT.M                1500.0000 : START DEPTH
 STOP.M                4200.0000   : STOP DEPTH
 STEP.M                0.1524        : STEP
 NULL.                 -999.25          : NULL VALUE
 SRVC.                 SubsurfAI        : Service company
~CURVE INFORMATION
 DEPT.M                              : Depth
 GR  .GAPI                           : Gamma Ray
 RHOB.G/C3                           : Bulk Density
 NPHI.V/V                            : Neutron Porosity
 RT  .OHMM                           : True Resistivity
 DT  .US/F                           : Sonic
 CALI.IN                             : Caliper
~PARAMETER INFORMATION
 LAT .                 31.9974   : Latitude
 LON .                 -101.9543   : Longitude
 DESC.                 Permian Basin — Wolfcamp/Spraberry tight oil
~A  DEPT        GR        RHOB      NPHI      RT        DT        CALI
# ...
 3652.6500   138.047    2.6220    0.2669     4.149   200.000     8.635
 3652.8024   150.094    2.6021    0.2114     8.609   200.000     8.791
 3652.9548   151.953    2.6640    0.1900     9.176   200.000     8.880
 3653.1072   118.495    2.7010    0.2235     8.574   200.000     7.936
 3653.2596   147.449    2.6044    0.1930     5.525   200.000     7.897
 3653.4120   120.199    2.6000    0.1417     7.642   200.000     8.362
 3653.5644    88.847    2.6650    0.1252     8.207   200.000     8.544
 3653.7168   135.495    2.5927    0.1815     5.686   200.000     8.875
 3653.8692   140.933    2.6207    0.2285     3.660   200.000     8.629
 3654.0216   151.102    2.5983    0.1805     1.803   200.000     8.441
 3654.1740   109.143    2.6235    0.1649     5.502   200.000     8.353
 3654.3264   108.970    2.6499    0.1738     3.920   200.000     8.422
 3654.4788   142.464    2.6571    0.1300     4.057   200.000     8.989
 3654.6312   112.619    2.7590    0.2093     7.897   200.000     8.451
 3654.7836   128.191    2.6783    0.2054     3.518   200.000     8.705
 3654.9360   124.394    2.6747    0.2280     6.859   200.000     8.514
 3655.0884   136.716    2.5275    0.1846     4.492   200.000     8.624
 3655.2408   117.515    2.7242    0.2278     5.835   200.000     8.516
 3655.3932   115.472    2.6397    0.2080     5.859   200.000     8.458
 3655.5456    88.024    2.6580    0.1809    10.804   200.000     8.302
 3655.6980   124.324    2.6082    0.1857     6.112   200.000     8.925
 3655.8504   147.983    2.5931    0.2003    12.872   200.000     8.657
 3656.0028   143.795    2.6069    0.1895     3.844   200.000     8.823
 3656.1552   162.367    2.6893    0.2332     9.252   200.000     9.006
 3656.3076   110.974    2.5787    0.2079    18.256   200.000     8.417
 3656.4600   114.290    2.6200    0.2088     2.946   200.000     8.224
 3656.6124   147.185    2.6483    0.2342     5.656   200.000     8.112
 3656.7648   150.142    2.5821    0.1649     3.842   200.000     9.037
 3656.9172    98.989    2.5854    0.1767     5.141   200.000     7.979
 3657.0696   117.873    2.6025    0.2496     4.199   200.000     8.855
 3657.2220   111.795    2.5743    0.1785     4.869   200.000     8.793
 3657.3744   125.488    2.6555    0.1629     7.861   200.000     8.490
 3657.5268   144.757    2.4955    0.1582     6.023   200.000     9.168
 3657.6792   112.732    2.6391    0.1587     3.247   200.000     8.979
 3657.8316   123.424    2.6318    0.1833     3.984   200.000     8.217
 3657.9840   120.993    2.5689    0.1897     3.534   200.000     8.214
 3658.1364   113.968    2.6092    0.1312     6.204   200.000     8.602
 3658.2888   100.636    2.5274    0.2123     4.737   200.000     8.470
 3658.4412   126.932    2.6949    0.2067     5.383   200.000     9.253
 3658.5936   138.604    2.5659    0.2441     6.004   200.000     8.418
 3658.7460   120.000    2.7017    0.1878     5.302   200.000     8.694
 3658.8984   116.051    2.5585    0.1684     2.698   200.000     8.695
 3659.0508   120.583    2.6976    0.2006     5.170   200.000     8.023
 3659.2032   118.415    2.7198    0.1906     4.880   200.000     9.437
 3659.3556   111.103    2.6140    0.2088     7.949   200.000     8.666
 3659.5080   107.517    2.5717    0.2142     6.826   200.000     8.249
 3659.6604   137.008    2.5658    0.1552     4.547   200.000     8.399
 3659.8128   163.814    2.6376    0.2175     4.364   200.000     8.730
 3659.9652   140.318    2.6345    0.1996     3.707   200.000     9.379
 3660.1176   162.675    2.5436    0.1723     5.368   200.000     8.029
 3660.2700   115.072    2.6150    0.2222     4.493   200.000     8.574
 3660.4224    99.069    2.5641    0.1992     3.797   200.000     8.398
 3660.5748   127.954    2.6241    0.2202     2.198   200.000     8.966
 3660.7272   122.504    2.6082    0.1679     4.675   200.000     8.116
 3660.8796   130.853    2.6827    0.2141     2.734   200.000     8.213
 3661.0320   131.731    2.6744    0.1961     5.295   200.000     8.818
 3661.1844   159.042    2.5987    0.1884     8.298   200.000     8.594
 3661.3368   136.424    2.6446    0.2582     6.624   200.000     9.005
 3661.4892   106.072    2.5134    0.1952    22.710   200.000     8.241
 3661.6416   140.496    2.6578    0.2352    13.673   200.000     8.384
 3661.7940   134.303    2.5225    0.2046     2.292   200.000     8.098
 3661.9464   135.347    2.6784    0.1862     3.728   200.000     8.576
 3662.0988   116.707    2.6024    0.1878    13.086   200.000     8.763
 3662.2512   140.044    2.5811    0.1775     4.243   200.000     8.828
 3662.4036   129.103    2.6764    0.1762     2.619   200.000     8.515
 3662.5560   112.289    2.5721    0.1774     5.078   200.000     9.051
 3662.7084   133.599    2.6155    0.2005     3.193   200.000     8.261
 3662.8608   118.729    2.6643    0.2332    29.558   200.000     8.685
 3663.0132   137.291    2.6835    0.2580     8.416   200.000     8.853
 3663.1656   136.500    2.5977    0.1485     6.930   200.000     8.575
 3663.3180   153.558    2.7511    0.1563    10.090   200.000     7.990
 3663.4704   154.674    2.5883    0.2000     3.839   200.000     8.124
 3663.6228   119.311    2.5266    0.1841     7.270   200.000     8.065
 3663.7752   111.899    2.6721    0.2095     7.127   200.000     8.720
 3663.9276   144.234    2.6319    0.2250     6.788   200.000     8.615
 3664.0800   117.510    2.5650    0.2138     8.602   200.000     8.374
 3664.2324   136.650    2.6028    0.1884     5.230   200.000     8.466
 3664.3848   140.503    2.6834    0.1992     6.972   200.000     8.785
 3664.5372   121.102    2.6834    0.2023    11.747   200.000     7.775
 3664.6896   117.225    2.6179    0.1990    11.163   200.000     8.907
 3664.8420   143.621    2.6443    0.2100     8.551   200.000     8.925
 3664.9944   137.473    2.5994    0.1857     7.889   200.000     8.307
 3665.1468   107.947    2.6190    0.1926     4.008   200.000     8.708
 3665.2992   123.075    2.5984    0.2516     4.440   200.000     8.447
 3665.4516   137.858    2.6082    0.1547     6.098   200.000     8.945
 3665.6040    79.382    2.6831    0.1596    10.354   200.000     8.416
 3665.7564   137.540    2.6570    0.1974    27.053   200.000     8.884
 3665.9088   138.964    2.5032    0.2231     4.200   200.000     8.887
 3666.0612   132.994    2.5522    0.2295     3.811   200.000     8.264
 3666.2136   138.780    2.6561    0.1855     5.882   200.000     8.143
 3666.3660    93.841    2.5332    0.1774    12.175   200.000     8.242
 3666.5184   113.107    2.5777    0.2121     9.503   200.000     7.827
 3666.6708   115.647    2.6580    0.2950     3.717   182.333     8.550
 3666.8232   105.519    2.7814    0.1779     9.590   200.000     8.255
 3666.9756   139.627    2.7003    0.1582    10.003   200.000     8.367
 3667.1280   129.334    2.5914    0.1671    10.459   200.000     8.128
 3667.2804   105.153    2.6184    0.1702     3.462   200.000     8.821
 3667.4328   114.703    2.6301    0.2116     5.441   200.000     8.732
 3667.5852   132.929    2.6703    0.2503     3.226   200.000     8.890
 3667.7376   111.591    2.7042    0.1401     8.151   200.000     7.873
 3667.8900   141.592    2.5584    0.2416     3.826   200.000     7.954
 3668.0424   134.050    2.6859    0.1926     6.941   200.000     7.434
 3668.1948   124.677    2.6562    0.2254     3.162   200.000     8.180
 3668.3472   106.721    2.6148    0.1811    10.514   200.000     8.267
 3668.4996   140.986    2.5476    0.1623     8.594   200.000     8.604
 3668.6520   131.468    2.6671    0.1946     9.692   200.000     8.811
 3668.8044   117.492    2.6020    0.1900     9.324   200.000     8.995
 3668.9568   126.982    2.5912    0.1966     6.911   200.000     8.968
 3669.1092   153.815    2.6719    0.1608    10.357   200.000     8.947
 3669.2616   106.617    2.6160    0.2134     5.685   200.000     8.240
 3669.4140   134.402    2.6015    0.1599     2.592   200.000     8.451
 3669.5664   146.673    2.6960    0.2020     5.629   200.000     8.926
 3669.7188   132.615    2.6978    0.2148    10.229   200.000     9.439
