~VERSION INFORMATION
 VERS.                 2.0    : CWLS LOG ASCII STANDARD
 WRAP.                 NO     : ONE LINE PER DEPTH STEP
~WELL INFORMATION
 WELL.                 Midland-A12    : Well name
 FLD .                 Midland Basin         : Field
 CTRY.                 USA       : Country
 STRT.M                1500.0000 : START DEPTH
 STOP.M                4200.0000   : STOP DEPTH
 STEP.M                0.1524        : STEP
 NULL.                 -999.25          : NULL VALUE
 SRVC.                 SubsurfAI        : Service company
~CURVE INFORMATION
 DEPT.M                              : Depth
 GR  .GAPI                           : Gamma Ray
 RHOB.G/C3                           : Bulk Density
 NPHI.V/V                            : Neutron Porosity
 RT  .OHMM                           : True Resistivity
 DT  .US/F                           : Sonic
 CALI.IN                             : Caliper
~PARAMETER INFORMATION
 LAT .                 31.9974   : Latitude
 LON .                 -101.9543   : Longitude
 DESC.                 Permian Basin — Wolfcamp/Spraberry tight oil
~A  DEPT        GR        RHOB      NPHI      RT        DT        CALI
# ...
 2223.2904    16.540    2.7227    0.0496   118.390   200.000     8.778
 2223.4428    15.942    2.7518    0.0352   129.171   200.000     7.821
 2223.5952    17.771    2.6652    0.0662   147.847   200.000     9.394
 2223.7476    17.137    2.6959    0.0759   150.431   200.000     9.128
 2223.9000    10.797    2.6737    0.0523   184.345   200.000     8.261
 2224.0524    12.432    2.7085    0.0553   116.549   200.000     8.811
 2224.2048    14.372    2.6240    0.0506   219.340   200.000     8.660
 2224.3572    18.490    2.7741    0.0621   486.143   200.000     8.164
 2224.5096    15.459    2.7675    0.0652   376.278   200.000     8.022
 2224.6620    19.721    2.7235    0.0508   392.594   200.000     8.717
 2224.8144    18.016    2.6175    0.0639   173.527   200.000     8.637
 2224.9668    15.725    2.6751    0.0556   401.208   200.000     8.619
 2225.1192    11.552    2.6692    0.0539   355.855   200.000     8.528
 2225.2716    12.453    2.6610    0.0721   114.917   200.000     8.447
 2225.4240    11.764    2.6373    0.0674   181.317   200.000     8.649
 2225.5764    10.791    2.7647    0.0561   132.557   200.000     8.513
 2225.7288    17.997    2.7152    0.0821   387.379   200.000     8.045
 2225.8812    14.523    2.6649    0.0617   432.204   200.000     8.708
 2226.0336    16.653    2.6411    0.0458   267.800   200.000     7.932
 2226.1860    17.240    2.6810    0.0626   237.467   200.000     8.870
 2226.3384    12.234    2.6425    0.0505   279.298   200.000     8.982
 2226.4908    16.523    2.7272    0.0527    67.809   200.000     8.757
 2226.6432    13.862    2.6884    0.0743   102.067   200.000     8.672
 2226.7956    15.632    2.6604    0.0589   154.240   200.000     9.372
 2226.9480    16.934    2.6747    0.0546   102.355   200.000     8.391
 2227.1004    14.211    2.7199    0.0479    54.574   200.000     8.937
 2227.2528    11.474    2.7610    0.0817   291.552   200.000     8.510
 2227.4052    18.281    2.7242    0.0556   283.738   200.000     8.904
 2227.5576    13.132    2.6947    0.0585   681.756   200.000     8.293
 2227.7100    11.502    2.6699    0.0723   337.989   200.000     8.419
 2227.8624    17.748    2.5804    0.0450   135.951   200.000     8.389
 2228.0148    17.593    2.7250    0.0468   358.707   200.000     8.302
 2228.1672    14.107    2.6809    0.0652   161.161   200.000     9.103
 2228.3196    13.333    2.6757    0.0422   233.834   200.000     8.487
 2228.4720    11.166    2.6277    0.0572   237.264   200.000     8.336
 2228.6244     5.636    2.5833    0.0611    98.771   200.000     8.243
 2228.7768    15.860    2.7056    0.0658    84.689   200.000     8.642
 2228.9292    13.698    2.6562    0.0675   448.855   200.000     8.432
 2229.0816    16.809    2.7035    0.0671   220.150   200.000     8.679
 2229.2340    13.917    2.7583    0.0610   327.551   200.000     8.556
 2229.3864    18.875    2.7090    0.0567    78.223   200.000     9.271
 2229.5388    17.209    2.6870    0.0695   414.403   200.000     8.296
 2229.6912    13.125    2.6414    0.0573   151.499   200.000     8.546
 2229.8436     9.869    2.7260    0.0594   284.941   200.000     9.020
 2229.9960    20.084    2.6552    0.0590   291.390   200.000     8.824
 2230.1484    14.561    2.7773    0.0586   155.127   200.000     8.109
 2230.3008    12.747    2.6324    0.0444   113.636   200.000     8.160
 2230.4532    16.725    2.7367    0.0551   219.252   200.000     8.522
 2230.6056    13.351    2.6866    0.0401   138.115   200.000     8.446
 2230.7580    23.694    2.7226    0.0581   152.157   200.000     8.303
 2230.9104     9.210    2.6081    0.0674   133.126   200.000     8.555
 2231.0628    13.980    2.6641    0.0515   178.560   200.000     9.009
 2231.2152    16.308    2.6706    0.0434   150.966   200.000     8.264
 2231.3676    20.043    2.6765    0.0483   315.341   200.000     8.403
 2231.5200    12.753    2.7062    0.0649   462.664   200.000     8.419
 2231.6724    19.863    2.6513    0.0643    86.961   200.000     8.678
 2231.8248    12.547    2.6512    0.0528    53.090   200.000     8.885
 2231.9772    15.800    2.7510    0.0580   389.203   200.000     8.134
 2232.1296    13.666    2.6268    0.0752   114.177   200.000     8.433
 2232.2820    10.038    2.6462    0.0494   118.387   200.000     8.460
 2232.4344    20.733    2.7195    0.0656   165.007   200.000     8.588
 2232.5868    13.237    2.6550    0.0660   253.530   200.000     8.703
 2232.7392    15.431    2.5979    0.0656   382.402   200.000     8.534
 2232.8916     9.690    2.6748    0.0565    93.284   200.000     8.611
 2233.0440    14.145    2.5275    0.0694   167.599   200.000     8.581
 2233.1964    17.770    2.7163    0.0655   175.901   200.000     8.317
 2233.3488    17.541    2.6391    0.0587   245.083   200.000     8.655
 2233.5012    10.749    2.6382    0.0487   227.509   200.000     7.947
 2233.6536    11.262    2.6471    0.0609   157.775   200.000     8.702
 2233.8060     7.598    2.6273    0.0660   276.061   200.000     8.359
 2233.9584    10.718    2.6251    0.0796   326.335   200.000     8.179
 2234.1108    16.495    2.6892    0.0549   253.917   200.000     8.565
 2234.2632    14.607    2.6674    0.0580   256.476   200.000     8.525
 2234.4156    15.006    2.6584    0.0561    94.063   200.000     8.595
 2234.5680    19.855    2.7189    0.0545   186.544   200.000     8.143
 2234.7204    13.928    2.6713    0.0665   135.140   200.000     8.142
 2234.8728    18.192    2.7234    0.0595   379.611   200.000     8.198
 2235.0252    11.129    2.6866    0.0546   262.480   200.000     8.728
 2235.1776    15.343    2.6718    0.0578   405.396   200.000     8.214
 2235.3300    16.605    2.7373    0.0665   365.766   200.000     8.227
 2235.4824    11.618    2.6746    0.0619   154.057   200.000     9.629
 2235.6348    19.421    2.6198    0.0708    92.849   200.000     8.381
 2235.7872    16.323    2.6774    0.0697   123.107   200.000     8.920
 2235.9396     9.311    2.6743    0.0523   174.824   200.000     8.946
 2236.0920    15.673    2.6986    0.0619   340.029   200.000     7.640
 2236.2444    12.869    2.6979    0.0443   162.233   200.000     7.930
 2236.3968    18.420    2.6765    0.0612   226.690   200.000     8.441
 2236.5492    19.902    2.6624    0.0557   121.828   200.000     7.774
 2236.7016    19.514    2.6937    0.0540   159.561   200.000     9.244
 2236.8540     7.655    2.7006    0.0511   175.667   200.000     8.080
 2237.0064    20.303    2.6461    0.0532   122.960   200.000     8.286
 2237.1588    16.046    2.6280    0.0628   300.512   200.000     8.735
 2237.3112    13.632    2.6527    0.0572   234.083   200.000     8.025
 2237.4636    17.806    2.7542    0.0628   257.695   200.000     8.380
 2237.6160    21.068    2.6896    0.0634   139.281   200.000     8.434
 2237.7684    16.633    2.6770    0.0839    88.178   200.000     8.662
 2237.9208    12.183    2.6346    0.0568   332.462   200.000     8.757
 2238.0732    13.301    2.7189    0.0668   274.383   200.000     8.266
 2238.2256    13.959    2.7235    0.0582   171.782   200.000     8.683
 2238.3780    10.900    2.6765    0.0730   694.735   200.000     8.787
 2238.5304    16.838    2.7120    0.0627   144.947   200.000     8.342
 2238.6828    15.186    2.6487    0.0700   268.531   200.000     8.075
 2238.8352    11.183    2.6404    0.0709   154.643   200.000     8.354
 2238.9876    17.000    2.6582    0.0906   214.459   200.000     8.878
 2239.1400    14.271    2.6693    0.0742   373.234   200.000     9.151
 2239.2924    13.387    2.6917    0.0623   217.727   200.000     8.753
 2239.4448    23.167    2.7409    0.0712   135.840   200.000     8.276
 2239.5972    12.664    2.5921    0.0841   177.419   200.000     8.888
 2239.7496    17.329    2.6764    0.0481   311.949   200.000     8.379
 2239.9020    11.308    2.7143    0.0614   274.109   200.000     8.879
 2240.0544    17.557    2.6479    0.0640   408.361   200.000     8.693
 2240.2068    11.927    2.7012    0.0619   211.467   200.000     8.772
 2240.3592    17.110    2.6550    0.0572   190.594   200.000     8.412
