~VERSION INFORMATION
 VERS.                 2.0    : CWLS LOG ASCII STANDARD
 WRAP.                 NO     : ONE LINE PER DEPTH STEP
~WELL INFORMATION
 WELL.                 Midland-A12    : Well name
 FLD .                 Midland Basin         : Field
 CTRY.                 USA       : Country
 STRT.M                1500.0000 : START DEPTH
 STOP.M                4200.0000   : STOP DEPTH
 STEP.M                0.1524        : STEP
 NULL.                 -999.25          : NULL VALUE
 SRVC.                 SubsurfAI        : Service company
~CURVE INFORMATION
 DEPT.M                              : Depth
 GR  .GAPI                           : Gamma Ray
 RHOB.G/C3                           : Bulk Density
 NPHI.V/V                            : Neutron Porosity
 RT  .OHMM                           : True Resistivity
 DT  .US/F                           : Sonic
 CALI.IN                             : Caliper
~PARAMETER INFORMATION
 LAT .                 31.9974   : Latitude
 LON .                 -101.9543   : Longitude
 DESC.                 Permian Basin — Wolfcamp/Spraberry tight oil
~A  DEPT        GR        RHOB      NPHI      RT        DT        CALI
# ...
 3118.7928    15.267    2.7067    0.0424   669.965   200.000     8.816
 3118.9452    17.902    2.6254    0.0668    82.459   200.000     8.537
 3119.0976    17.521    2.6358    0.0808   347.328   200.000     8.307
 3119.2500    15.455    2.6771    0.0684   107.184   200.000     8.633
 3119.4024    19.295    2.5960    0.0776   209.267   200.000     8.439
 3119.5548    14.304    2.7744    0.0543   223.262   200.000     8.602
 3119.7072    23.811    2.6448    0.0661   200.542   200.000     8.060
 3119.8596    15.631    2.6232    0.0674   372.856   200.000     8.276
 3120.0120    15.389    2.7765    0.0825   219.998   200.000     9.093
 3120.1644    17.688    2.6098    0.0780   221.747   200.000     8.488
 3120.3168    15.932    2.6101    0.0878    84.384   200.000     8.162
 3120.4692    17.139    2.5887    0.0630   124.266   200.000     7.877
 3120.6216    10.493    2.7585    0.0727    84.726   200.000     8.230
 3120.7740    20.794    2.6926    0.0658   151.636   200.000     8.856
 3120.9264    16.680    2.6637    0.0689   247.991   200.000     8.399
 3121.0788    25.766    2.5454    0.0838   199.841   200.000     8.205
 3121.2312    21.891    2.6567    0.0749   151.406   200.000     8.794
 3121.3836    16.127    2.6086    0.0750   646.995   200.000     8.567
 3121.5360    21.698    2.6520    0.0799   162.783   200.000     8.610
 3121.6884    17.042    2.6679    0.0666   233.338   200.000     8.450
 3121.8408    18.443    2.5361    0.0697   217.880   200.000     7.637
 3121.9932    22.853    2.7295    0.0662   210.727   200.000     7.764
 3122.1456    16.820    2.7141    0.0835    84.889   200.000     8.495
 3122.2980    18.865    2.5040    0.0804   115.073   200.000     8.324
 3122.4504    11.610    2.7426    0.0761   149.053   200.000     8.891
 3122.6028    19.954    2.7224    0.0769   136.113   200.000     8.444
 3122.7552    19.536    2.6636    0.0755   173.477   200.000     7.994
 3122.9076    21.188    2.6961    0.0767   184.106   200.000     8.470
 3123.0600    18.646    2.6389    0.0656   331.377   200.000     8.565
 3123.2124    12.756    2.6916    0.0621   228.912   200.000     8.775
 3123.3648    16.769    2.6378    0.0795   124.306   200.000     8.780
 3123.5172    16.242    2.7146    0.0821   146.232   200.000     8.316
 3123.6696    12.877    2.6437    0.0604   143.943   200.000     8.229
 3123.8220    18.091    2.6354    0.0747    88.677   200.000     8.420
 3123.9744    23.375    2.6488    0.0540   452.977   200.000     8.982
 3124.1268    17.524    2.6603    0.0654   193.262   200.000     8.040
 3124.2792    16.142    2.5714    0.0430   115.880   200.000     7.657
 3124.4316    18.137    2.6980    0.0616   208.110   200.000     8.435
 3124.5840    16.143    2.6105    0.0626    61.596   200.000     8.881
 3124.7364    19.739    2.6831    0.0663   129.585   200.000     8.708
 3124.8888    20.563    2.6719    0.0776   214.121   200.000     8.546
 3125.0412    22.869    2.7381    0.0793   155.243   200.000     8.524
 3125.1936    21.240    2.6232    0.0681   316.459   200.000     8.742
 3125.3460    13.276    2.6374    0.0568   103.039   200.000     8.430
 3125.4984    21.963    2.7762    0.0853   153.297   200.000     8.120
 3125.6508    12.294    2.6721    0.0609   562.493   200.000     8.638
 3125.8032    19.897    2.6336    0.0909   204.309   200.000     8.371
 3125.9556    16.986    2.6460    0.0563    94.600   200.000     8.897
 3126.1080    11.966    2.6090    0.0626   282.807   200.000     8.973
 3126.2604    22.471    2.6919    0.0751   150.113   200.000     9.258
 3126.4128    15.284    2.6520    0.0564   375.383   200.000     8.815
 3126.5652    17.035    2.7171    0.0723   206.935   200.000     8.015
 3126.7176    17.391    2.6288    0.0615   108.726   200.000     8.033
 3126.8700    13.654    2.6601    0.0659   345.985   200.000     8.127
 3127.0224    14.842    2.6155    0.0617   224.464   200.000     8.467
 3127.1748    16.184    2.7127    0.0646   264.964   200.000     8.456
 3127.3272    12.040    2.6556    0.0771   204.915   200.000     8.572
 3127.4796    17.927    2.6421    0.0601    41.759   200.000     8.550
 3127.6320    21.088    2.6897    0.0816   238.938   200.000     8.056
 3127.7844    23.410    2.5650    0.0446   128.714   200.000     7.802
 3127.9368    17.229    2.7003    0.0721   226.628   200.000     8.817
 3128.0892    16.772    2.6603    0.0815   194.789   200.000     8.580
 3128.2416    13.172    2.7319    0.0787   132.531   200.000     8.071
 3128.3940    19.410    2.6985    0.0795   136.272   200.000     8.710
 3128.5464    24.364    2.6679    0.0704   129.485   200.000     8.563
 3128.6988    14.307    2.6814    0.0773   116.393   200.000     8.348
 3128.8512    15.897    2.6168    0.0650    86.280   200.000     9.550
 3129.0036    16.825    2.7153    0.0536   235.392   200.000     7.633
 3129.1560    17.736    2.6660    0.0606   189.026   200.000     8.680
 3129.3084    10.457    2.5690    0.0559    62.810   200.000     8.435
 3129.4608    17.578    2.7112    0.0932   143.794   200.000     8.627
 3129.6132    17.190    2.6957    0.0771   198.517   200.000     9.015
 3129.7656    19.015    2.6844    0.0676   244.103   200.000     8.213
 3129.9180    18.908    2.6982    0.0612   173.814   200.000     8.645
 3130.0704    18.262    2.7288    0.0678   269.119   200.000     8.674
 3130.2228    11.842    2.7159    0.0703   175.341   200.000     8.897
 3130.3752    18.471    2.6251    0.0686   205.400   200.000     8.824
 3130.5276    22.041    2.6143    0.0847   165.897   200.000     8.820
 3130.6800    14.224    2.6574    0.0775   295.996   200.000     8.556
 3130.8324    15.691    2.6541    0.0947    98.317   200.000     8.500
 3130.9848    18.498    2.6396    0.0882   160.656   200.000     8.379
 3131.1372    14.650    2.5373    0.0876   136.132   200.000     8.286
 3131.2896    14.654    2.6868    0.0683   123.600   200.000     8.798
 3131.4420    24.254    2.6554    0.0668   337.802   200.000     8.186
 3131.5944    21.109    2.6914    0.0615   176.250   200.000     8.613
 3131.7468    14.124    2.5846    0.0998   158.154   200.000     8.719
 3131.8992    15.279    2.6586    0.0731   399.033   200.000     8.629
 3132.0516    16.844    2.6985    0.0555   183.317   200.000     8.636
 3132.2040    16.306    2.6532    0.0792   137.763   200.000     8.546
 3132.3564    20.532    2.6155    0.0779    94.255   200.000     8.570
 3132.5088     8.083    2.6649    0.0756   121.026   200.000     8.492
 3132.6612    14.867    2.6020    0.0548   345.789   200.000     8.460
 3132.8136    22.009    2.7060    0.0773   292.961   200.000     9.097
 3132.9660    10.290    2.7388    0.0452   217.734   200.000     8.009
 3133.1184    22.953    2.6775    0.0756   119.948   200.000     9.150
 3133.2708    19.155    2.6454    0.0644    95.907   200.000     9.497
 3133.4232    22.297    2.7284    0.0829   346.453   200.000     8.549
 3133.5756    18.934    2.5714    0.0680   150.452   200.000     8.966
 3133.7280    22.445    2.6992    0.0755   119.685   200.000     8.958
 3133.8804    11.519    2.6280    0.0804   159.285   200.000     9.409
 3134.0328    20.297    2.7420    0.0688   105.830   200.000     8.436
 3134.1852    18.955    2.6555    0.0690    79.220   200.000     8.783
 3134.3376    16.526    2.7037    0.0749   130.809   200.000     8.370
 3134.4900    16.582    2.6163    0.0790   374.810   200.000     9.075
 3134.6424    12.924    2.6775    0.0831   187.284   200.000     8.623
 3134.7948    17.649    2.7427    0.0535   130.088   200.000     8.528
 3134.9472    16.443    2.6235    0.0658   271.925   200.000     8.403
 3135.0996    16.934    2.6423    0.0789   183.045   200.000     8.979
 3135.2520    18.654    2.7120    0.0776   266.754   200.000     7.965
 3135.4044    13.614    2.7104    0.0627  1133.785   200.000     8.169
 3135.5568    13.501    2.6516    0.0726   366.198   200.000     7.921
 3135.7092    19.233    2.8064    0.0679   187.520   200.000     8.083
 3135.8616    15.873    2.6429    0.0810   160.122   200.000     7.815
