~VERSION INFORMATION
 VERS.                 2.0    : CWLS LOG ASCII STANDARD
 WRAP.                 NO     : ONE LINE PER DEPTH STEP
~WELL INFORMATION
 WELL.                 Midland-A12    : Well name
 FLD .                 Midland Basin         : Field
 CTRY.                 USA       : Country
 STRT.M                1500.0000 : START DEPTH
 STOP.M                4200.0000   : STOP DEPTH
 STEP.M                0.1524        : STEP
 NULL.                 -999.25          : NULL VALUE
 SRVC.                 SubsurfAI        : Service company
~CURVE INFORMATION
 DEPT.M                              : Depth
 GR  .GAPI                           : Gamma Ray
 RHOB.G/C3                           : Bulk Density
 NPHI.V/V                            : Neutron Porosity
 RT  .OHMM                           : True Resistivity
 DT  .US/F                           : Sonic
 CALI.IN                             : Caliper
~PARAMETER INFORMATION
 LAT .                 31.9974   : Latitude
 LON .                 -101.9543   : Longitude
 DESC.                 Permian Basin — Wolfcamp/Spraberry tight oil
~A  DEPT        GR        RHOB      NPHI      RT        DT        CALI
# ...
 2757.1476     8.459    2.6568    0.0539   514.472   200.000     8.817
 2757.3000    12.424    2.8035    0.0444   602.505   200.000     8.934
 2757.4524     7.160    2.6798    0.0658   385.507   200.000     8.420
 2757.6048     9.687    2.8439    0.0563   276.119   200.000     8.335
 2757.7572    10.002    2.7735    0.0470   360.827   200.000     9.313
 2757.9096    16.360    2.7151    0.0573   403.489   200.000     8.292
 2758.0620     5.329    2.7128    0.0441   150.620   200.000     7.868
 2758.2144     6.071    2.6673    0.0526   337.477   200.000     7.894
 2758.3668    13.514    2.6097    0.0494   433.103   200.000     8.493
 2758.5192    11.351    2.7174    0.0600   401.782   200.000     8.584
 2758.6716    12.168    2.8087    0.0586   220.330   200.000     8.427
 2758.8240    17.916    2.7528    0.0447   208.746   200.000     8.534
 2758.9764    13.804    2.6765    0.0563    75.361   200.000     8.317
 2759.1288    10.355    2.7810    0.0606   146.057   200.000     8.358
 2759.2812    14.928    2.8013    0.0437   862.968   200.000     8.562
 2759.4336     9.285    2.6219    0.0475   422.037   200.000     8.558
 2759.5860    19.923    2.7358    0.0496   582.345   200.000     8.381
 2759.7384     6.784    2.7977    0.0518   396.558   200.000     8.142
 2759.8908    14.828    2.6565    0.0414   512.900   200.000     7.988
 2760.0432    13.985    2.6659    0.0466   323.648   200.000     8.199
 2760.1956    12.582    2.6235    0.0386   308.174   200.000     9.151
 2760.3480    11.926    2.7508    0.0488   302.087   200.000     8.485
 2760.5004    19.862    2.7205    0.0503   447.550   200.000     7.895
 2760.6528    11.074    2.7290    0.0526   192.619   200.000     8.547
 2760.8052    12.436    2.7258    0.0596   221.368   200.000     8.327
 2760.9576     6.292    2.6973    0.0484   119.546   200.000     8.120
 2761.1100    16.415    2.8156    0.0565   464.456   200.000     8.838
 2761.2624    16.713    2.7371    0.0547   279.120   200.000     8.791
 2761.4148    16.825    2.7587    0.0563   385.085   200.000     8.777
 2761.5672     9.494    2.7043    0.0556   657.082   200.000     8.326
 2761.7196    10.521    2.6830    0.0399   304.485   200.000     8.416
 2761.8720    15.336    2.6895    0.0363   185.737   200.000     8.308
 2762.0244     7.498    2.7720    0.0482   313.045   200.000     8.707
 2762.1768    16.426    2.6146    0.0562   337.174   200.000     8.548
 2762.3292    14.399    2.5947    0.0639   491.242   200.000     8.747
 2762.4816    10.102    2.7242    0.0410   719.133   200.000     8.216
 2762.6340     5.735    2.7008    0.0509   246.932   200.000     8.986
 2762.7864    11.240    2.6901    0.0482   210.406   200.000     9.560
 2762.9388    11.481    2.7658    0.0463   592.786   200.000     8.668
 2763.0912    15.247    2.8073    0.0553   390.156   200.000     8.894
 2763.2436    10.060    2.7238    0.0471   224.598   200.000     8.727
 2763.3960    21.384    2.7690    0.0537   735.968   200.000     8.368
 2763.5484     7.321    2.6967    0.0489   666.454   200.000     8.805
 2763.7008    16.381    2.7845    0.0623   235.253   200.000     8.579
 2763.8532    10.887    2.7502    0.0581   386.970   200.000     8.474
 2764.0056    10.630    2.7921    0.0488   996.561   200.000     7.428
 2764.1580    13.415    2.7147    0.0551   811.303   200.000     8.514
 2764.3104    16.321    2.6075    0.0606   230.905   200.000     8.210
 2764.4628     9.669    2.6856    0.0537   381.921   200.000     8.327
 2764.6152     9.720    2.7747    0.0480   451.780   200.000     8.561
 2764.7676    17.434    2.7521    0.0527   274.781   200.000     8.655
 2764.9200    10.529    2.7413    0.0473   430.436   200.000     7.923
 2765.0724     6.012    2.7027    0.0482   466.480   200.000     9.728
 2765.2248     6.357    2.7153    0.0416   573.418   200.000     9.105
 2765.3772     5.938    2.6636    0.0430   240.815   200.000     8.875
 2765.5296     7.172    2.7023    0.0433   203.440   200.000     7.863
 2765.6820    11.793    2.7950    0.0371  1333.758   200.000     8.079
 2765.8344    17.040    2.8111    0.0421   494.540   200.000     8.232
 2765.9868     9.480    2.7290    0.0385   425.866   200.000     8.574
 2766.1392     9.976    2.6615    0.0424   358.366   200.000     8.772
 2766.2916     7.410    2.6585    0.0449   202.950   200.000     8.075
 2766.4440    16.885    2.8167    0.0503   253.902   200.000     9.423
 2766.5964    11.530    2.6647    0.0619   641.196   200.000     8.910
 2766.7488    13.721    2.7707    0.0439   320.901   200.000     8.569
 2766.9012     8.763    2.6031    0.0568   286.068   200.000     8.792
 2767.0536    18.691    2.7058    0.0567   257.377   200.000     7.530
 2767.2060     8.884    2.7384    0.0539   175.370   200.000     7.973
 2767.3584     8.322    2.6963    0.0574   225.275   200.000     8.429
 2767.5108    11.956    2.6670    0.0567   263.479   200.000     7.943
 2767.6632    10.642    2.7227    0.0652   367.740   200.000     8.521
 2767.8156    11.670    2.7271    0.0398   270.397   200.000     8.489
 2767.9680     8.664    2.7473    0.0592   702.382   200.000     8.517
 2768.1204    14.798    2.7368    0.0402   266.132   200.000     8.904
 2768.2728    11.522    2.7158    0.0493   330.557   200.000     8.522
 2768.4252    14.721    2.6190    0.0527   269.345   200.000     8.191
 2768.5776    14.361    2.6782    0.0447   264.634   200.000     9.621
 2768.7300    11.987    2.6704    0.0507   243.805   200.000     8.553
 2768.8824    14.199    2.6684    0.0409   370.957   200.000     8.136
 2769.0348    12.786    2.7319    0.0559   426.248   200.000     8.759
 2769.1872    11.217    2.6809    0.0461   282.069   200.000     8.252
 2769.3396    16.553    2.8216    0.0484   870.639   200.000     8.131
 2769.4920     9.455    2.7175    0.0501   456.824   200.000     8.389
 2769.6444    11.919    2.8080    0.0659   558.375   200.000     7.949
 2769.7968     7.811    2.7336    0.0461   627.964   200.000     8.219
 2769.9492    11.534    2.7189    0.0487   294.091   200.000     8.357
 2770.1016    18.090    2.7056    0.0466  1024.251   200.000     8.568
 2770.2540    13.029    2.5987    0.0632   640.621   200.000     8.046
 2770.4064     9.274    2.7211    0.0540   361.580   200.000     8.879
 2770.5588    15.392    2.7495    0.0351   216.615   200.000     8.692
 2770.7112     7.482    2.7483    0.0419   109.651   200.000     8.379
 2770.8636    11.935    2.7816    0.0577   228.559   200.000     8.219
 2771.0160     4.062    2.7213    0.0471   675.286   200.000     8.525
 2771.1684    14.459    2.8036    0.0455   584.131   200.000     7.812
 2771.3208    11.399    2.7050    0.0527   388.856   200.000     8.795
 2771.4732     9.450    2.7126    0.0465   515.478   200.000     8.267
 2771.6256    10.692    2.7235    0.0540   373.731   200.000     8.629
 2771.7780    12.572    2.7530    0.0473   170.378   200.000     8.645
 2771.9304    10.171    2.7882    0.0564   117.876   200.000     8.092
 2772.0828    11.396    2.7077    0.0458   143.815   200.000     8.651
 2772.2352    12.726    2.7406    0.0419   220.880   200.000     8.387
 2772.3876    16.756    2.7088    0.0525   606.126   200.000     8.209
 2772.5400    20.561    2.6947    0.0596   624.813   200.000     8.247
 2772.6924    12.078    2.7125    0.0564   210.985   200.000     8.896
 2772.8448    12.084    2.7069    0.0618   315.505   200.000     7.962
 2772.9972    10.341    2.7188    0.0453   157.775   200.000     8.778
 2773.1496    11.191    2.7318    0.0397   231.003   200.000     8.921
 2773.3020    16.579    2.7847    0.0402   507.223   200.000     8.657
 2773.4544     7.430    2.6203    0.0377   321.339   200.000     8.832
 2773.6068    10.738    2.6649    0.0685   279.714   200.000     8.631
 2773.7592    13.751    2.7102    0.0469   872.361   200.000     7.873
 2773.9116     4.740    2.7230    0.0580   320.572   200.000     8.317
 2774.0640     8.771    2.6592    0.0570   360.885   200.000     8.240
 2774.2164    13.901    2.7707    0.0465   324.408   200.000     8.498
