~VERSION INFORMATION
 VERS.                 2.0    : CWLS LOG ASCII STANDARD
 WRAP.                 NO     : ONE LINE PER DEPTH STEP
~WELL INFORMATION
 WELL.                 Midland-A12    : Well name
 FLD .                 Midland Basin         : Field
 CTRY.                 USA       : Country
 STRT.M                1500.0000 : START DEPTH
 STOP.M                4200.0000   : STOP DEPTH
 STEP.M                0.1524        : STEP
 NULL.                 -999.25          : NULL VALUE
 SRVC.                 SubsurfAI        : Service company
~CURVE INFORMATION
 DEPT.M                              : Depth
 GR  .GAPI                           : Gamma Ray
 RHOB.G/C3                           : Bulk Density
 NPHI.V/V                            : Neutron Porosity
 RT  .OHMM                           : True Resistivity
 DT  .US/F                           : Sonic
 CALI.IN                             : Caliper
~PARAMETER INFORMATION
 LAT .                 31.9974   : Latitude
 LON .                 -101.9543   : Longitude
 DESC.                 Permian Basin — Wolfcamp/Spraberry tight oil
~A  DEPT        GR        RHOB      NPHI      RT        DT        CALI
# ...
 2395.5024     9.806    2.6465    0.0671    85.761   200.000     8.255
 2395.6548    11.764    2.8199    0.0665   397.641   200.000     8.693
 2395.8072    19.180    2.6795    0.0405   100.981   200.000     7.774
 2395.9596    13.050    2.6157    0.0588    99.802   200.000     8.404
 2396.1120    18.723    2.7018    0.0616   157.117   200.000     7.877
 2396.2644    12.150    2.5838    0.0494   400.379   200.000     8.795
 2396.4168    11.695    2.7030    0.0633   145.996   200.000     8.797
 2396.5692     9.882    2.5892    0.0492   237.490   200.000     8.412
 2396.7216    16.796    2.7292    0.0639   166.406   200.000     7.879
 2396.8740    12.127    2.6391    0.0814   348.054   200.000     8.189
 2397.0264     8.634    2.6640    0.0579   332.066   200.000     7.913
 2397.1788    19.055    2.7321    0.0627   222.798   200.000     9.118
 2397.3312    15.018    2.6014    0.0480   207.086   200.000     8.369
 2397.4836    15.586    2.7444    0.0535   180.469   200.000     8.661
 2397.6360    11.711    2.6821    0.0623   437.473   200.000     8.232
 2397.7884    14.129    2.6332    0.0701   112.551   200.000     8.119
 2397.9408    15.281    2.6082    0.0436   128.884   200.000     8.186
 2398.0932    15.176    2.6666    0.0520   161.811   200.000     8.134
 2398.2456    15.290    2.5834    0.0520   250.861   200.000     8.605
 2398.3980     7.975    2.6499    0.0601   162.028   200.000     8.333
 2398.5504    15.340    2.6258    0.0528   133.283   200.000     8.294
 2398.7028    13.709    2.6485    0.0600   152.570   200.000     8.368
 2398.8552    13.695    2.6866    0.0475    82.357   200.000     8.893
 2399.0076    18.318    2.7793    0.0570   202.300   200.000     8.468
 2399.1600    21.266    2.6911    0.0612   254.732   200.000     8.304
 2399.3124    10.069    2.7523    0.0688   257.479   200.000     8.815
 2399.4648    13.901    2.7028    0.0649   108.396   200.000     8.700
 2399.6172    14.628    2.6425    0.0540   101.787   200.000     7.439
 2399.7696     9.631    2.7062    0.0393   203.004   200.000     8.369
 2399.9220    14.194    2.6484    0.0492   416.352   200.000     8.708
 2400.0744    11.511    2.7815    0.0589   515.523   200.000     8.244
 2400.2268    13.286    2.7272    0.0573   104.196   200.000     8.615
 2400.3792     6.680    2.6834    0.0443   178.351   200.000     7.535
 2400.5316     9.741    2.7180    0.0423   150.135   200.000     8.497
 2400.6840    11.932    2.8409    0.0474   400.508   200.000     8.515
 2400.8364     9.368    2.7410    0.0392   128.746   200.000     8.774
 2400.9888    14.569    2.7609    0.0476   306.012   200.000     8.730
 2401.1412    10.619    2.8025    0.0456   174.204   200.000     8.843
 2401.2936    14.588    2.6647    0.0496   615.166   200.000     8.279
 2401.4460     8.976    2.6926    0.0608   330.606   200.000     8.543
 2401.5984    13.118    2.7893    0.0479   648.596   200.000     8.701
 2401.7508     5.881    2.7515    0.0466   617.141   200.000     8.814
 2401.9032     7.206    2.6626    0.0451   442.701   200.000     8.776
 2402.0556    14.960    2.7010    0.0565   213.826   200.000     8.389
 2402.2080    10.048    2.6657    0.0540   544.860   200.000     8.623
 2402.3604    12.770    2.7371    0.0529   426.907   200.000     9.268
 2402.5128    18.008    2.6289    0.0462   103.367   200.000     8.629
 2402.6652    11.853    2.7176    0.0520   454.226   200.000     8.409
 2402.8176     6.626    2.6297    0.0535   229.460   200.000     9.133
 2402.9700    11.218    2.7228    0.0516   535.569   200.000     9.124
 2403.1224     5.694    2.7103    0.0713   932.536   200.000     8.972
 2403.2748    14.517    2.6484    0.0625   750.482   200.000     9.345
 2403.4272     9.964    2.7008    0.0544   389.206   200.000     8.486
 2403.5796     8.253    2.6276    0.0452   591.289   200.000     7.602
 2403.7320    17.095    2.7060    0.0476   306.825   200.000     8.669
 2403.8844    13.089    2.6821    0.0355   884.063   200.000     8.446
 2404.0368     9.220    2.6331    0.0540   355.839   200.000     9.534
 2404.1892    15.158    2.7142    0.0593   426.042   200.000     8.491
 2404.3416     5.998    2.7011    0.0487    96.345   200.000     8.634
 2404.4940    13.766    2.7381    0.0499   192.376   200.000     8.393
 2404.6464     9.766    2.7213    0.0485   278.965   200.000     8.376
 2404.7988    12.202    2.7013    0.0641   270.089   200.000     8.121
 2404.9512    10.873    2.7468    0.0485   496.491   200.000     8.878
 2405.1036    12.754    2.7807    0.0509   254.256   200.000     8.513
 2405.2560    12.740    2.6546    0.0407   431.892   200.000     8.281
 2405.4084    12.406    2.5778    0.0484   296.825   200.000     9.089
 2405.5608    10.229    2.7242    0.0424   290.873   200.000     8.748
 2405.7132    12.007    2.7088    0.0411   257.135   200.000     9.568
 2405.8656    13.495    2.7294    0.0579  1186.714   200.000     8.994
 2406.0180    15.988    2.7233    0.0553   347.866   200.000     8.220
 2406.1704    12.858    2.6417    0.0376   465.293   200.000     8.567
 2406.3228    11.371    2.7187    0.0419   514.846   200.000     7.826
 2406.4752    17.085    2.7224    0.0495   321.209   200.000     8.751
 2406.6276    11.231    2.6999    0.0512   335.966   200.000     8.716
 2406.7800    11.336    2.7484    0.0658    91.851   200.000     8.854
 2406.9324    12.257    2.7299    0.0638   236.875   200.000     9.049
 2407.0848    17.822    2.8306    0.0356   178.986   200.000     8.251
 2407.2372     9.096    2.7531    0.0551   501.010   200.000     8.717
 2407.3896    19.717    2.7293    0.0500   493.719   200.000     8.119
 2407.5420    15.023    2.6600    0.0621   455.527   200.000     8.042
 2407.6944    21.128    2.7038    0.0607   563.163   200.000     8.873
 2407.8468     9.239    2.7422    0.0546   160.287   200.000     8.511
 2407.9992    10.828    2.6347    0.0478   126.338   200.000     8.188
 2408.1516     8.222    2.7505    0.0562   254.297   200.000     7.693
 2408.3040    10.501    2.6971    0.0569   254.374   200.000     7.949
 2408.4564     9.197    2.7513    0.0469   534.115   200.000     8.064
 2408.6088     7.872    2.6896    0.0455   590.550   200.000     8.623
 2408.7612    11.163    2.6188    0.0487   526.765   200.000     8.816
 2408.9136     9.458    2.8078    0.0506   300.782   200.000     8.451
 2409.0660     9.533    2.6791    0.0464   157.019   200.000     8.013
 2409.2184    18.295    2.6974    0.0566   399.060   200.000     7.846
 2409.3708    13.419    2.7662    0.0429   189.719   200.000     8.455
 2409.5232    15.183    2.6648    0.0369   190.379   200.000     8.826
 2409.6756    13.662    2.6504    0.0418   647.038   200.000     8.750
 2409.8280    14.430    2.8417    0.0532   387.424   200.000     8.179
 2409.9804     9.033    2.7288    0.0556   427.529   200.000     7.928
 2410.1328    11.874    2.7242    0.0470   194.908   200.000     8.756
 2410.2852     9.112    2.6395    0.0404   729.521   200.000     8.504
 2410.4376    11.514    2.5805    0.0510   372.082   200.000     8.352
 2410.5900    11.959    2.7475    0.0482   449.385   200.000     8.957
 2410.7424     6.511    2.6757    0.0476   101.566   200.000     9.023
 2410.8948     7.509    2.8139    0.0540   352.973   200.000     8.632
 2411.0472    14.276    2.7086    0.0469   230.437   200.000     8.737
 2411.1996     8.925    2.6710    0.0457   738.390   200.000     8.259
 2411.3520    16.205    2.8048    0.0358   400.783   200.000     8.457
 2411.5044    10.125    2.6884    0.0378   292.205   200.000     8.350
 2411.6568    12.502    2.6729    0.0405   863.577   200.000     8.936
 2411.8092    11.760    2.7461    0.0535   370.850   200.000     8.313
 2411.9616    12.845    2.6985    0.0522   207.010   200.000     8.515
 2412.1140     5.887    2.6400    0.0306   358.076   200.000     8.630
 2412.2664    18.647    2.7967    0.0577   181.317   200.000     7.568
 2412.4188     9.377    2.6955    0.0457   700.002   200.000     8.772
 2412.5712    13.231    2.6716    0.0534   261.196   200.000     8.290
