~VERSION INFORMATION
 VERS.                 2.0    : CWLS LOG ASCII STANDARD
 WRAP.                 NO     : ONE LINE PER DEPTH STEP
~WELL INFORMATION
 WELL.                 Midland-A12    : Well name
 FLD .                 Midland Basin         : Field
 CTRY.                 USA       : Country
 STRT.M                1500.0000 : START DEPTH
 STOP.M                4200.0000   : STOP DEPTH
 STEP.M                0.1524        : STEP
 NULL.                 -999.25          : NULL VALUE
 SRVC.                 SubsurfAI        : Service company
~CURVE INFORMATION
 DEPT.M                              : Depth
 GR  .GAPI                           : Gamma Ray
 RHOB.G/C3                           : Bulk Density
 NPHI.V/V                            : Neutron Porosity
 RT  .OHMM                           : True Resistivity
 DT  .US/F                           : Sonic
 CALI.IN                             : Caliper
~PARAMETER INFORMATION
 LAT .                 31.9974   : Latitude
 LON .                 -101.9543   : Longitude
 DESC.                 Permian Basin — Wolfcamp/Spraberry tight oil
~A  DEPT        GR        RHOB      NPHI      RT        DT        CALI
# ...
 3291.0048    16.183    2.7368    0.0787   196.100   200.000     8.637
 3291.1572    17.551    2.6023    0.0720   267.918   200.000     8.705
 3291.3096    14.332    2.6229    0.0552   437.529   200.000     7.860
 3291.4620    24.959    2.6697    0.0857   157.907   200.000     8.287
 3291.6144    19.546    2.6738    0.0790    93.685   200.000     8.118
 3291.7668    16.114    2.6909    0.0851   123.967   200.000     8.091
 3291.9192    12.887    2.6180    0.0602   139.475   200.000     8.555
 3292.0716    15.729    2.6727    0.0643    90.719   200.000     8.869
 3292.2240    21.656    2.6914    0.0695   163.494   200.000     8.263
 3292.3764    13.349    2.6867    0.0710   147.471   200.000     8.204
 3292.5288    19.737    2.6033    0.0753   270.644   200.000     9.379
 3292.6812    23.052    2.7434    0.0728   164.524   200.000     8.294
 3292.8336    13.730    2.7379    0.1027   164.031   200.000     8.202
 3292.9860    19.340    2.6468    0.0762   289.347   200.000     9.096
 3293.1384    19.986    2.6855    0.0568   186.659   200.000     8.933
 3293.2908    18.134    2.5622    0.0619   187.717   200.000     7.902
 3293.4432    16.697    2.6474    0.0768   196.650   200.000     8.159
 3293.5956    22.468    2.5765    0.0742    49.328   200.000     8.432
 3293.7480    21.636    2.6753    0.0783   228.096   200.000     8.957
 3293.9004    19.379    2.7307    0.0757   268.815   200.000     7.385
 3294.0528    19.837    2.6576    0.0809   146.173   200.000     8.513
 3294.2052    18.655    2.6475    0.0768   143.191   200.000     8.634
 3294.3576    11.583    2.6096    0.0843   221.088   200.000     8.737
 3294.5100    18.495    2.5911    0.0612   132.748   200.000     9.098
 3294.6624    15.041    2.6166    0.0750    72.083   200.000     8.743
 3294.8148    19.440    2.6223    0.0783   353.742   200.000     8.764
 3294.9672    13.315    2.6086    0.0703   136.025   200.000     8.898
 3295.1196    19.134    2.6677    0.0808   182.583   200.000     8.674
 3295.2720    16.433    2.5548    0.0709   196.588   200.000     8.403
 3295.4244    16.129    2.7197    0.0688   193.532   200.000     8.535
 3295.5768    11.361    2.6885    0.0754   136.739   200.000     8.651
 3295.7292    17.598    2.5692    0.0749   183.209   200.000     8.401
 3295.8816    18.958    2.7144    0.0800   277.467   200.000     9.116
 3296.0340    22.201    2.7216    0.0659   154.793   200.000     8.828
 3296.1864    14.562    2.5488    0.0604   211.577   200.000     8.538
 3296.3388    17.527    2.7113    0.0618   361.047   200.000     8.918
 3296.4912    20.601    2.7395    0.0887   472.541   200.000     8.297
 3296.6436    20.482    2.6962    0.0720   101.158   200.000     8.321
 3296.7960    22.655    2.6728    0.0707   291.399   200.000     9.092
 3296.9484    21.628    2.5796    0.0581   138.348   200.000     8.536
 3297.1008    13.106    2.6285    0.0692   205.062   200.000     8.766
 3297.2532    24.471    2.6591    0.0727   208.008   200.000     8.483
 3297.4056    25.331    2.6601    0.0673   152.122   200.000     7.892
 3297.5580    12.703    2.6966    0.0798   270.811   200.000     9.058
 3297.7104    20.529    2.6317    0.0723    43.555   200.000     7.509
 3297.8628    15.659    2.6035    0.0698   154.107   200.000     8.662
 3298.0152    19.594    2.6705    0.0640   162.557   200.000     8.384
 3298.1676    17.485    2.7001    0.0668   180.788   200.000     8.271
 3298.3200    18.354    2.6266    0.0686   195.149   200.000     8.395
 3298.4724    16.239    2.6056    0.0758   171.369   200.000     8.340
 3298.6248    18.322    2.5902    0.0883    95.307   200.000     8.066
 3298.7772    24.881    2.5917    0.0653   158.573   200.000     9.395
 3298.9296    12.853    2.6568    0.0681   187.214   200.000     8.087
 3299.0820    21.161    2.7186    0.0796   163.858   200.000     8.841
 3299.2344    20.850    2.7215    0.0827   216.206   200.000     8.371
 3299.3868    17.759    2.6985    0.0901   112.020   200.000     7.836
 3299.5392   138.069    2.5635    0.1777     8.717   200.000     9.251
 3299.6916   136.077    2.6598    0.2151     2.415   200.000     8.968
 3299.8440   124.008    2.6943    0.2098    15.937   200.000     7.923
 3299.9964   141.113    2.6412    0.2112     6.220   200.000     9.272
 3300.1488   180.230    2.6942    0.2152     4.485   200.000     8.759
 3300.3012   146.210    2.6262    0.1739    10.135   200.000     8.838
 3300.4536   116.999    2.5782    0.1842     8.617   200.000     8.182
 3300.6060   128.619    2.6566    0.1516     2.492   200.000     8.842
 3300.7584   117.017    2.6070    0.2246     3.921   200.000     8.584
 3300.9108   147.935    2.7332    0.1630     8.854   200.000     8.022
 3301.0632   123.806    2.5783    0.2141     4.557   200.000     8.677
 3301.2156   131.122    2.5527    0.2136    16.461   200.000     8.933
 3301.3680   125.744    2.6752    0.2026     9.942   200.000     8.699
 3301.5204   122.311    2.7108    0.2610     5.652   200.000     8.509
 3301.6728   157.450    2.6284    0.2266     4.119   200.000     8.653
 3301.8252   110.078    2.6167    0.1790     2.620   200.000     8.894
 3301.9776   124.156    2.6250    0.1884     4.079   200.000     8.523
 3302.1300   151.900    2.7002    0.2106     6.946   200.000     8.302
 3302.2824   132.834    2.5709    0.2241     4.475   200.000     8.591
 3302.4348   153.388    2.6401    0.1862     2.865   200.000     9.188
 3302.5872   124.485    2.6096    0.2072    10.724   200.000     7.598
 3302.7396   117.533    2.6816    0.2349     6.703   200.000     9.334
 3302.8920    87.255    2.5305    0.2261     7.290   200.000     8.473
 3303.0444   116.392    2.6325    0.1917     5.896   200.000     7.770
 3303.1968   138.428    2.6133    0.2009    10.111   200.000     8.488
 3303.3492   117.163    2.6714    0.1559     5.728   200.000     9.207
 3303.5016   124.858    2.5890    0.2198     5.932   200.000     8.429
 3303.6540   151.032    2.6327    0.1982     6.837   200.000     8.335
 3303.8064    96.982    2.6366    0.1743     2.403   200.000     8.606
 3303.9588   130.021    2.6592    0.2027     8.742   200.000     8.442
 3304.1112   112.731    2.5974    0.1745     4.502   200.000     8.472
 3304.2636   141.765    2.6025    0.2411     5.848   200.000     8.534
 3304.4160    98.649    2.6315    0.2278     3.633   200.000     8.360
 3304.5684   137.848    2.6466    0.2322     3.582   200.000     8.091
 3304.7208   122.703    2.5555    0.1625     4.143   200.000     8.277
 3304.8732   145.758    2.6674    0.2142    10.099   200.000     9.152
 3305.0256   141.554    2.5699    0.2091     8.693   200.000     8.442
 3305.1780   126.751    2.7227    0.1964    11.093   200.000     8.092
 3305.3304   150.665    2.5941    0.1963     2.891   200.000     8.282
 3305.4828   158.576    2.7037    0.2001     9.392   200.000     8.042
 3305.6352   116.066    2.5519    0.2040     9.594   200.000     7.983
 3305.7876   150.291    2.6564    0.2256    11.120   200.000     8.278
 3305.9400   137.825    2.6117    0.1610    10.505   200.000     8.781
 3306.0924   138.524    2.6364    0.1926     3.724   200.000     8.371
 3306.2448   127.235    2.6918    0.2196     6.396   200.000     8.222
 3306.3972   122.035    2.6168    0.2266     7.122   200.000     9.177
 3306.5496   130.405    2.6127    0.2086     7.177   200.000     8.989
 3306.7020   106.696    2.6500    0.2037     4.604   200.000     9.177
 3306.8544   140.657    2.6352    0.2057     2.061   200.000     8.568
 3307.0068   148.914    2.6111    0.2142     2.971   200.000     8.335
 3307.1592   128.517    2.6676    0.2577     1.874   200.000     7.809
 3307.3116   119.462    2.6813    0.1527     3.037   200.000     8.923
 3307.4640   139.580    2.5957    0.2225     3.165   200.000     8.217
 3307.6164   109.391    2.5903    0.1842     6.786   200.000     9.070
 3307.7688   124.449    2.5708    0.1863     8.892   200.000     8.689
 3307.9212   109.486    2.6109    0.1860     5.452   200.000     8.349
 3308.0736   145.406    2.5817    0.1662     3.993   200.000     7.543
