~VERSION INFORMATION
 VERS.                 2.0    : CWLS LOG ASCII STANDARD
 WRAP.                 NO     : ONE LINE PER DEPTH STEP
~WELL INFORMATION
 WELL.                 Midland-A12    : Well name
 FLD .                 Midland Basin         : Field
 CTRY.                 USA       : Country
 STRT.M                1500.0000 : START DEPTH
 STOP.M                4200.0000   : STOP DEPTH
 STEP.M                0.1524        : STEP
 NULL.                 -999.25          : NULL VALUE
 SRVC.                 SubsurfAI        : Service company
~CURVE INFORMATION
 DEPT.M                              : Depth
 GR  .GAPI                           : Gamma Ray
 RHOB.G/C3                           : Bulk Density
 NPHI.V/V                            : Neutron Porosity
 RT  .OHMM                           : True Resistivity
 DT  .US/F                           : Sonic
 CALI.IN                             : Caliper
~PARAMETER INFORMATION
 LAT .                 31.9974   : Latitude
 LON .                 -101.9543   : Longitude
 DESC.                 Permian Basin — Wolfcamp/Spraberry tight oil
~A  DEPT        GR        RHOB      NPHI      RT        DT        CALI
# ...
 2929.3596    22.191    2.6313    0.0704    68.683   200.000     9.210
 2929.5120    15.540    2.6445    0.0870   133.003   200.000     8.949
 2929.6644    21.876    2.7239    0.0658   297.481   200.000     8.793
 2929.8168    14.363    2.6451    0.0795   312.052   200.000     8.057
 2929.9692     9.532    2.7424    0.0919   143.725   200.000     8.654
 2930.1216    19.655    2.6425    0.0695   399.816   200.000     7.871
 2930.2740    23.974    2.6389    0.0571   159.154   200.000     7.689
 2930.4264    19.567    2.5659    0.0692   219.588   200.000     8.253
 2930.5788    15.287    2.7492    0.0488   257.412   200.000     8.306
 2930.7312    15.306    2.6572    0.0658   203.600   200.000     8.811
 2930.8836    18.615    2.6405    0.0711   381.735   200.000     8.811
 2931.0360    11.019    2.6467    0.0558   373.375   200.000     8.338
 2931.1884    12.856    2.6486    0.0560   167.191   200.000     8.169
 2931.3408    16.987    2.6434    0.0737   318.108   200.000     8.329
 2931.4932    11.828    2.6755    0.0764   201.905   200.000     7.881
 2931.6456    17.050    2.6533    0.0592   331.277   200.000     8.983
 2931.7980    21.413    2.5540    0.0495   133.566   200.000     9.423
 2931.9504    14.187    2.7286    0.0609   254.334   200.000     8.946
 2932.1028    15.247    2.6681    0.0850   113.424   200.000     8.517
 2932.2552    14.419    2.6682    0.0718   330.190   200.000     8.059
 2932.4076    16.767    2.7040    0.0708   144.089   200.000     8.832
 2932.5600    19.768    2.5708    0.0704   218.423   200.000     8.755
 2932.7124    25.513    2.7233    0.0772   413.848   200.000     7.917
 2932.8648    16.271    2.6162    0.0763   169.403   200.000     8.797
 2933.0172    24.864    2.7133    0.0670   230.432   200.000     8.319
 2933.1696    14.586    2.7048    0.0733   145.961   200.000     8.422
 2933.3220    19.658    2.6881    0.1011   122.254   200.000     8.630
 2933.4744    16.398    2.6301    0.0659   129.858   200.000     8.209
 2933.6268    13.243    2.6228    0.0706   197.307   200.000     8.420
 2933.7792    18.449    2.6298    0.0661   138.019   200.000     7.995
 2933.9316    19.151    2.6361    0.0703   309.109   200.000     8.703
 2934.0840    24.087    2.6819    0.0789   196.251   200.000     8.027
 2934.2364    20.388    2.5951    0.0721   161.278   200.000     8.817
 2934.3888    16.030    2.5966    0.0623   170.125   200.000     8.667
 2934.5412    15.589    2.7083    0.0767   112.549   200.000     8.400
 2934.6936    19.804    2.6388    0.0470   215.012   200.000     9.230
 2934.8460    17.666    2.6172    0.0767   260.359   200.000     8.554
 2934.9984    10.429    2.6465    0.0660   165.270   200.000     7.989
 2935.1508    18.929    2.6133    0.0845   200.946   200.000     8.089
 2935.3032    13.511    2.5641    0.0697   211.911   200.000     8.528
 2935.4556    25.484    2.7519    0.0519   120.667   200.000     8.482
 2935.6080     9.682    2.6257    0.1002   320.136   200.000     7.674
 2935.7604    21.390    2.5944    0.0693   137.273   200.000     8.015
 2935.9128    18.142    2.6567    0.0705   284.796   200.000     7.599
 2936.0652    17.300    2.6952    0.0735   229.646   200.000     8.427
 2936.2176    16.780    2.6079    0.0841   154.694   200.000     8.438
 2936.3700    15.882    2.7084    0.0652   234.989   200.000     8.524
 2936.5224    19.856    2.6978    0.0756   208.826   200.000     8.936
 2936.6748    23.283    2.6470    0.0761   108.775   200.000     8.481
 2936.8272    29.260    2.6909    0.0896   199.748   200.000     7.928
 2936.9796    18.453    2.6602    0.0888   120.348   200.000     8.449
 2937.1320    19.080    2.6290    0.0623   345.061   200.000     8.380
 2937.2844    17.254    2.6204    0.0846   124.211   200.000     8.727
 2937.4368    17.042    2.6356    0.0602   237.945   200.000     8.963
 2937.5892    14.456    2.6214    0.0604   362.665   200.000     7.969
 2937.7416    23.324    2.5799    0.0914   227.491   200.000     8.334
 2937.8940    14.816    2.6406    0.0704   110.680   200.000     8.532
 2938.0464    19.573    2.6859    0.0883    75.672   200.000     8.576
 2938.1988    25.703    2.6661    0.0865   186.258   200.000     8.758
 2938.3512    16.508    2.6977    0.0818   241.939   200.000     8.756
 2938.5036    16.049    2.6883    0.0923   283.765   200.000     8.183
 2938.6560    17.191    2.6078    0.0858   176.721   200.000     8.745
 2938.8084    20.106    2.6838    0.0851   161.265   200.000     8.696
 2938.9608    25.113    2.6755    0.1020   129.307   200.000     8.880
 2939.1132    17.614    2.7322    0.0550   107.334   200.000     8.193
 2939.2656    19.434    2.6090    0.0564   295.776   200.000     8.251
 2939.4180    20.775    2.6594    0.0778   117.955   200.000     9.215
 2939.5704    19.767    2.6761    0.0779   264.028   200.000     8.541
 2939.7228    19.690    2.6135    0.0640   223.126   200.000     8.253
 2939.8752    16.653    2.6223    0.0496   234.861   200.000     9.115
 2940.0276    16.790    2.6383    0.0656   106.857   200.000     8.920
 2940.1800    19.030    2.6840    0.1017   332.950   200.000     8.564
 2940.3324    16.153    2.6366    0.1067   274.744   200.000     8.131
 2940.4848    21.769    2.6246    0.0702    78.913   200.000     8.373
 2940.6372    23.507    2.6968    0.0723   323.510   200.000     8.699
 2940.7896    14.212    2.5230    0.0829   236.126   200.000     8.141
 2940.9420    14.580    2.6156    0.0820   252.219   200.000     8.202
 2941.0944    18.026    2.6626    0.0727   452.251   200.000     8.962
 2941.2468    19.931    2.5542    0.0575   130.781   200.000     9.015
 2941.3992    12.214    2.6280    0.0823    89.980   200.000     7.750
 2941.5516    24.071    2.6683    0.0763   210.755   200.000     8.692
 2941.7040    21.918    2.6344    0.0741   127.349   200.000     7.663
 2941.8564    20.452    2.6875    0.0676   213.787   200.000     7.939
 2942.0088    21.475    2.5617    0.0727   213.795   200.000     8.208
 2942.1612    14.676    2.6938    0.0753   199.473   200.000     8.611
 2942.3136    24.647    2.7543    0.0637   287.118   200.000     8.278
 2942.4660    16.997    2.6028    0.0638   143.868   200.000     8.150
 2942.6184    26.109    2.6448    0.0900   112.773   200.000     7.819
 2942.7708    19.630    2.7299    0.0519   129.126   200.000     7.878
 2942.9232    15.443    2.6310    0.0483    56.003   200.000     8.876
 2943.0756    18.460    2.6973    0.0740    86.722   200.000     7.975
 2943.2280    10.150    2.6832    0.0663   168.172   200.000     8.353
 2943.3804    21.976    2.6758    0.0718   255.477   200.000     8.727
 2943.5328    13.983    2.7522    0.0539   310.351   200.000     9.210
 2943.6852    15.605    2.7004    0.0532   161.223   200.000     8.596
 2943.8376    17.073    2.6362    0.0565   264.349   200.000     8.580
 2943.9900    12.522    2.7015    0.0626   174.190   200.000     8.286
 2944.1424    18.433    2.6353    0.0826   126.213   200.000     8.898
 2944.2948     9.824    2.7294    0.0739   115.936   200.000     8.118
 2944.4472    13.490    2.5975    0.0671   224.265   200.000     8.550
 2944.5996    21.043    2.5705    0.0824   396.884   200.000     8.472
 2944.7520    20.743    2.7061    0.0726   235.303   200.000     8.194
 2944.9044    19.080    2.6549    0.0670   173.972   200.000     8.643
 2945.0568    20.557    2.6592    0.0908   154.180   200.000     8.454
 2945.2092    13.635    2.7101    0.0724   143.814   200.000     8.011
 2945.3616    13.612    2.6810    0.0597   235.363   200.000     8.095
 2945.5140    24.300    2.6119    0.0642   272.738   200.000     8.671
 2945.6664    26.361    2.7080    0.0687   119.995   200.000     8.722
 2945.8188    17.304    2.6295    0.0616   127.381   200.000     9.185
 2945.9712    19.678    2.6289    0.0757   340.770   200.000     7.941
 2946.1236    17.541    2.7121    0.0462   225.888   200.000     8.841
 2946.2760    19.443    2.5784    0.0554   136.850   200.000     8.247
 2946.4284    15.732    2.6696    0.0712  1083.037   200.000     8.533
