~VERSION INFORMATION
 VERS.                 2.0    : CWLS LOG ASCII STANDARD
 WRAP.                 NO     : ONE LINE PER DEPTH STEP
~WELL INFORMATION
 WELL.                 Midland-A12    : Well name
 FLD .                 Midland Basin         : Field
 CTRY.                 USA       : Country
 STRT.M                1500.0000 : START DEPTH
 STOP.M                4200.0000   : STOP DEPTH
 STEP.M                0.1524        : STEP
 NULL.                 -999.25          : NULL VALUE
 SRVC.                 SubsurfAI        : Service company
~CURVE INFORMATION
 DEPT.M                              : Depth
 GR  .GAPI                           : Gamma Ray
 RHOB.G/C3                           : Bulk Density
 NPHI.V/V                            : Neutron Porosity
 RT  .OHMM                           : True Resistivity
 DT  .US/F                           : Sonic
 CALI.IN                             : Caliper
~PARAMETER INFORMATION
 LAT .                 31.9974   : Latitude
 LON .                 -101.9543   : Longitude
 DESC.                 Permian Basin — Wolfcamp/Spraberry tight oil
~A  DEPT        GR        RHOB      NPHI      RT        DT        CALI
 1500.0000   114.823    2.5461    0.1752    26.883   200.000     8.191
 1500.1524   124.127    2.6882    0.1776     7.607   200.000     8.457
 1500.3048   111.024    2.5622    0.1736     9.209   200.000     8.089
 1500.4572   149.346    2.5704    0.1504    24.444   200.000     8.114
 1500.6096   104.283    2.6236    0.1826    11.024   200.000     8.305
 1500.7620    88.767    2.6138    0.1822     8.384   200.000     8.258
 1500.9144   124.638    2.6123    0.1908     7.662   200.000     8.385
 1501.0668   107.541    2.6522    0.1510     7.855   200.000     9.331
 1501.2192   121.963    2.6439    0.1415    15.574   200.000     8.642
 1501.3716   105.069    2.5784    0.1542     8.715   200.000     8.322
 1501.5240   124.292    2.5989    0.2224     9.535   200.000     8.877
 1501.6764   116.899    2.5974    0.1941    11.810   200.000     8.245
 1501.8288   109.024    2.5612    0.1606    18.498   200.000     8.691
 1501.9812   119.562    2.5409    0.2011     8.801   200.000     9.099
 1502.1336   125.277    2.6419    0.2199     9.470   200.000     7.950
 1502.2860   123.044    2.6717    0.1986     7.038   200.000     8.820
 1502.4384   128.881    2.5175    0.1445     3.575   200.000     8.862
 1502.5908    98.270    2.4831    0.1737     7.251   200.000     8.444
 1502.7432   132.628    2.5836    0.1787     9.666   200.000     8.559
 1502.8956   128.453    2.5982    0.2042     4.019   200.000     8.660
 1503.0480   117.753    2.6296    0.2193     3.949   200.000     8.618
 1503.2004   124.168    2.5822    0.1863     7.883   200.000     7.557
 1503.3528   122.173    2.6859    0.1815     6.972   200.000     8.685
 1503.5052   104.972    2.6587    0.1801     8.708   200.000     8.198
 1503.6576   120.671    2.5824    0.1252     7.472   200.000     9.212
 1503.8100   131.984    2.5380    0.1817     9.844   200.000     9.555
 1503.9624   116.299    2.5536    0.2061     5.696   200.000     8.966
 1504.1148   118.247    2.6371    0.2099     9.203   200.000     8.338
 1504.2672   152.673    2.6569    0.1866     6.390   200.000     8.423
 1504.4196   139.616    2.6588    0.2434    11.472   200.000     8.908
 1504.5720   149.071    2.4919    0.1895    10.201   200.000     7.232
 1504.7244   121.512    2.5713    0.1846     7.585   200.000     8.569
 1504.8768   102.389    2.6350    0.1468     5.984   200.000     8.785
 1505.0292   109.888    2.6071    0.1830     8.056   200.000     8.912
 1505.1816   140.725    2.5879    0.1905     5.020   200.000     8.414
 1505.3340   130.722    2.5800    0.1457     8.334   200.000     8.648
 1505.4864   113.141    2.5913    0.2206    14.871   200.000     8.512
 1505.6388   129.643    2.6406    0.1959     5.629   200.000     8.374
 1505.7912   117.402    2.6322    0.1635     4.929   200.000     8.296
 1505.9436   117.626    2.6959    0.1543     3.110   200.000     8.892
 1506.0960   108.106    2.5947    0.1809     3.698   200.000     9.103
 1506.2484   117.190    2.5816    0.1606    17.018   200.000     8.607
 1506.4008   115.996    2.6253    0.1940     6.435   200.000     8.470
 1506.5532   111.521    2.6564    0.2060     6.517   200.000     8.326
 1506.7056   130.512    2.5921    0.1812    12.852   200.000     8.203
 1506.8580   112.637    2.6580    0.1975    12.203   200.000     8.133
 1507.0104   110.096    2.6312    0.1538    10.923   200.000     8.519
 1507.1628   104.781    2.6077    0.1895     7.009   200.000     8.827
 1507.3152   117.247    2.5913    0.1361    11.258   200.000     8.639
 1507.4676   134.663    2.5923    0.1360     8.208   200.000     8.411
 1507.6200   110.636    2.6131    0.1699     6.883   200.000     8.380
 1507.7724   121.981    2.5865    0.1813    11.204   200.000     8.531
 1507.9248   115.631    2.6617    0.1387     8.835   200.000     8.950
 1508.0772   139.071    2.5865    0.1816     4.406   200.000     8.078
 1508.2296   117.598    2.5238    0.1739     7.085   200.000     8.399
 1508.3820   139.646    2.6081    0.1819     7.221   200.000     8.744
 1508.5344   141.310    2.5806    0.1776    13.931   200.000     8.267
 1508.6868   106.921    2.5864    0.1594     8.721   200.000     8.017
 1508.8392   104.506    2.5583    0.1634     4.508   200.000     8.355
 1508.9916   140.626    2.6236    0.2580     9.554   199.976     8.512
 1509.1440    88.605    2.5955    0.1815    16.979   200.000     9.270
 1509.2964   128.573    2.5541    0.2508     9.681   200.000     8.603
 1509.4488   133.860    2.5971    0.1863     5.622   200.000     8.459
 1509.6012   120.568    2.6446    0.1759     6.477   200.000     8.551
 1509.7536   123.014    2.6652    0.2001     6.588   200.000     8.238
 1509.9060   112.273    2.5724    0.1677    20.138   200.000     8.368
 1510.0584   126.249    2.6460    0.2068     4.386   200.000     8.512
 1510.2108   106.201    2.7416    0.1634     6.414   200.000     8.023
 1510.3632    96.782    2.7443    0.2133     8.116   200.000     8.785
 1510.5156   115.038    2.6127    0.1585     4.929   200.000     8.540
 1510.6680   139.052    2.5646    0.1875     7.239   200.000     7.916
 1510.8204   121.397    2.6913    0.1532     4.514   200.000     7.901
 1510.9728   117.835    2.5261    0.1368     9.548   200.000     8.246
 1511.1252   125.371    2.6070    0.1706     6.814   200.000     8.670
 1511.2776   125.090    2.5683    0.1994    12.402   200.000     8.923
 1511.4300   115.946    2.6078    0.1539    15.025   200.000     8.275
 1511.5824   130.509    2.6376    0.1713     2.794   200.000     8.498
 1511.7348   110.521    2.5341    0.1713     4.167   200.000     8.192
 1511.8872   123.886    2.6328    0.1720     9.658   200.000     8.767
 1512.0396   117.454    2.4739    0.1684    10.116   200.000     8.207
 1512.1920   124.167    2.5210    0.2162    11.589   200.000     8.384
 1512.3444   127.565    2.5788    0.1892     4.481   200.000     8.380
 1512.4968    95.487    2.5217    0.2009    13.007   200.000     9.086
 1512.6492   130.697    2.6076    0.1330     5.576   200.000     7.333
 1512.8016   128.810    2.6240    0.1756    14.921   200.000     8.387
 1512.9540    93.104    2.5828    0.2049     9.258   200.000     8.953
 1513.1064   105.128    2.7095    0.1986     9.644   200.000     8.839
 1513.2588   130.277    2.5750    0.2048     4.818   200.000     8.408
 1513.4112   151.419    2.6146    0.1823     7.058   200.000     8.437
 1513.5636   135.035    2.6175    0.2090     7.195   200.000     9.519
 1513.7160   136.580    2.6426    0.1694     7.653   200.000     9.325
 1513.8684   143.759    2.6173    0.1901     7.017   200.000     7.948
 1514.0208   102.277    2.6369    0.1970     6.437   200.000     8.807
 1514.1732   111.400    2.5829    0.2054     8.387   200.000     8.156
 1514.3256   116.915    2.5883    0.2170     5.672   200.000     8.620
 1514.4780   128.690    2.5404    0.1436     7.984   200.000     8.810
 1514.6304   131.417    2.6220    0.1886     5.264   200.000     8.600
 1514.7828   133.416    2.5413    0.1838     5.354   200.000     8.770
 1514.9352   104.237    2.5833    0.1915     5.742   200.000     8.140
 1515.0876   112.648    2.5528    0.1491     9.170   200.000     8.903
 1515.2400   121.555    2.6068    0.1801     4.201   200.000     8.631
 1515.3924   111.146    2.4999    0.1429     9.298   200.000     8.665
 1515.5448   133.222    2.5945    0.1694    16.398   200.000     8.316
 1515.6972   140.217    2.5301    0.1743     9.945   200.000     8.731
 1515.8496   123.759    2.6042    0.1196    10.653   200.000     8.679
 1516.0020   109.079    2.5596    0.1952    15.064   200.000     8.642
 1516.1544   121.731    2.6292    0.2194     4.397   200.000     7.883
 1516.3068   117.609    2.5572    0.1470     4.617   200.000     8.665
 1516.4592   116.827    2.5942    0.2006     7.132   200.000     8.742
 1516.6116   117.285    2.6843    0.2061     5.320   200.000     8.111
 1516.7640   110.401    2.6920    0.2035    13.848   200.000     8.813
 1516.9164   117.634    2.5435    0.1925    14.964   200.000     8.865
 1517.0688   108.294    2.5589    0.1805     8.741   200.000     8.211
