~VERSION INFORMATION
 VERS.                 2.0    : CWLS LOG ASCII STANDARD
 WRAP.                 NO     : ONE LINE PER DEPTH STEP
~WELL INFORMATION
 WELL.                 Midland-A12    : Well name
 FLD .                 Midland Basin         : Field
 CTRY.                 USA       : Country
 STRT.M                1500.0000 : START DEPTH
 STOP.M                4200.0000   : STOP DEPTH
 STEP.M                0.1524        : STEP
 NULL.                 -999.25          : NULL VALUE
 SRVC.                 SubsurfAI        : Service company
~CURVE INFORMATION
 DEPT.M                              : Depth
 GR  .GAPI                           : Gamma Ray
 RHOB.G/C3                           : Bulk Density
 NPHI.V/V                            : Neutron Porosity
 RT  .OHMM                           : True Resistivity
 DT  .US/F                           : Sonic
 CALI.IN                             : Caliper
~PARAMETER INFORMATION
 LAT .                 31.9974   : Latitude
 LON .                 -101.9543   : Longitude
 DESC.                 Permian Basin — Wolfcamp/Spraberry tight oil
~A  DEPT        GR        RHOB      NPHI      RT        DT        CALI
# ...
 4186.5072    48.224    2.3922    0.1668    12.084   200.000     8.927
 4186.6596    51.363    2.3668    0.1601    27.434   200.000     8.694
 4186.8120    39.985    2.3335    0.1705    13.006   200.000     8.463
 4186.9644    37.022    2.3155    0.1617    20.807   200.000     8.263
 4187.1168    41.024    2.4140    0.1559    27.086   200.000     8.421
 4187.2692    51.052    2.4002    0.1537    19.304   200.000     8.504
 4187.4216    41.748    2.3928    0.1361    31.673   200.000     8.461
 4187.5740    28.858    2.4509    0.1414    45.740   200.000     8.610
 4187.7264    43.191    2.3283    0.1384    25.811   200.000     9.059
 4187.8788    35.143    2.4322    0.1494    16.834   200.000     8.438
 4188.0312    35.413    2.4052    0.1446    11.211   200.000     8.426
 4188.1836    44.682    2.2833    0.1579    27.548   200.000     8.457
 4188.3360    46.215    2.2970    0.1404    18.811   200.000     8.557
 4188.4884    40.594    2.3550    0.1523    24.201   200.000     8.257
 4188.6408    32.577    2.3643    0.0886     9.299   200.000     8.395
 4188.7932    39.702    2.3214    0.1583    31.913   200.000     7.983
 4188.9456    24.960    2.3132    0.1575    53.103   200.000     8.775
 4189.0980    40.907    2.3146    0.1640    32.843   200.000     7.863
 4189.2504    46.511    2.2917    0.1563    86.630   200.000     8.675
 4189.4028    42.405    2.2953    0.1673    25.011   200.000     8.510
 4189.5552    55.779    2.3236    0.1155    39.833   200.000     8.502
 4189.7076    34.607    2.3663    0.1961    16.813   200.000     9.255
 4189.8600    31.849    2.3171    0.1431    18.370   200.000     8.378
 4190.0124    56.866    2.3777    0.1322    36.062   200.000     8.644
 4190.1648    38.846    2.3333    0.1386    58.595   200.000     8.657
 4190.3172    39.722    2.3101    0.1610    28.131   200.000     8.742
 4190.4696    52.032    2.3327    0.1930    23.301   200.000     8.432
 4190.6220    32.071    2.3690    0.1735    16.945   200.000     8.136
 4190.7744    39.942    2.4408    0.1247    19.553   200.000     8.222
 4190.9268    45.339    2.3797    0.1454    12.533   200.000     8.690
 4191.0792    37.720    2.4270    0.1847    33.965   200.000     8.438
 4191.2316    36.341    2.3516    0.1817    22.462   200.000     8.182
 4191.3840    45.435    2.4166    0.1395    25.178   200.000     8.869
 4191.5364    36.075    2.3792    0.1568    14.510   200.000     8.655
 4191.6888    41.667    2.3144    0.1708    15.527   200.000     8.500
 4191.8412    40.303    2.4766    0.1193    17.121   200.000     7.953
 4191.9936    45.837    2.3280    0.1583    38.243   200.000     8.850
 4192.1460    37.405    2.2608    0.1483    23.810   200.000     7.933
 4192.2984    43.678    2.3058    0.1518    34.808   200.000     8.498
 4192.4508    53.473    2.3683    0.1650    57.990   200.000     8.092
 4192.6032    38.928    2.3824    0.1475    26.509   200.000     8.123
 4192.7556    58.618    2.3791    0.1191    17.442   200.000     9.199
 4192.9080    39.769    2.3616    0.1388    12.375   200.000     8.568
 4193.0604    37.413    2.3213    0.1559    38.870   200.000     8.492
 4193.2128    39.896    2.4482    0.1451    15.014   200.000     7.667
 4193.3652    39.877    2.2994    0.1813    28.682   200.000     8.968
 4193.5176    52.074    2.3560    0.1663    55.231   200.000     9.199
 4193.6700    35.576    2.4059    0.1537    14.904   200.000     8.844
 4193.8224    43.536    2.3655    0.1702    30.606   200.000     8.419
 4193.9748    36.222    2.3552    0.1863    23.482   200.000     8.599
 4194.1272    46.018    2.2729    0.1259    59.138   200.000     8.710
 4194.2796    56.271    2.3678    0.1612    33.997   200.000     8.629
 4194.4320    52.619    2.3033    0.1508    16.761   200.000     7.908
 4194.5844    45.461    2.4556    0.1635    29.054   200.000     8.879
 4194.7368    40.088    2.3869    0.1401    34.249   200.000     8.350
 4194.8892    39.017    2.4194    0.0995    40.127   200.000     8.409
 4195.0416    43.428    2.3588    0.1525    44.693   200.000     8.228
 4195.1940    41.654    2.3301    0.1715    65.085   200.000     8.274
 4195.3464    43.025    2.2689    0.1497    28.982   200.000     8.601
 4195.4988    44.996    2.3531    0.1311    13.125   200.000     9.561
 4195.6512    40.566    2.3493    0.1698    31.260   200.000     8.776
 4195.8036    37.136    2.2972    0.1453    48.926   200.000     8.489
 4195.9560    46.498    2.4044    0.1562    70.431   200.000     8.707
 4196.1084    39.830    2.4557    0.1417    20.264   200.000     7.915
 4196.2608    44.717    2.3846    0.1053    31.404   200.000     9.131
 4196.4132    36.949    2.3332    0.1136    32.414   200.000     8.515
 4196.5656    37.510    2.3927    0.1095     7.372   200.000     8.712
 4196.7180    41.671    2.3325    0.1563    44.529   200.000     8.577
 4196.8704    44.704    2.3215    0.1252    33.651   200.000     8.054
 4197.0228    50.462    2.2938    0.1308    39.806   200.000     8.914
 4197.1752    57.266    2.3041    0.1082    31.701   200.000     8.372
 4197.3276    42.646    2.2932    0.1637    37.298   200.000     8.849
 4197.4800    38.032    2.4123    0.1436    28.953   200.000     8.823
 4197.6324    49.824    2.4091    0.1416    20.716   200.000     9.308
 4197.7848    39.287    2.3531    0.1306    21.147   200.000     8.461
 4197.9372    44.301    2.3364    0.1379    25.878   200.000     8.407
 4198.0896    31.392    2.3074    0.1431    45.159   200.000     8.543
 4198.2420    37.646    2.3216    0.1675    10.257   200.000     8.616
 4198.3944    41.727    2.3576    0.1301    16.362   200.000     9.100
 4198.5468    43.282    2.3771    0.1628   144.320   200.000     8.580
 4198.6992    46.811    2.3828    0.1906    22.005   200.000     8.099
 4198.8516    42.036    2.2372    0.1615    11.989   200.000     8.968
 4199.0040    34.669    2.3356    0.1267    47.800   200.000     8.280
 4199.1564    40.283    2.3310    0.1434    11.231   200.000     9.017
 4199.3088    42.128    2.3277    0.1254    21.091   200.000     8.950
 4199.4612    42.960    2.4037    0.1371    23.628   200.000     8.415
 4199.6136    38.789    2.3235    0.1481    26.836   200.000     8.579
 4199.7660    45.344    2.3031    0.1245    20.398   200.000     8.389
 4199.9184    36.669    2.2338    0.1215    33.841   200.000     8.956
